{"status": "OK", "html_attributions": [], "results": [{"rating": 4.2, "user_ratings_total": 50, "name": "Ballygunge Station", "reference": "ChIJ01XGzNN2AjoRYGDVq80e0wU", "geometry": {"location": {"lat": 22.521315, "lng": 88.369517}, "viewport": {"northeast": {"lat": 22.5226340802915, "lng": 88.3708624802915}, "southwest": {"lat": 22.5199361197085, "lng": 88.36816451970849}}}, "place_id": "ChIJ01XGzNN2AjoRYGDVq80e0wU", "plus_code": {"global_code": "7MJCG9C9+GR", "compound_code": "G9C9+GR Kolkata, West Bengal, India"}, "vicinity": "Bijan Setu, Dhakuria, Ekdalia, Ballygunge, Kolkata", "photos": [{"photo_reference": "ATtYBwLNevYYnLFDoljCyw-Il__UKLsZwzrIVLoCCMRUPpoW3IqqkklzVwEZqu8qOweiSnDFlv6S-cLZMU6ZkO7XMp_EEPL_XMsLw9zdrGyizlX8ri38O2e2vERiml-Nan9BOOkLD8KF3zIRw1k6Z5quDIZgkocKzv25S80EGKyNCO6dltVK", "width": 2669, "html_attributions": ["<a href=\"https://maps.google.com/maps/contrib/104308886040157895702\">Kausik Roy</a>"], "height": 1829}], "scope": "GOOGLE", "business_status": "OPERATIONAL", "types": ["bus_station", "transit_station", "point_of_interest", "establishment"], "icon": "https://maps.gstatic.com/mapfiles/place_api/icons/v1/png_71/bus-71.png"}, {"rating": 2.9, "user_ratings_total": 47, "name": "Park Circus Railway Station", "reference": "ChIJe8e0sMJ2AjoRyZUCM9CP5MM", "geometry": {"location": {"lat": 22.539055, "lng": 88.37303800000001}, "viewport": {"northeast": {"lat": 22.5403888802915, "lng": 88.3745758802915}, "southwest": {"lat": 22.5376909197085, "lng": 88.3718779197085}}}, "place_id": "ChIJe8e0sMJ2AjoRyZUCM9CP5MM", "plus_code": {"global_code": "7MJCG9QF+J6", "compound_code": "G9QF+J6 Kolkata, West Bengal, India"}, "vicinity": "India", "photos": [{"photo_reference": "ATtYBwLfkRsg5x0jHk0KiMbfA0VMZdacpC9DIbjzlPihRrM3ywSuyWe8Iz5b6rSUPrOdud5y2YdqCbwwOKRBDh7GONESCPesQnc0D9lVJZ526nLgZOewfRVQLQJ_43brAhtf1sROOX1-z7oPoUvh4DTjnWOdw2Er5gdgbn9JN9mmf7APD6m7", "width": 4160, "html_attributions": ["<a href=\"https://maps.google.com/maps/contrib/102589528277139511843\">Shuvayu Biswas</a>"], "height": 2340}], "scope": "GOOGLE", "business_status": "OPERATIONAL", "types": ["bus_station", "transit_station", "point_of_interest", "establishment"], "icon": "https://maps.gstatic.com/mapfiles/place_api/icons/v1/png_71/bus-71.png"}, {"rating": 3, "user_ratings_total": 40, "name": "Park Circus", "reference": "ChIJw4OMsMJ2AjoRI1BQE5ajDpA", "geometry": {"location": {"lat": 22.539236, "lng": 88.37301099999999}, "viewport": {"northeast": {"lat": 22.5406924802915, "lng": 88.3744992802915}, "southwest": {"lat": 22.5379945197085, "lng": 88.37180131970848}}}, "place_id": "ChIJw4OMsMJ2AjoRI1BQE5ajDpA", "plus_code": {"global_code": "7MJCG9QF+M6", "compound_code": "G9QF+M6 Kolkata, West Bengal, India"}, "vicinity": "India", "photos": [{"photo_reference": "ATtYBwIGTJCh1HDxvsB3XIlt7cs8oUpWLeGhvtsNY7yvZlY-VzkaTQCaYiHB-TCrpw0tNjK8ZDUj0t5kqhU7pZOPEmEAdMuqwAVBW04wjNWyL2finyiKYocL--1IBBI10-_MR84Oq2qBh9xcFQ73_qG-h35fx_BieSKbF6g4sEXVXA9M5g7b", "width": 4608, "html_attributions": ["<a href=\"https://maps.google.com/maps/contrib/108173151430505557593\">SOHEL ISLAM</a>"], "height": 3456}], "scope": "GOOGLE", "business_status": "OPERATIONAL", "types": ["bus_station", "transit_station", "point_of_interest", "establishment"], "icon": "https://maps.gstatic.com/mapfiles/place_api/icons/v1/png_71/bus-71.png"}, {"rating": 5, "user_ratings_total": 4, "name": "Bankra Park Circus Bus Stop", "reference": "ChIJ1ZtmMuF2AjoRms2UFXHLi0c", "geometry": {"location": {"lat": 22.5438766, "lng": 88.3674449}, "viewport": {"northeast": {"lat": 22.5451896302915, "lng": 88.3688092802915}, "southwest": {"lat": 22.5424916697085, "lng": 88.3661113197085}}}, "place_id": "ChIJ1ZtmMuF2AjoRms2UFXHLi0c", "plus_code": {"global_code": "7MJCG9V8+HX", "compound_code": "G9V8+HX Kolkata, West Bengal, India"}, "vicinity": "Kimber Street, Beniapukur, Kolkata", "scope": "GOOGLE", "business_status": "OPERATIONAL", "types": ["bus_station", "transit_station", "point_of_interest", "establishment"], "icon": "https://maps.gstatic.com/mapfiles/place_api/icons/v1/png_71/bus-71.png"}, {"rating": 3.9, "user_ratings_total": 108, "name": "Ballygunge Station", "reference": "ChIJIYhtP9J2AjoRNxXcionJBiQ", "geometry": {"location": {"lat": 22.520809, "lng": 88.3710615}, "viewport": {"northeast": {"lat": 22.5221584802915, "lng": 88.3724105802915}, "southwest": {"lat": 22.5194605197085, "lng": 88.3697126197085}}}, "place_id": "ChIJIYhtP9J2AjoRNxXcionJBiQ", "plus_code": {"global_code": "7MJCG9CC+8C", "compound_code": "G9CC+8C Kali Tala, West Bengal, India"}, "vicinity": "BD Banerjee Road, Bangur Park, Kali Tala", "photos": [{"photo_reference": "ATtYBwLA1xLGHHltBwkeZ2CWHdUlnq-heJJ6CVrkTXEM1sXT8VOoEfKmj-zXBCF-pK2t64NrdGRR9EkCwYDLdQjzDrBKbZZwcLEiv15wN9BG2LNJhSmsATwpYqzzC9i50KHVHODe1fJ086Z1-L7Efk3Ar2c-EXMF_Llbzmn5utzGIysZAUg9", "width": 1600, "html_attributions": ["<a href=\"https://maps.google.com/maps/contrib/110631148622943261037\">Rajib Saha</a>"], "height": 1200}], "scope": "GOOGLE", "business_status": "OPERATIONAL", "types": ["bus_station", "transit_station", "point_of_interest", "establishment"], "icon": "https://maps.gstatic.com/mapfiles/place_api/icons/v1/png_71/bus-71.png"}, {"name": "Kasba (Near Old Kasba P. S)", "reference": "ChIJbdHNCct2AjoRc3taSCQjeGE", "geometry": {"location": {"lat": 22.51931799999999, "lng": 88.378997}, "viewport": {"northeast": {"lat": 22.5206746302915, "lng": 88.38034648029151}, "southwest": {"lat": 22.5179766697085, "lng": 88.3776485197085}}}, "place_id": "ChIJbdHNCct2AjoRc3taSCQjeGE", "plus_code": {"global_code": "7MJCG99H+PH", "compound_code": "G99H+PH Kolkata, West Bengal, India"}, "vicinity": "India", "scope": "GOOGLE", "business_status": "OPERATIONAL", "types": ["bus_station", "transit_station", "point_of_interest", "establishment"], "icon": "https://maps.gstatic.com/mapfiles/place_api/icons/v1/png_71/bus-71.png"}, {"rating": 5, "user_ratings_total": 1, "name": "K.M.C. Pumping Station", "reference": "ChIJgT2cgbV2AjoRQ5NgcqXKpyI", "geometry": {"location": {"lat": 22.5195815, "lng": 88.382447}, "viewport": {"northeast": {"lat": 22.5209169802915, "lng": 88.3837979802915}, "southwest": {"lat": 22.5182190197085, "lng": 88.3811000197085}}}, "place_id": "ChIJgT2cgbV2AjoRQ5NgcqXKpyI", "plus_code": {"global_code": "7MJCG99J+RX", "compound_code": "G99J+RX Kolkata, West Bengal, India"}, "vicinity": "Rash Behari Avenue, New Ballygunge, Kasba, Kolkata", "scope": "GOOGLE", "business_status": "OPERATIONAL", "types": ["bus_station", "transit_station", "point_of_interest", "establishment"], "icon": "https://maps.gstatic.com/mapfiles/place_api/icons/v1/png_71/bus-71.png"}, {"rating": 4, "user_ratings_total": 3, "name": "K.M.C. Pumping Station", "reference": "ChIJraJcf7V2AjoRF_HcFju_yHY", "geometry": {"location": {"lat": 22.519378, "lng": 88.382578}, "viewport": {"northeast": {"lat": 22.5207562302915, "lng": 88.3839221802915}, "southwest": {"lat": 22.5180582697085, "lng": 88.3812242197085}}}, "place_id": "ChIJraJcf7V2AjoRF_HcFju_yHY", "plus_code": {"global_code": "7MJCG99M+Q2", "compound_code": "G99M+Q2 Kolkata, West Bengal, India"}, "vicinity": "India", "photos": [{"photo_reference": "ATtYBwIljt8yOwkZV4J-hRWe1hG399q-7JGTrFWo_DxlF8GlR-ovTChlUvC8LTUj2xJPxxypVXfIqWsne5U1LydURJi2mWZ7RBXafN2LHptX-3YGuviOTPWJiPLiEj6mjGS5lfH5lH2vnIRJWgU6gKdAG79JtPDsbj7HJ9xn4n7dM30q2y6T", "width": 4160, "html_attributions": ["<a href=\"https://maps.google.com/maps/contrib/102947642619987169072\">Shamick Das</a>"], "height": 2340}], "scope": "GOOGLE", "business_status": "OPERATIONAL", "types": ["bus_station", "transit_station", "point_of_interest", "establishment"], "icon": "https://maps.gstatic.com/mapfiles/place_api/icons/v1/png_71/bus-71.png"}]}