{"status": "OK", "html_attributions": [], "results": [{"rating": 5, "user_ratings_total": 1, "name": "Koyambedu New Parveen Terminus", "reference": "ChIJ-TAoMaZmUjoRuVRIKPbjBkM", "geometry": {"location": {"lat": 13.0760752, "lng": 80.19967609999999}, "viewport": {"northeast": {"lat": 13.0773864802915, "lng": 80.20077753029149}, "southwest": {"lat": 13.0746885197085, "lng": 80.19807956970848}}}, "place_id": "ChIJ-TAoMaZmUjoRuVRIKPbjBkM", "plus_code": {"global_code": "7M5235GX+CV", "compound_code": "35GX+CV Chennai, Tamil Nadu, India"}, "vicinity": "India", "photos": [{"photo_reference": "ATtYBwIcAsrSKPBurWmmnbw62qUi1whr8DZp84cRy6fXUaR6jSZyCQZJNJmo9ufR8oP_E6MozXae78nlUOXg5IcZEImRFN30tYV0kK5A59e1j5mZfpxluE-SrH22BnWsaXeLmfVzwBVPL2PF_Gby9HfowkxhMPiRKRv16ZuIFX4-Z5ftcAfd", "width": 2448, "html_attributions": ["<a href=\"https://maps.google.com/maps/contrib/102962314451959041128\">Sakthivel A.S</a>"], "height": 3264}], "scope": "GOOGLE", "business_status": "OPERATIONAL", "types": ["bus_station", "transit_station", "point_of_interest", "establishment"], "icon": "https://maps.gstatic.com/mapfiles/place_api/icons/v1/png_71/bus-71.png"}, {"rating": 3.7, "user_ratings_total": 22, "name": "SRS Bus Depot", "reference": "ChIJawVuN6RmUjoRiK8D7lAP3WU", "geometry": {"location": {"lat": 13.0726488, "lng": 80.202108}, "viewport": {"northeast": {"lat": 13.0739621802915, "lng": 80.20352398029151}, "southwest": {"lat": 13.0712642197085, "lng": 80.20082601970849}}}, "place_id": "ChIJawVuN6RmUjoRiK8D7lAP3WU", "plus_code": {"global_code": "7M5236F2+3R", "compound_code": "36F2+3R Chennai, Tamil Nadu, India"}, "vicinity": "#105,100 Feet Road Koyambedu, 105, Tiruveedhi Amman Koil Street, Janakiraman Colony, Koyambedu, Chennai", "photos": [{"photo_reference": "ATtYBwKrFAP-DOWbeYsh4EdimMmvsRaxiwIP3K2Rqt-xAB5pgrP3I780Ah-rtiG7IhiLwmb0PIs8Txo3urobZQwRGow6vX2VDbL8FxLpEgiglG76AJdzliKnNo98j58knoN7cMYxZGSPNAbZbDsjXnyD-FfH27LlhiQ_FVwyIYWKxmLe7QFM", "width": 4608, "html_attributions": ["<a href=\"https://maps.google.com/maps/contrib/115299416233631999154\">john peter</a>"], "height": 3456}], "scope": "GOOGLE", "business_status": "OPERATIONAL", "types": ["bus_station", "transit_station", "point_of_interest", "establishment"], "icon": "https://maps.gstatic.com/mapfiles/place_api/icons/v1/png_71/bus-71.png"}, {"rating": 4.2, "user_ratings_total": 53, "name": "C.M.B.T", "reference": "ChIJATpJb6NmUjoR6YqdYw5R4Qk", "geometry": {"location": {"lat": 13.069258, "lng": 80.206672}, "viewport": {"northeast": {"lat": 13.0705556802915, "lng": 80.2079859302915}, "southwest": {"lat": 13.0678577197085, "lng": 80.2052879697085}}}, "place_id": "ChIJATpJb6NmUjoR6YqdYw5R4Qk", "plus_code": {"global_code": "7M523694+PM", "compound_code": "3694+PM Chennai, Tamil Nadu, India"}, "vicinity": "India", "photos": [{"photo_reference": "ATtYBwJ-4Z2R0N1PnyzOf__totJnPRZbYZotJyW-ZQpWjCn9ehkOunYopymSe9ltYItteYJtXVK4vhwPu4JGGw8hufSfrzh4DquVI5hImddYgEmySpC9P7qAOtClfzk9lwlVzcuVX9_DIcTGCo2md15tAogqdUrSK5C-x60UNp957uwlK0oE", "width": 4160, "html_attributions": ["<a href=\"https://maps.google.com/maps/contrib/116589267884064968991\">Alagu Ravi Solaiappan</a>"], "height": 2340}], "scope": "GOOGLE", "business_status": "OPERATIONAL", "types": ["bus_station", "transit_station", "point_of_interest", "establishment"], "icon": "https://maps.gstatic.com/mapfiles/place_api/icons/v1/png_71/bus-71.png"}, {"rating": 3.6, "user_ratings_total": 27, "name": "C.M.B.T", "reference": "ChIJ1faqZ6NmUjoRuTj5-_kTbfQ", "geometry": {"location": {"lat": 13.069873, "lng": 80.20470499999999}, "viewport": {"northeast": {"lat": 13.0712513802915, "lng": 80.20607818029151}, "southwest": {"lat": 13.0685534197085, "lng": 80.20338021970849}}}, "place_id": "ChIJ1faqZ6NmUjoRuTj5-_kTbfQ", "plus_code": {"global_code": "7M523693+WV", "compound_code": "3693+WV Chennai, Tamil Nadu, India"}, "vicinity": "India", "photos": [{"photo_reference": "ATtYBwKHgCpAh_i1ix9V9bnS5joDUHxKDFfvZQIHjaRXm63yaF0ZjXEAZIxyCV9INDPZuBli0vFIxFt47mwscI4rChBxjba9WdBnFYoBxGDJ2jPD-27utBtcyH9UYtq5tFy7MYrYzYbli3RFCbv7fll_ikw2gcTxwns-L0DdsugjLfrP7KBJ", "width": 4608, "html_attributions": ["<a href=\"https://maps.google.com/maps/contrib/118070305515646382567\">Kannan Esakki</a>"], "height": 3456}], "scope": "GOOGLE", "business_status": "OPERATIONAL", "types": ["bus_station", "transit_station", "point_of_interest", "establishment"], "icon": "https://maps.gstatic.com/mapfiles/place_api/icons/v1/png_71/bus-71.png"}, {"rating": 2.8, "user_ratings_total": 79, "name": "SRM Bus Terminus", "reference": "ChIJ-aA0WaRmUjoRsjW1gVsaS1E", "geometry": {"location": {"lat": 13.0712876, "lng": 80.2025874}, "viewport": {"northeast": {"lat": 13.0727511302915, "lng": 80.20404123029151}, "southwest": {"lat": 13.0700531697085, "lng": 80.2013432697085}}}, "place_id": "ChIJ-aA0WaRmUjoRsjW1gVsaS1E", "plus_code": {"global_code": "7M5236C3+G2", "compound_code": "36C3+G2 Chennai, Tamil Nadu, India"}, "vicinity": "Opp. Adyar Ananda Bhavan, 1/1, State Highway 2, Koyambedu, Chennai", "photos": [{"photo_reference": "ATtYBwI_YzVpAoA51FKqqZ8sw4wtbjHdnBmIxbnqUv1bqs0ybDJ2an_xdYIPSD86vtkjkS0xuc_p49uWsWwNyEhxdcSnge6imfL6ZxK0wWC1rC126KmPCepnz4X6invz5u4hISoVuJlK9FDCmexPxjhSH0kgsV68ofKZpRcqkFFv2JVHVftl", "width": 4608, "html_attributions": ["<a href=\"https://maps.google.com/maps/contrib/108363176838054994753\">SENTHILMANI M</a>"], "height": 3456}], "scope": "GOOGLE", "business_status": "OPERATIONAL", "types": ["bus_station", "transit_station", "point_of_interest", "establishment"], "icon": "https://maps.gstatic.com/mapfiles/place_api/icons/v1/png_71/bus-71.png"}, {"name": "Rohini Theatre, Koyambedu", "reference": "ChIJS3vPnKhmUjoRZ6Dd5kn6NZw", "geometry": {"location": {"lat": 13.0758036, "lng": 80.1984334}, "viewport": {"northeast": {"lat": 13.0771764302915, "lng": 80.19977663029151}, "southwest": {"lat": 13.0744784697085, "lng": 80.19707866970849}}}, "place_id": "ChIJS3vPnKhmUjoRZ6Dd5kn6NZw", "plus_code": {"global_code": "7M5235GX+89", "compound_code": "35GX+89 Chennai, Tamil Nadu, India"}, "vicinity": "India", "scope": "GOOGLE", "business_status": "OPERATIONAL", "types": ["bus_station", "transit_station", "point_of_interest", "establishment"], "icon": "https://maps.gstatic.com/mapfiles/place_api/icons/v1/png_71/bus-71.png"}]}