{"status": "OK", "html_attributions": [], "results": [{"rating": 3.8, "user_ratings_total": 326, "name": "More Supermarket", "reference": "ChIJyzh3_YhjUjoR81Znamxib2A", "geometry": {"location": {"lat": 13.1102452, "lng": 80.18417579999999}, "viewport": {"northeast": {"lat": 13.1115899802915, "lng": 80.1855760302915}, "southwest": {"lat": 13.1088920197085, "lng": 80.1828780697085}}}, "opening_hours": {"open_now": false}, "place_id": "ChIJyzh3_YhjUjoR81Znamxib2A", "plus_code": {"global_code": "7M52456M+3M", "compound_code": "456M+3M Chennai, Tamil Nadu, India"}, "vicinity": "Bus stand, No. 7, 57th Street, near Korattur, Railway Station Road, TNHB Colony, Korattur, Chennai", "photos": [{"photo_reference": "ATtYBwIr9j94ckezgFUbVse6Za8evjkG_Met3aIy-NAEFkDgdWjOMAeyq1eN79Qp4uwOlJ6PZvBe9IbmVt6mKwF-VTDbXUn8WdW7FMSygh_WNQNtnowSX3eMgr-NrkIrY4sNt4r6lI2PrQSjPYYwZ9L1F9Kb2F6uz2XAegzW7ym5x51OiO9O", "width": 4608, "html_attributions": ["<a href=\"https://maps.google.com/maps/contrib/104173935448052916251\">DIWAKAR PRAKASAM</a>"], "height": 3456}], "scope": "GOOGLE", "business_status": "OPERATIONAL", "types": ["supermarket", "grocery_or_supermarket", "food", "point_of_interest", "store", "establishment"], "icon": "https://maps.gstatic.com/mapfiles/place_api/icons/v1/png_71/shopping-71.png"}, {"rating": 5, "user_ratings_total": 3, "name": "Sri Parvathi Stores", "reference": "ChIJy_rQTWpjUjoRu-r89I6m2tg", "geometry": {"location": {"lat": 13.1146675, "lng": 80.18719229999999}, "viewport": {"northeast": {"lat": 13.1160287302915, "lng": 80.18854048029151}, "southwest": {"lat": 13.1133307697085, "lng": 80.1858425197085}}}, "place_id": "ChIJy_rQTWpjUjoRu-r89I6m2tg", "plus_code": {"global_code": "7M52457P+VV", "compound_code": "457P+VV Chennai, Tamil Nadu, India"}, "vicinity": "No 9, 66, North, Korattur Railway Station Road, Sivalingapuram, Korattur, Chennai", "scope": "GOOGLE", "business_status": "OPERATIONAL", "types": ["supermarket", "grocery_or_supermarket", "food", "point_of_interest", "store", "establishment"], "icon": "https://maps.gstatic.com/mapfiles/place_api/icons/v1/png_71/shopping-71.png"}, {"rating": 3.7, "user_ratings_total": 37, "name": "Bakkiyam Super market", "reference": "ChIJEdesY3hkUjoR107ULIWpbq0", "geometry": {"location": {"lat": 13.1158738, "lng": 80.1884101}, "viewport": {"northeast": {"lat": 13.1172214802915, "lng": 80.1897241302915}, "southwest": {"lat": 13.1145235197085, "lng": 80.18702616970849}}}, "opening_hours": {"open_now": false}, "place_id": "ChIJEdesY3hkUjoR107ULIWpbq0", "plus_code": {"global_code": "7M52458Q+89", "compound_code": "458Q+89 Chennai, Tamil Nadu, India"}, "vicinity": "22, NRS Road, Sivalingapuram, Korattur, Chennai", "scope": "GOOGLE", "business_status": "OPERATIONAL", "types": ["supermarket", "grocery_or_supermarket", "food", "point_of_interest", "store", "establishment"], "icon": "https://maps.gstatic.com/mapfiles/place_api/icons/v1/png_71/shopping-71.png"}, {"rating": 3.3, "user_ratings_total": 18, "name": "Annachi Super Market", "reference": "ChIJrZw6ZIhjUjoR70nV6fe_4hA", "geometry": {"location": {"lat": 13.1120669, "lng": 80.185195}, "viewport": {"northeast": {"lat": 13.1133673802915, "lng": 80.1865550802915}, "southwest": {"lat": 13.1106694197085, "lng": 80.18385711970849}}}, "opening_hours": {"open_now": false}, "place_id": "ChIJrZw6ZIhjUjoR70nV6fe_4hA", "plus_code": {"global_code": "7M52456P+R3", "compound_code": "456P+R3 Chennai, Tamil Nadu, India"}, "vicinity": "Shop No. 14, South Railway Station Road, Station Road, Korattur, Chennai", "photos": [{"photo_reference": "ATtYBwIz8o3TYpt9PNOhnRVSDvObHET1s_Nb8v2451pEF5BM2pNHz0IOC_v8x_IFOUCyeUlcvECEJ_j9AnrxlhxPl0U5Vfk_sMJ8W5C5mo4QttOXjUCFlIhfQNh1aJKcSYfKvW18_pfTvEoIGrebMy9KJU2ZnQV0ugeVZgFlrOq_hEsiMMS0", "width": 600, "html_attributions": ["<a href=\"https://maps.google.com/maps/contrib/116650988627192206148\">Seyed Kasim</a>"], "height": 800}], "scope": "GOOGLE", "business_status": "OPERATIONAL", "types": ["supermarket", "grocery_or_supermarket", "food", "point_of_interest", "store", "establishment"], "icon": "https://maps.gstatic.com/mapfiles/place_api/icons/v1/png_71/shopping-71.png"}, {"rating": 5, "user_ratings_total": 9, "name": "Datos Supermarket", "reference": "ChIJc_4rcDVlUjoR0CH_DyyK200", "geometry": {"location": {"lat": 13.1192971, "lng": 80.1896187}, "viewport": {"northeast": {"lat": 13.1206389302915, "lng": 80.1910254302915}, "southwest": {"lat": 13.1179409697085, "lng": 80.18832746970848}}}, "opening_hours": {"open_now": false}, "place_id": "ChIJc_4rcDVlUjoR0CH_DyyK200", "plus_code": {"global_code": "7M52459Q+PR", "compound_code": "459Q+PR Chennai, Tamil Nadu, India"}, "vicinity": "Agraharam, Korattur, Chennai", "scope": "GOOGLE", "business_status": "OPERATIONAL", "types": ["supermarket", "grocery_or_supermarket", "food", "point_of_interest", "store", "establishment"], "icon": "https://maps.gstatic.com/mapfiles/place_api/icons/v1/png_71/shopping-71.png"}, {"rating": 5, "user_ratings_total": 1, "name": "kumaran Stores", "reference": "ChIJBwl6tZtjUjoR0U-W2k_3dG0", "geometry": {"location": {"lat": 13.111229, "lng": 80.184378}, "viewport": {"northeast": {"lat": 13.1125789302915, "lng": 80.18573738029151}, "southwest": {"lat": 13.1098809697085, "lng": 80.18303941970849}}}, "place_id": "ChIJBwl6tZtjUjoR0U-W2k_3dG0", "plus_code": {"global_code": "7M52456M+FQ", "compound_code": "456M+FQ Chennai, Tamil Nadu, India"}, "vicinity": "734, 28th Street, Korattur, Chennai", "scope": "GOOGLE", "business_status": "OPERATIONAL", "types": ["supermarket", "grocery_or_supermarket", "food", "point_of_interest", "store", "establishment"], "icon": "https://maps.gstatic.com/mapfiles/place_api/icons/v1/png_71/shopping-71.png"}, {"name": "Chennai Cold Storage", "reference": "ChIJi2wuzvxlUjoRFkATIl8RJXw", "geometry": {"location": {"lat": 13.1186707, "lng": 80.1899694}, "viewport": {"northeast": {"lat": 13.1200365302915, "lng": 80.1914104302915}, "southwest": {"lat": 13.1173385697085, "lng": 80.18871246970848}}}, "place_id": "ChIJi2wuzvxlUjoRFkATIl8RJXw", "plus_code": {"global_code": "7M52459Q+FX", "compound_code": "459Q+FX Puthagaram, Tamil Nadu, India"}, "vicinity": "Unnamed Road, Agraharam, Korattur, Puthagaram", "scope": "GOOGLE", "business_status": "OPERATIONAL", "types": ["supermarket", "grocery_or_supermarket", "food", "point_of_interest", "store", "establishment"], "icon": "https://maps.gstatic.com/mapfiles/place_api/icons/v1/png_71/shopping-71.png"}, {"rating": 4.1, "user_ratings_total": 44, "name": "Veni Super Market", "reference": "ChIJ68q_HIljUjoREHnTH4WFkT4", "geometry": {"location": {"lat": 13.1101783, "lng": 80.1843518}, "viewport": {"northeast": {"lat": 13.1114343802915, "lng": 80.1856894802915}, "southwest": {"lat": 13.1087364197085, "lng": 80.1829915197085}}}, "opening_hours": {"open_now": false}, "place_id": "ChIJ68q_HIljUjoREHnTH4WFkT4", "plus_code": {"global_code": "7M52456M+3P", "compound_code": "456M+3P Chennai, Tamil Nadu, India"}, "vicinity": "8/780L, North Avenue, TNHB Colony, Venkatraman Nagar, Korattur, Chennai", "photos": [{"photo_reference": "ATtYBwJB2jiVYBubGhl7-cqOYuW373ewsL9bOUnc-w6nHw2jPa1RG-ld93vUoU5a-d8dqr_IdOU2R8W22zyFaXS_AqST771O8CSvI1FpkzbzgB5BpGXM2wh_xPHwG3AZfneAMQvpwZmsXRN_KrVjwnWugc8U21o4hJx8bzVIhf2b-Xnc8ryP", "width": 2592, "html_attributions": ["<a href=\"https://maps.google.com/maps/contrib/105595396845177971048\">Venkat Tom</a>"], "height": 1944}], "scope": "GOOGLE", "business_status": "OPERATIONAL", "types": ["grocery_or_supermarket", "supermarket", "food", "point_of_interest", "store", "establishment"], "icon": "https://maps.gstatic.com/mapfiles/place_api/icons/v1/png_71/shopping-71.png"}, {"rating": 4.2, "user_ratings_total": 21, "name": "AgarwalPackersAmudham Fresh Supermarket", "reference": "ChIJw6mgF5ljUjoRVEeeeqAfi4c", "geometry": {"location": {"lat": 13.1165389, "lng": 80.168815}, "viewport": {"northeast": {"lat": 13.1178825802915, "lng": 80.1701921302915}, "southwest": {"lat": 13.1151846197085, "lng": 80.16749416970849}}}, "opening_hours": {"open_now": false}, "place_id": "ChIJw6mgF5ljUjoRVEeeeqAfi4c", "plus_code": {"global_code": "7M524589+JG", "compound_code": "4589+JG Chennai, Tamil Nadu, India"}, "vicinity": "Gannamoorthy, 49, Periyar Street, Gnanamurthi Nagar, Ambattur, Chennai", "photos": [{"photo_reference": "ATtYBwJsTXS1tQrh_eEKuWBPaKRD4D5WEPchAc7EzWQMNUiJ4pq26kQII5PmLKPu0OhH-omy1TeybreAT-l-gkBlMtb7EJM8UHLOrMgU2EvrWiKV2fL4dO0x3DHAw9EdIBWHH5RK_4vjmJwSvW_QIBHhugztrnNfZTbPL9_fuYbsgIVMcwjv", "width": 4160, "html_attributions": ["<a href=\"https://maps.google.com/maps/contrib/100973162847881499694\">Dayal&#39;s Services</a>"], "height": 3120}], "scope": "GOOGLE", "business_status": "OPERATIONAL", "types": ["supermarket", "grocery_or_supermarket", "food", "point_of_interest", "store", "establishment"], "icon": "https://maps.gstatic.com/mapfiles/place_api/icons/v1/png_71/shopping-71.png"}, {"rating": 4.1, "user_ratings_total": 49, "name": "Jothi Super Market", "reference": "ChIJ7SO7v3lkUjoRSfFOIRx__4w", "geometry": {"location": {"lat": 13.1148709, "lng": 80.1915646}, "viewport": {"northeast": {"lat": 13.1161849302915, "lng": 80.1929138302915}, "southwest": {"lat": 13.1134869697085, "lng": 80.1902158697085}}}, "opening_hours": {"open_now": true}, "place_id": "ChIJ7SO7v3lkUjoRSfFOIRx__4w", "plus_code": {"global_code": "7M52457R+WJ", "compound_code": "457R+WJ Chennai, Tamil Nadu, India"}, "vicinity": "33, 2nd Street, Subbulakshmi Nagar, Korattur, Chennai", "photos": [{"photo_reference": "ATtYBwLJ_j9_8ojLxhCqYMWUD6s_XektZSIgyr6pb16Dx-zQ2hVYL4mgdwJJOyNiK9WTjapSnYQ7Tq7b4We4ruO-PF8qXmZWvghzA3oqgVqzG92SeG3zjm8W-PtjSgolBFiifTcmse1SKo92R9ddXEsQ9DowmQYxVwrXpTFeFPshpzVK0oS6", "width": 4160, "html_attributions": ["<a href=\"https://maps.google.com/maps/contrib/117113031357166675654\">Selvaraj P</a>"], "height": 3120}], "scope": "GOOGLE", "business_status": "OPERATIONAL", "types": ["supermarket", "grocery_or_supermarket", "food", "point_of_interest", "store", "establishment"], "icon": "https://maps.gstatic.com/mapfiles/place_api/icons/v1/png_71/shopping-71.png"}]}