{"status": "OK", "next_page_token": "ATtYBwLtmAMA9-mSL9oij7NjMIxLXDpzBzT_xTN1yCWIaI2HL2LOmHtOIqkjJJBjzTmF0h22Wkqoes2QMwD0MgNVa28_IDqu4xZb5rmNONRQR_oHSBWqit1Gv4_2J0eXA01MRR3JsOD3nwa4hEKf2x46di45E_epKGAe0bzxtQj7VUkMiAd6KOY_NvOwJbEinKVQFIFAQc5sLLgutb-4dS4lPHvTXWBek4a0ExVnH6iYp0QAzo7NOXg7WGEOZT8rmvYZ3n3NuhPiC_IWEs1Q28dlFRwccbQpnT4VuyiaI9e3rS4hxcb36VVTQiaAmfL2kclNjWI_SALqJAFaXS8W4-KZDljjRfRjU_nd8obkaQ02tmB2PMOaub3ZbZiIq-dOgfZ3_OJtkEcoxng6g5oPRnbuj-BdevcuS6KcO3ZuV6daXi7uIq3XVFAAcRBxew", "html_attributions": [], "results": [{"rating": 4, "user_ratings_total": 3, "name": "Mahalakshmi EnterpriseS", "reference": "ChIJUeH16GdmUjoRUG7wuaqT7DA", "geometry": {"location": {"lat": 13.0595365, "lng": 80.24247919999999}, "viewport": {"northeast": {"lat": 13.0608804802915, "lng": 80.2438548302915}, "southwest": {"lat": 13.0581825197085, "lng": 80.24115686970849}}}, "opening_hours": {"open_now": false}, "place_id": "ChIJUeH16GdmUjoRUG7wuaqT7DA", "vicinity": "JVL Towers, 117, Next To Bata, Nelson Manikkam Road, Chennai", "scope": "GOOGLE", "business_status": "OPERATIONAL", "types": ["supermarket", "grocery_or_supermarket", "food", "point_of_interest", "store", "establishment"], "icon": "https://maps.gstatic.com/mapfiles/place_api/icons/v1/png_71/shopping-71.png"}, {"rating": 4, "user_ratings_total": 465, "name": "Grace World Super Market", "reference": "ChIJ-VHGT11mUjoRUy38a_mH9tw", "geometry": {"location": {"lat": 13.057515, "lng": 80.24270899999999}, "viewport": {"northeast": {"lat": 13.0588654302915, "lng": 80.2440909802915}, "southwest": {"lat": 13.0561674697085, "lng": 80.2413930197085}}}, "opening_hours": {"open_now": false}, "place_id": "ChIJ-VHGT11mUjoRUy38a_mH9tw", "plus_code": {"global_code": "7M52365V+23", "compound_code": "365V+23 Chennai, Tamil Nadu, India"}, "vicinity": "1, Valluvar Kottam High Road, Venkata Krishna Nagar, Nungambakkam, Chennai", "photos": [{"photo_reference": "ATtYBwIeIC3IGmEIH5TBST-uOp_SuVQoqUTlTGs3bOth5-_wE03eoc7YtfzhS1V7xjOGYHrdYBHPSlQ4sa5ULGnNSyWGXbggyDLlFW8CZ_KtwpgvsVMFGmYSviEYZrgvFATfHmTpVGsA2Xe7yh1kq9f2zCGY3xEhthEvleUYE9OMHXDcIGBw", "width": 3264, "html_attributions": ["<a href=\"https://maps.google.com/maps/contrib/108386204770878373519\">Grace World Super Market</a>"], "height": 2448}], "scope": "GOOGLE", "business_status": "OPERATIONAL", "types": ["supermarket", "grocery_or_supermarket", "food", "point_of_interest", "store", "establishment"], "icon": "https://maps.gstatic.com/mapfiles/place_api/icons/v1/png_71/shopping-71.png"}, {"rating": 4, "user_ratings_total": 3, "name": "Cosmo Fine Foods Pvt Ltd", "reference": "ChIJUeH16GdmUjoR2xU15acCWzo", "geometry": {"location": {"lat": 13.0601944, "lng": 80.24515720000001}, "viewport": {"northeast": {"lat": 13.0615377802915, "lng": 80.2465660302915}, "southwest": {"lat": 13.0588398197085, "lng": 80.2438680697085}}}, "opening_hours": {"open_now": false}, "place_id": "ChIJUeH16GdmUjoR2xU15acCWzo", "plus_code": {"global_code": "7M52366W+33", "compound_code": "366W+33 Chennai, Tamil Nadu, India"}, "vicinity": "#9, Jagannathan Road, Spring Field Apartment, Nungambakkam, Chennai", "scope": "GOOGLE", "business_status": "OPERATIONAL", "types": ["supermarket", "grocery_or_supermarket", "food", "point_of_interest", "store", "establishment"], "icon": "https://maps.gstatic.com/mapfiles/place_api/icons/v1/png_71/shopping-71.png"}, {"rating": 4, "user_ratings_total": 165, "name": "Vijay Super Market", "reference": "ChIJ1Swqyl9mUjoR8HNmoV-YZCA", "geometry": {"location": {"lat": 13.0567297, "lng": 80.2345819}, "viewport": {"northeast": {"lat": 13.0580751802915, "lng": 80.2360190302915}, "southwest": {"lat": 13.0553772197085, "lng": 80.2333210697085}}}, "opening_hours": {"open_now": false}, "place_id": "ChIJ1Swqyl9mUjoR8HNmoV-YZCA", "plus_code": {"global_code": "7M52364M+MR", "compound_code": "364M+MR Chennai, Tamil Nadu, India"}, "vicinity": "EM EL EM Complex, No: 620/51, Mahalingapuram Main Road, Mahalingapuram, Nungambakkam, Chennai", "photos": [{"photo_reference": "ATtYBwKfEkywZj2ZNZYjJkqRRcg819BuP7kI0loM7VVFcdRbzbzXlryiFaw4DmXqehg64G9eebeqN2P-vAPa9nKv0XJmKHq7Hd1943Vrqig3xzKQ42TudRaDWGhesW-qu3g0jLEhdhEd7Ce_8UWNgGuafcFvhzMUfxEHjxJHCh77jQWzjsma", "width": 1000, "html_attributions": ["<a href=\"https://maps.google.com/maps/contrib/115871027352276856510\">Vijay Super Market</a>"], "height": 1000}], "scope": "GOOGLE", "business_status": "OPERATIONAL", "types": ["supermarket", "grocery_or_supermarket", "food", "point_of_interest", "store", "establishment"], "icon": "https://maps.gstatic.com/mapfiles/place_api/icons/v1/png_71/shopping-71.png"}, {"rating": 3.9, "user_ratings_total": 490, "name": "Nilgiri's", "reference": "ChIJh3SZyGlmUjoRAG4R6tQP7no", "geometry": {"location": {"lat": 13.059627, "lng": 80.246741}, "viewport": {"northeast": {"lat": 13.0610510302915, "lng": 80.24807848029151}, "southwest": {"lat": 13.0583530697085, "lng": 80.24538051970849}}}, "opening_hours": {"open_now": false}, "place_id": "ChIJh3SZyGlmUjoRAG4R6tQP7no", "plus_code": {"global_code": "7M52365W+VM", "compound_code": "365W+VM Chennai, Tamil Nadu, India"}, "vicinity": "Green Marketing, No. 1, Krishnamma Road, Nungambakkam, Chennai", "photos": [{"photo_reference": "ATtYBwIyZ57HTQxz2H0s68d3xLygwrPhn0TqJYPpTu5SM6Zh9yYqxQV5ih6EuxAPancndYiKY0_q3zgmnem4sMKPuu3cpfLuL7H2GP6b6n97HEYZItdtLtKD5au6R7aS-QbH2CuiFk4k28C4VyncbMJoKxr68nZXGl4fNme6DfQTQgcyG6Ez", "width": 4000, "html_attributions": ["<a href=\"https://maps.google.com/maps/contrib/112264503157689399937\">John MARISCOS</a>"], "height": 3000}], "scope": "GOOGLE", "business_status": "OPERATIONAL", "types": ["supermarket", "grocery_or_supermarket", "food", "point_of_interest", "store", "establishment"], "icon": "https://maps.gstatic.com/mapfiles/place_api/icons/v1/png_71/shopping-71.png"}, {"name": "Metro SpeedMart", "reference": "ChIJ7VOFoERmUjoR3EUOt9Ao-yI", "geometry": {"location": {"lat": 13.0525968, "lng": 80.2444709}, "viewport": {"northeast": {"lat": 13.0539553802915, "lng": 80.24581958029152}, "southwest": {"lat": 13.0512574197085, "lng": 80.2431216197085}}}, "opening_hours": {"open_now": false}, "place_id": "ChIJ7VOFoERmUjoR3EUOt9Ao-yI", "plus_code": {"global_code": "7M52363V+2Q", "compound_code": "363V+2Q Chennai, Tamil Nadu, India"}, "vicinity": "9, Kodambakkam High Road, Tirumurthy Nagar, Nungambakkam, Chennai", "photos": [{"photo_reference": "ATtYBwKvvuV8TUdYJsDeWolPNSkBlwBrv2wp_FrfxyUnc1yGqC0lJFK_pM-khNYtduAmIOqbV0Izefl0pDGst-ugCL-G-q6U9XvyYdtXxdNdfyZfF8ApB2hCV6l5i_fMLO1CSw-OIrHV3ggzYm6TveRJh7TdEOzUtYJLjse-Qzj1RE9TleQa", "width": 355, "html_attributions": ["<a href=\"https://maps.google.com/maps/contrib/110729385702080283481\">Metro SpeedMart</a>"], "height": 336}], "scope": "GOOGLE", "business_status": "OPERATIONAL", "types": ["supermarket", "shopping_mall", "grocery_or_supermarket", "food", "point_of_interest", "store", "establishment"], "icon": "https://maps.gstatic.com/mapfiles/place_api/icons/v1/png_71/shopping-71.png"}, {"rating": 3.8, "user_ratings_total": 783, "name": "Reliance Fresh", "reference": "ChIJ77qbLYpmUjoRZUU4FS8Cqtc", "geometry": {"location": {"lat": 13.0628653, "lng": 80.22954639999999}, "viewport": {"northeast": {"lat": 13.0641807302915, "lng": 80.2308906302915}, "southwest": {"lat": 13.0614827697085, "lng": 80.22819266970848}}}, "opening_hours": {"open_now": false}, "place_id": "ChIJ77qbLYpmUjoRZUU4FS8Cqtc", "plus_code": {"global_code": "7M52367H+4R", "compound_code": "367H+4R Chennai, Tamil Nadu, India"}, "vicinity": "Old No 10/New No.25, Reliance Fresh, Abdulla Street, Choolaimedu, Chennai", "photos": [{"photo_reference": "ATtYBwK9XhePwCGOknUEWHWXVWmO1T781Yu5iJ7a_5jcd1qktPVMTBxjj6yZ4EFpAGVZxE-hcDHDucxSdYOgNcjnDZlVQZZWjBG3j5lcSl4FKsEdOZLicmGKbKzH2QzMRt3aqZKHzviTQO2DFsg7Vg0bDWPRtkcPN02YeByhlTMIL2l3F1Ri", "width": 4160, "html_attributions": ["<a href=\"https://maps.google.com/maps/contrib/118087960796363786095\">Paresh Biswal</a>"], "height": 2080}], "scope": "GOOGLE", "business_status": "OPERATIONAL", "types": ["supermarket", "grocery_or_supermarket", "food", "point_of_interest", "store", "establishment"], "icon": "https://maps.gstatic.com/mapfiles/place_api/icons/v1/png_71/shopping-71.png"}, {"rating": 4, "user_ratings_total": 512, "name": "Haneefa Super Market", "reference": "ChIJRR6R6IpmUjoRHIFK0DQIWMg", "geometry": {"location": {"lat": 13.0650429, "lng": 80.23103309999999}, "viewport": {"northeast": {"lat": 13.0664103302915, "lng": 80.2323236802915}, "southwest": {"lat": 13.0637123697085, "lng": 80.22962571970848}}}, "opening_hours": {"open_now": false}, "place_id": "ChIJRR6R6IpmUjoRHIFK0DQIWMg", "plus_code": {"global_code": "7M52368J+2C", "compound_code": "368J+2C Chennai, Tamil Nadu, India"}, "vicinity": "No:9, Chitra Avenue, Choolaimedu High Road, Chennai", "photos": [{"photo_reference": "ATtYBwJ2IhHXuCNCliNj4vyHYaa1RPYoDV7HrVDgZ1zpyV_ZcYcbC78IER8luFDelBBRYH8YvNECT-eO4eBYBpYVJ4ErFGhwOHLdG3AanzDNZNl7jX6ofIxA-0GFKxwa1l-ZZUsJy5IQNDh09dKqU7e_KJRBcxAbxpTpsUbIiE11tCdCFAGL", "width": 1920, "html_attributions": ["<a href=\"https://maps.google.com/maps/contrib/102412246462140632436\">sarath jasrin</a>"], "height": 1080}], "scope": "GOOGLE", "business_status": "OPERATIONAL", "types": ["supermarket", "grocery_or_supermarket", "food", "point_of_interest", "store", "establishment"], "icon": "https://maps.gstatic.com/mapfiles/place_api/icons/v1/png_71/shopping-71.png"}, {"rating": 3.3, "user_ratings_total": 3, "name": "JET SPEED", "reference": "ChIJBwVUiF1mUjoRXyXidMrV_1o", "geometry": {"location": {"lat": 13.0580172, "lng": 80.2399349}, "viewport": {"northeast": {"lat": 13.0593490302915, "lng": 80.24128278029151}, "southwest": {"lat": 13.0566510697085, "lng": 80.2385848197085}}}, "place_id": "ChIJBwVUiF1mUjoRXyXidMrV_1o", "plus_code": {"global_code": "7M52365Q+6X", "compound_code": "365Q+6X Chennai, Tamil Nadu, India"}, "vicinity": "2, Pushpa Nagar Main Road, Lake Area, Nungambakkam, Chennai", "scope": "GOOGLE", "business_status": "OPERATIONAL", "types": ["supermarket", "grocery_or_supermarket", "food", "point_of_interest", "store", "establishment"], "icon": "https://maps.gstatic.com/mapfiles/place_api/icons/v1/png_71/shopping-71.png"}, {"name": "Basker Super Market", "reference": "ChIJyTfe02dmUjoRELgDYs82NrE", "geometry": {"location": {"lat": 13.0598493, "lng": 80.2424662}, "viewport": {"northeast": {"lat": 13.0611834302915, "lng": 80.24385918029151}, "southwest": {"lat": 13.0584854697085, "lng": 80.2411612197085}}}, "opening_hours": {"open_now": false}, "place_id": "ChIJyTfe02dmUjoRELgDYs82NrE", "plus_code": {"global_code": "7M52365R+WX", "compound_code": "365R+WX Chennai, Tamil Nadu, India"}, "vicinity": "88, Valluvar Kottam High Road, Nungambakkam, Chennai", "scope": "GOOGLE", "business_status": "OPERATIONAL", "types": ["supermarket", "grocery_or_supermarket", "food", "point_of_interest", "store", "establishment"], "icon": "https://maps.gstatic.com/mapfiles/place_api/icons/v1/png_71/shopping-71.png"}, {"rating": 4.7, "user_ratings_total": 3, "name": "Tesova Impex", "reference": "ChIJwSBEFDdnUjoRzC_GwJi3Tp4", "geometry": {"location": {"lat": 13.063105, "lng": 80.24181279999999}, "viewport": {"northeast": {"lat": 13.0644641802915, "lng": 80.24316148029149}, "southwest": {"lat": 13.0617662197085, "lng": 80.24046351970848}}}, "opening_hours": {"open_now": false}, "place_id": "ChIJwSBEFDdnUjoRzC_GwJi3Tp4", "plus_code": {"global_code": "7M52367R+6P", "compound_code": "367R+6P Chennai, Tamil Nadu, India"}, "vicinity": "5, 1st Street, Nungambakkam, Chennai", "photos": [{"photo_reference": "ATtYBwKvUDCRsiMBmL59sqon1FmGL_FZWV0v8oMG9zxO-kw2wzoyJWcNZis1caM7Y0DESpRRwSyC-tGV_m4uuUCZ4mTxJyUdvxfYdLE6ztoq1SZ_j8pZ61Fxv0TLp2ljgB0ovO0qjbTjAgstTz4neQSSfFIHr_GZYrOt3MhEtc9xkFXLcPIv", "width": 3611, "html_attributions": ["<a href=\"https://maps.google.com/maps/contrib/117607359143600157985\">Tesova Impex</a>"], "height": 5090}], "scope": "GOOGLE", "business_status": "OPERATIONAL", "types": ["supermarket", "grocery_or_supermarket", "food", "point_of_interest", "store", "establishment"], "icon": "https://maps.gstatic.com/mapfiles/place_api/icons/v1/png_71/shopping-71.png"}, {"name": "IBLED", "reference": "ChIJcRwVVbhnUjoRzuHtDaa-EY0", "geometry": {"location": {"lat": 13.0601158, "lng": 80.2472949}, "viewport": {"northeast": {"lat": 13.0615132302915, "lng": 80.24876693029151}, "southwest": {"lat": 13.0588152697085, "lng": 80.2460689697085}}}, "place_id": "ChIJcRwVVbhnUjoRzuHtDaa-EY0", "plus_code": {"global_code": "7M52366W+2W", "compound_code": "366W+2W Chennai, Tamil Nadu, India"}, "vicinity": "22, Paramount Plaza, 4th Floor, Nungambakkam High Road, Ponnangipuram, Tirumurthy Nagar, Nungambakkam, Chennai", "scope": "GOOGLE", "business_status": "OPERATIONAL", "types": ["supermarket", "grocery_or_supermarket", "food", "point_of_interest", "store", "establishment"], "icon": "https://maps.gstatic.com/mapfiles/place_api/icons/v1/png_71/shopping-71.png"}, {"rating": 4, "user_ratings_total": 14, "name": "Nuts N Spices", "reference": "ChIJ1S2K5WlmUjoRmN4AaHfZkW8", "geometry": {"location": {"lat": 13.0591878, "lng": 80.24787429999999}, "viewport": {"northeast": {"lat": 13.0605319802915, "lng": 80.2492089802915}, "southwest": {"lat": 13.0578340197085, "lng": 80.24651101970849}}}, "opening_hours": {"open_now": false}, "place_id": "ChIJ1S2K5WlmUjoRmN4AaHfZkW8", "plus_code": {"global_code": "7M52365X+M4", "compound_code": "365X+M4 Chennai, Tamil Nadu, India"}, "vicinity": "Yesde House, new: 167, old: 131, Valluvar Kottam High Road, Nungambakkam, Chennai", "photos": [{"photo_reference": "ATtYBwK7G4SYDbJBvHbYjIK_I4oRoK4_cSm33TQv5dCA-1e-n-BYgfOpjxcZ7WhHmLOoi-pjhSd8GYulhlxMN_HMzS-JIexCDAZuiP04s6SpkEyIR2EgeRvHyUcj8mXZe583bj8BWFREhsIDoCherOBRr-k9cT9Ld9rTwiWOLfryQHUsjZM2", "width": 2048, "html_attributions": ["<a href=\"https://maps.google.com/maps/contrib/109706323471547088119\">Nuts N Spices</a>"], "height": 1229}], "scope": "GOOGLE", "business_status": "OPERATIONAL", "types": ["supermarket", "grocery_or_supermarket", "food", "point_of_interest", "store", "establishment"], "icon": "https://maps.gstatic.com/mapfiles/place_api/icons/v1/png_71/shopping-71.png"}, {"rating": 5, "user_ratings_total": 1, "name": "Elahi Agencies", "reference": "ChIJT55JO2pmUjoRxOw1u0kI0m0", "geometry": {"location": {"lat": 13.0603855, "lng": 80.249513}, "viewport": {"northeast": {"lat": 13.0617144802915, "lng": 80.25079513029151}, "southwest": {"lat": 13.0590165197085, "lng": 80.2480971697085}}}, "place_id": "ChIJT55JO2pmUjoRxOw1u0kI0m0", "vicinity": "3/24, Pirur, Trunk Road, Trunk Road, Chennai", "scope": "GOOGLE", "business_status": "OPERATIONAL", "types": ["supermarket", "grocery_or_supermarket", "food", "point_of_interest", "store", "establishment"], "icon": "https://maps.gstatic.com/mapfiles/place_api/icons/v1/png_71/shopping-71.png"}, {"name": "sri kannathal agencies", "reference": "ChIJ64pfQfVmUjoRbcT3JY2gEsU", "geometry": {"location": {"lat": 13.0567124, "lng": 80.23108529999999}, "viewport": {"northeast": {"lat": 13.0580291302915, "lng": 80.2324967302915}, "southwest": {"lat": 13.0553311697085, "lng": 80.2297987697085}}}, "opening_hours": {"open_now": false}, "place_id": "ChIJ64pfQfVmUjoRbcT3JY2gEsU", "plus_code": {"global_code": "7M52364J+MC", "compound_code": "364J+MC Chennai, Tamil Nadu, India"}, "vicinity": "Zachariah Colony, Choolaimedu, Chennai", "scope": "GOOGLE", "business_status": "OPERATIONAL", "types": ["supermarket", "grocery_or_supermarket", "food", "point_of_interest", "store", "establishment"], "icon": "https://maps.gstatic.com/mapfiles/place_api/icons/v1/png_71/shopping-71.png"}, {"rating": 4.4, "user_ratings_total": 105, "name": "Nuts 'N' Spices", "reference": "ChIJhda5MGVmUjoRRWZdoE2rBEI", "geometry": {"location": {"lat": 13.0694107, "lng": 80.2411099}, "viewport": {"northeast": {"lat": 13.0707723302915, "lng": 80.2425622302915}, "southwest": {"lat": 13.0680743697085, "lng": 80.23986426970849}}}, "opening_hours": {"open_now": false}, "place_id": "ChIJhda5MGVmUjoRRWZdoE2rBEI", "plus_code": {"global_code": "7M52369R+QC", "compound_code": "369R+QC Chennai, Tamil Nadu, India"}, "vicinity": "opp. Shoppers Stop, New no.8 / Old no.104, Harrington road, opp. Shoppers Stop, 16th Avenue, Chetpet, Chennai", "photos": [{"photo_reference": "ATtYBwKBcA973yfndSJ__lSgYfZW0C5WfsYf4Qu7i7OGxZznLV2Fc15_xNJdE0vrLbM9JRu5riTQonGdkx4eoiSHntKYi3jc3rB_IdohTdQoMdNg37iynqrpCdFZ-COcMdDgdUbzCs5dnTsbPHmtzMHS83JlLfdw-Df7803C6X5U8n-D8nNy", "width": 1200, "html_attributions": ["<a href=\"https://maps.google.com/maps/contrib/114251273950117037172\">Bhava Swaroop</a>"], "height": 900}], "scope": "GOOGLE", "business_status": "OPERATIONAL", "types": ["grocery_or_supermarket", "supermarket", "food", "point_of_interest", "store", "establishment"], "icon": "https://maps.gstatic.com/mapfiles/place_api/icons/v1/png_71/shopping-71.png"}, {"rating": 4.5, "user_ratings_total": 2, "name": "smanivegetables (SMV)", "reference": "ChIJ4a1ey4pmUjoRip6xtGfYOcM", "geometry": {"location": {"lat": 13.0579058, "lng": 80.230408}, "viewport": {"northeast": {"lat": 13.0592426802915, "lng": 80.2317549802915}, "southwest": {"lat": 13.0565447197085, "lng": 80.22905701970849}}}, "place_id": "ChIJ4a1ey4pmUjoRip6xtGfYOcM", "plus_code": {"global_code": "7M52365J+55", "compound_code": "365J+55 Chennai, Tamil Nadu, India"}, "vicinity": "near, New Market Street, Mettupalayam, Zachariah Colony, Choolaimedu, Chennai", "scope": "GOOGLE", "business_status": "OPERATIONAL", "types": ["supermarket", "grocery_or_supermarket", "food", "point_of_interest", "store", "establishment"], "icon": "https://maps.gstatic.com/mapfiles/place_api/icons/v1/png_71/shopping-71.png"}, {"rating": 3.9, "user_ratings_total": 281, "name": "More", "reference": "ChIJmX3jRYpmUjoR8iLB7K1g3_0", "geometry": {"location": {"lat": 13.0615972, "lng": 80.2301516}, "viewport": {"northeast": {"lat": 13.0629480802915, "lng": 80.2315164802915}, "southwest": {"lat": 13.0602501197085, "lng": 80.2288185197085}}}, "opening_hours": {"open_now": false}, "place_id": "ChIJmX3jRYpmUjoR8iLB7K1g3_0", "plus_code": {"global_code": "7M52366J+J3", "compound_code": "366J+J3 Chennai, Tamil Nadu, India"}, "vicinity": "Choolaimedu High Road Sriramapuram, Gangai Amman Koil Street - Boulevard, Athreya Puram, Choolaimedu, Chennai", "photos": [{"photo_reference": "ATtYBwKOafozKv7pSYDJD-XkTqinr46XuxMQE_c5uMuo8KHyDXM4It3L_xgW_7DHDkKMsmL0XNhTKZsXy0WL-Y8tF4xJfmjS-gi554IsXH5Ufemdf1RZXv6ezxRiRJzueV_8IAfxoCRo3R5eu0RzaPRXoLVCsaAbSBQ06Q_KJ5Cw9XjP7HzH", "width": 600, "html_attributions": ["<a href=\"https://maps.google.com/maps/contrib/110350687423924509051\">Manoharan C</a>"], "height": 800}], "scope": "GOOGLE", "business_status": "OPERATIONAL", "types": ["supermarket", "grocery_or_supermarket", "food", "point_of_interest", "store", "establishment"], "icon": "https://maps.gstatic.com/mapfiles/place_api/icons/v1/png_71/shopping-71.png"}, {"name": "Nilgiri's", "reference": "ChIJeSqYJIpmUjoRB0oR7zz7aAc", "geometry": {"location": {"lat": 13.0629183, "lng": 80.2303451}, "viewport": {"northeast": {"lat": 13.0642597802915, "lng": 80.2317280802915}, "southwest": {"lat": 13.0615618197085, "lng": 80.2290301197085}}}, "place_id": "ChIJeSqYJIpmUjoRB0oR7zz7aAc", "plus_code": {"global_code": "7M52367J+54", "compound_code": "367J+54 Chennai, Tamil Nadu, India"}, "vicinity": "G.F.Com.Shop,Great Pearl Apartment No 174, Choolaimedu High Road, Choolaimedu, Chennai", "scope": "GOOGLE", "business_status": "OPERATIONAL", "types": ["supermarket", "grocery_or_supermarket", "food", "point_of_interest", "store", "establishment"], "icon": "https://maps.gstatic.com/mapfiles/place_api/icons/v1/png_71/shopping-71.png"}, {"rating": 3.6, "user_ratings_total": 22, "name": "White rose london super market", "reference": "ChIJV69FHPpnUjoRD5-1F38TlVM", "geometry": {"location": {"lat": 13.0499166, "lng": 80.23900080000001}, "viewport": {"northeast": {"lat": 13.0512775302915, "lng": 80.2403523302915}, "southwest": {"lat": 13.0485795697085, "lng": 80.23765436970848}}}, "opening_hours": {"open_now": false}, "place_id": "ChIJV69FHPpnUjoRD5-1F38TlVM", "plus_code": {"global_code": "7M5226XQ+XJ", "compound_code": "26XQ+XJ Chennai, Tamil Nadu, India"}, "vicinity": "Habibullah Road, T. Nagar, Chennai", "photos": [{"photo_reference": "ATtYBwJpC4PK3A7EsL6Sj2uB9bTpq-DyJCDDqF7ftdol01neraAm79kzY-Sv1FDi4qJJJ3m-ZuPcGZq555SCYzl63_0S7kQJnTdimA7HFjAS3TnimVHAoSzi0HFJo98Mn5bx0GnxjHvhCarpa3Rs3GYSpmNagxTktz_C8Sfqce_SckLiqgpC", "width": 1080, "html_attributions": ["<a href=\"https://maps.google.com/maps/contrib/102066866040942073468\">Manoj Mithun Kumar N</a>"], "height": 1920}], "scope": "GOOGLE", "business_status": "OPERATIONAL", "types": ["supermarket", "grocery_or_supermarket", "food", "point_of_interest", "store", "establishment"], "icon": "https://maps.gstatic.com/mapfiles/place_api/icons/v1/png_71/shopping-71.png"}]}