{"status": "OK", "html_attributions": [], "results": [{"name": "Om Advanced Dental Care Center", "reference": "ChIJ-YG2Bt4dDTkRKgBC3oeJdUo", "geometry": {"location": {"lat": 28.5405866, "lng": 77.185559}, "viewport": {"northeast": {"lat": 28.5418430302915, "lng": 77.1868674302915}, "southwest": {"lat": 28.5391450697085, "lng": 77.1841694697085}}}, "place_id": "ChIJ-YG2Bt4dDTkRKgBC3oeJdUo", "plus_code": {"global_code": "7JWVG5RP+66", "compound_code": "G5RP+66 New Delhi, Delhi, India"}, "vicinity": "124/a-2, Shaheed Jeet Singh Marg, Naraina, Block A, Katwaria Sarai, New Delhi", "scope": "GOOGLE", "business_status": "OPERATIONAL", "types": ["hospital", "health", "point_of_interest", "establishment"], "icon": "https://maps.gstatic.com/mapfiles/place_api/icons/v1/png_71/hospital-71.png"}, {"rating": 4.9, "user_ratings_total": 669, "name": "Vikas Hospital", "reference": "ChIJG9c3-AweDTkRwPZG7_MhHOk", "geometry": {"location": {"lat": 28.5194461, "lng": 77.1743309}, "viewport": {"northeast": {"lat": 28.52082723029151, "lng": 77.1756950802915}, "southwest": {"lat": 28.5181292697085, "lng": 77.1729971197085}}}, "opening_hours": {"open_now": true}, "place_id": "ChIJG9c3-AweDTkRwPZG7_MhHOk", "plus_code": {"global_code": "7JWVG59F+QP", "compound_code": "G59F+QP New Delhi, Delhi, India"}, "vicinity": "173C, Kishangarh - Mehrauli Road, Ward Number 3, Mehrauli, New Delhi", "photos": [{"photo_reference": "CmRaAAAAGB3DuKL2cf7i46QYd7A2vnhRz8WnL5vSMQTCYBHfW6bWmCp7t6SuCm8juiqNSGM2EqwOBFVr2BKqMMROuHH7LwB0dOydQVlf5OnyzDeqVqc5juGDzyu3XCGSng0F505fEhDROD7STKxhPLBM_bVkVmLHGhR6BsBk1M7cPEKqPHuQ7CnEOgxX-g", "width": 4096, "html_attributions": ["<a href=\"https://maps.google.com/maps/contrib/108244583817540262861\">Vikas Hospital</a>"], "height": 2304}], "scope": "GOOGLE", "business_status": "OPERATIONAL", "types": ["hospital", "health", "point_of_interest", "establishment"], "icon": "https://maps.gstatic.com/mapfiles/place_api/icons/v1/png_71/hospital-71.png"}, {"rating": 5, "user_ratings_total": 2, "name": "MANAV SEVA CHARITY", "reference": "ChIJM2vIlXQeDTkRi1oXIThm1PU", "geometry": {"location": {"lat": 28.5225, "lng": 77.169793}, "viewport": {"northeast": {"lat": 28.5237925302915, "lng": 77.17116028029152}, "southwest": {"lat": 28.5210945697085, "lng": 77.1684623197085}}}, "place_id": "ChIJM2vIlXQeDTkRi1oXIThm1PU", "plus_code": {"global_code": "7JWVG5C9+XW", "compound_code": "G5C9+XW New Delhi, Delhi, India"}, "vicinity": "Lakhi Nath Kuti, Mehrauli, New Delhi", "photos": [{"photo_reference": "CmRaAAAAwGX1bE2l3CYi6zJTudY81pTrtcal2d6SlyB5-uibtHyfZMVCkiL8q2YG7jCS97G32aMZevO-Q0jYhXk_zzTkPoQBb0Z3U1DxO1DGzYOWca2C0-fV7dOlbFHUJi1RPatWEhCagCH_k4MjKr5FgsfJhZbnGhRsXRFPjKXLjWzu4kfzh6fDVMHcxw", "width": 4160, "html_attributions": ["<a href=\"https://maps.google.com/maps/contrib/115621915101978542334\">Saurabh Thakur</a>"], "height": 3120}], "scope": "GOOGLE", "business_status": "OPERATIONAL", "types": ["hospital", "health", "point_of_interest", "establishment"], "icon": "https://maps.gstatic.com/mapfiles/place_api/icons/v1/png_71/hospital-71.png"}, {"name": "Rahul noor", "reference": "ChIJ9zC88_4fDTkR24zpZp-O73w", "geometry": {"location": {"lat": 28.5224116, "lng": 77.16985849999999}, "viewport": {"northeast": {"lat": 28.5237752302915, "lng": 77.1712019302915}, "southwest": {"lat": 28.5210772697085, "lng": 77.1685039697085}}}, "place_id": "ChIJ9zC88_4fDTkR24zpZp-O73w", "plus_code": {"global_code": "7JWVG5C9+XW", "compound_code": "G5C9+XW New Delhi, Delhi, India"}, "vicinity": "141, Kishangarh - Gaushala Marg, Lakhi Nath Kuti, Mehrauli, New Delhi", "scope": "GOOGLE", "business_status": "OPERATIONAL", "types": ["hospital", "health", "point_of_interest", "establishment"], "icon": "https://maps.gstatic.com/mapfiles/place_api/icons/v1/png_71/hospital-71.png"}, {"name": "S R Dental Clinic", "reference": "ChIJL0KWTuQfDTkRTjfA0eDN0-w", "geometry": {"location": {"lat": 28.5185702, "lng": 77.1769187}, "viewport": {"northeast": {"lat": 28.5199180302915, "lng": 77.17826133029149}, "southwest": {"lat": 28.5172200697085, "lng": 77.17556336970848}}}, "place_id": "ChIJL0KWTuQfDTkRTjfA0eDN0-w", "plus_code": {"global_code": "7JWVG59G+CQ", "compound_code": "G59G+CQ New Delhi, Delhi, India"}, "vicinity": "near peer baba ki mazaar, Ward No 6, Mehrauli, New Delhi", "scope": "GOOGLE", "business_status": "OPERATIONAL", "types": ["hospital", "health", "point_of_interest", "establishment"], "icon": "https://maps.gstatic.com/mapfiles/place_api/icons/v1/png_71/hospital-71.png"}, {"name": "Bishwanath", "reference": "ChIJ_TerlnQeDTkRwg7t2RDuAEk", "geometry": {"location": {"lat": 28.522365, "lng": 77.1697282}, "viewport": {"northeast": {"lat": 28.5236817802915, "lng": 77.1710886302915}, "southwest": {"lat": 28.52098381970849, "lng": 77.16839066970849}}}, "place_id": "ChIJ_TerlnQeDTkRwg7t2RDuAEk", "plus_code": {"global_code": "7JWVG5C9+WV", "compound_code": "G5C9+WV New Delhi, Delhi, India"}, "vicinity": "11, 9, Kishangarh - Gaushala Marg, Mehrauli, New Delhi", "scope": "GOOGLE", "business_status": "OPERATIONAL", "types": ["hospital", "health", "point_of_interest", "establishment"], "icon": "https://maps.gstatic.com/mapfiles/place_api/icons/v1/png_71/hospital-71.png"}, {"rating": 3.6, "user_ratings_total": 43, "name": "CGHS Dispensary, D91, Vasantkunj, New Delhi", "reference": "ChIJhwvCY3QeDTkRdDgcaoovtPw", "geometry": {"location": {"lat": 28.5224792, "lng": 77.16955899999999}, "viewport": {"northeast": {"lat": 28.5237532802915, "lng": 77.17093258029149}, "southwest": {"lat": 28.5210553197085, "lng": 77.16823461970849}}}, "opening_hours": {"open_now": false}, "place_id": "ChIJhwvCY3QeDTkRdDgcaoovtPw", "plus_code": {"global_code": "7JWVG5C9+XR", "compound_code": "G5C9+XR New Delhi, Delhi, India"}, "vicinity": "A, 111, 9, Kishangarh Village, Vasant Kunj, New Delhi", "photos": [{"photo_reference": "CmRaAAAAtDVo49RHx3Wgp2ZEXwZCenCnaIsHavFgADNId4TKofLMoRpdh7nnZ8ddtvR10RfQ50yjP-kB4PRXQcWiC4oxE9h0yFrpLukNWZTev_VlmsiUP0tnDz6ho6kBsPvLehV6EhDFL5RuTsxNl5Xj1r5LUZzjGhQwOXnmBcJ6kQKgyloNH6qms-PSLQ", "width": 720, "html_attributions": ["<a href=\"https://maps.google.com/maps/contrib/112316998183153586739\">Ali Reza</a>"], "height": 1280}], "scope": "GOOGLE", "business_status": "OPERATIONAL", "types": ["hospital", "health", "point_of_interest", "establishment"], "icon": "https://maps.gstatic.com/mapfiles/place_api/icons/v1/png_71/hospital-71.png"}, {"rating": 3.7, "user_ratings_total": 7, "name": "yogmaya hospital", "reference": "ChIJLUUNcw4eDTkRtCNTKsymAIs", "geometry": {"location": {"lat": 28.5179042, "lng": 77.1777263}, "viewport": {"northeast": {"lat": 28.5192859302915, "lng": 77.1790735302915}, "southwest": {"lat": 28.51658796970849, "lng": 77.1763755697085}}}, "opening_hours": {"open_now": true}, "place_id": "ChIJLUUNcw4eDTkRtCNTKsymAIs", "plus_code": {"global_code": "7JWVG59H+53", "compound_code": "G59H+53 New Delhi, Delhi, India"}, "vicinity": "878 Ward No 6, Ward No 8, Badiwala Kua, Mehrauli, New Delhi", "photos": [{"photo_reference": "CmRaAAAAYgZYLp6pc54-pLVLXIE8cuC2uT_fdwsRy48OZ7q-IwzkvsHFfjN-15QyGAVQIFg0PkKU-6fSkHxkt0Ly9ShP4ZlMK1nlIH1WRkxQwYH1RfIkMNgQ5fdLiCGqk9h7ptR0EhCG63kx8ZoXqFXgqxVxxN7hGhRarN3rfqj0Ovvy13etmgfPCWFm4w", "width": 2448, "html_attributions": ["<a href=\"https://maps.google.com/maps/contrib/108278261103078523485\">Prakash Jha</a>"], "height": 3264}], "scope": "GOOGLE", "business_status": "OPERATIONAL", "types": ["hospital", "health", "point_of_interest", "establishment"], "icon": "https://maps.gstatic.com/mapfiles/place_api/icons/v1/png_71/hospital-71.png"}, {"name": "Mehruli Clinic And Day Care Centre", "reference": "ChIJAUgPACofDTkR4qXSPurP-uM", "geometry": {"location": {"lat": 28.517719, "lng": 77.180278}, "viewport": {"northeast": {"lat": 28.5190685302915, "lng": 77.18162818029151}, "southwest": {"lat": 28.5163705697085, "lng": 77.17893021970849}}}, "place_id": "ChIJAUgPACofDTkR4qXSPurP-uM", "plus_code": {"global_code": "7JWVG59J+34", "compound_code": "G59J+34 New Delhi, Delhi, India"}, "vicinity": "Zafar Mahal Road, Ward No 8, Mehrauli Village, Mehrauli, New Delhi", "photos": [{"photo_reference": "CmRaAAAAVg5UBIpcA6fKthVgoUovyujHa1EFz-5IGjYxAzzqoTb-z_WQSsBTBYXTQY1Ki4cwtkUnwJJj1EoyKltUKKRvm3rG8-aJ9Zn9KLsr0NkJ8KHHYakJdrpFiJegAh3zm1dTEhCS876uuqNIezogjz7SpJ2TGhTGNPFd_QCjbWsj1vBNhIrq1BpOzA", "width": 5184, "html_attributions": ["<a href=\"https://maps.google.com/maps/contrib/103223311161022295311\">Paras Saini</a>"], "height": 3456}], "scope": "GOOGLE", "business_status": "OPERATIONAL", "types": ["hospital", "health", "point_of_interest", "establishment"], "icon": "https://maps.gstatic.com/mapfiles/place_api/icons/v1/png_71/hospital-71.png"}, {"name": "Life Care D-lab@Hospital Ltd", "reference": "ChIJJ_gS15IfDTkREuekQNFn8gE", "geometry": {"location": {"lat": 28.5193031, "lng": 77.1730386}, "viewport": {"northeast": {"lat": 28.5206404302915, "lng": 77.1744208802915}, "southwest": {"lat": 28.5179424697085, "lng": 77.17172291970849}}}, "place_id": "ChIJJ_gS15IfDTkREuekQNFn8gE", "plus_code": {"global_code": "7JWVG59F+P6", "compound_code": "G59F+P6 New Delhi, Delhi, India"}, "vicinity": "Hospital Lane, Ward Number 3, Islam Colony, Mehrauli, New Delhi", "scope": "GOOGLE", "business_status": "OPERATIONAL", "types": ["hospital", "health", "point_of_interest", "establishment"], "icon": "https://maps.gstatic.com/mapfiles/place_api/icons/v1/png_71/hospital-71.png"}, {"rating": 5, "user_ratings_total": 1, "name": "Shreedhar Dham Appartment", "reference": "ChIJK5617gweDTkRup6L-xASL_c", "geometry": {"location": {"lat": 28.5190231, "lng": 77.17342099999999}, "viewport": {"northeast": {"lat": 28.5207675302915, "lng": 77.1747248302915}, "southwest": {"lat": 28.5180695697085, "lng": 77.17202686970849}}}, "place_id": "ChIJK5617gweDTkRup6L-xASL_c", "plus_code": {"global_code": "7JWVG59F+J9", "compound_code": "G59F+J9 New Delhi, Delhi, India"}, "vicinity": "A part 2, 602, Kishangarh - Mehrauli Road, Ward Number 3, Islam Colony, Mehrauli, New Delhi", "scope": "GOOGLE", "business_status": "OPERATIONAL", "types": ["hospital", "health", "point_of_interest", "establishment"], "icon": "https://maps.gstatic.com/mapfiles/place_api/icons/v1/png_71/hospital-71.png"}, {"rating": 2, "user_ratings_total": 109, "name": "Gendox Healthcare Pvt Ltd.", "reference": "ChIJXRG3-QweDTkRDZehPZcuC2w", "geometry": {"location": {"lat": 28.5190231, "lng": 77.17342099999999}, "viewport": {"northeast": {"lat": 28.5207673802915, "lng": 77.1747333802915}, "southwest": {"lat": 28.5180694197085, "lng": 77.1720354197085}}}, "opening_hours": {"open_now": true}, "place_id": "ChIJXRG3-QweDTkRDZehPZcuC2w", "plus_code": {"global_code": "7JWVG59F+J9", "compound_code": "G59F+J9 New Delhi, Delhi, India"}, "vicinity": "A part 2, 602, Kishangarh - Mehrauli Road, Ward Number 3, Islam Colony, Mehrauli, New Delhi", "photos": [{"photo_reference": "CmRaAAAA-_KUShtx-BUJcHxhWmv1eSHbqpWW6rCicYOmZMBEVAF0xYqzISVdbZZJY_U1yXq3ZaUGiv_FXmKTYVMjd1tnWs_gBwo-LAVH5N9FuOgGDr7EnOC1D7JMJLFekTqMa518EhCn88O8_I9E4I1uA-dbwmp-GhRq1O4ByRJ--RKlAh_dKMDg11WRWQ", "width": 4128, "html_attributions": ["<a href=\"https://maps.google.com/maps/contrib/105817683199140628177\">Hari Adhikary</a>"], "height": 2322}], "scope": "GOOGLE", "business_status": "OPERATIONAL", "types": ["hospital", "health", "point_of_interest", "establishment"], "icon": "https://maps.gstatic.com/mapfiles/place_api/icons/v1/png_71/hospital-71.png"}, {"rating": 4.9, "user_ratings_total": 8, "name": "Satyam Medical Centre", "reference": "ChIJyw4PEgTiDDkRgJ6WIc-R8fo", "geometry": {"location": {"lat": 28.5411581, "lng": 77.1865318}, "viewport": {"northeast": {"lat": 28.5424819302915, "lng": 77.1879134302915}, "southwest": {"lat": 28.5397839697085, "lng": 77.1852154697085}}}, "opening_hours": {"open_now": false}, "place_id": "ChIJyw4PEgTiDDkRgJ6WIc-R8fo", "plus_code": {"global_code": "7JWVG5RP+FJ", "compound_code": "G5RP+FJ New Delhi, Delhi, India"}, "vicinity": "Opposite Indian Statistical Institute, Satyam Medical Centre, 115/1, Opposite Indian Statistical Institute, Katwaria Sarai, New Delhi", "photos": [{"photo_reference": "CmRaAAAAS8iyjMatVw74gsaJZEDSAE6al_drtrFZd_Yvk_7HTvLndMmRK3cTFNhQvSfqeNjVbZ6g6FxfQeqNom9RRHbx1dAcTjjwvMl5AmEhfEGa3YvxQHK-cdnpDFvJfwAHPdy1EhD4hc9IhLLV9l7vLijJx8eDGhSzVUa235AGpp4iQBBOAw598zD1Ow", "width": 272, "html_attributions": ["<a href=\"https://maps.google.com/maps/contrib/106389960410647356780\">Satyam Medical Centre</a>"], "height": 365}], "scope": "GOOGLE", "business_status": "OPERATIONAL", "types": ["hospital", "health", "point_of_interest", "establishment"], "icon": "https://maps.gstatic.com/mapfiles/place_api/icons/v1/png_71/hospital-71.png"}, {"rating": 5, "user_ratings_total": 1, "name": "Tyagi clinic", "reference": "ChIJ_8JLMA4eDTkRyKkBkfLby-A", "geometry": {"location": {"lat": 28.5173411, "lng": 77.1795916}, "viewport": {"northeast": {"lat": 28.5186670802915, "lng": 77.1809622802915}, "southwest": {"lat": 28.5159691197085, "lng": 77.17826431970848}}}, "place_id": "ChIJ_8JLMA4eDTkRyKkBkfLby-A", "plus_code": {"global_code": "7JWVG58H+WR", "compound_code": "G58H+WR New Delhi, Delhi, India"}, "vicinity": "A2, Ward No 8, Aam Bagh, Mehrauli Village, Mehrauli, New Delhi", "scope": "GOOGLE", "business_status": "OPERATIONAL", "types": ["hospital", "health", "point_of_interest", "establishment"], "icon": "https://maps.gstatic.com/mapfiles/place_api/icons/v1/png_71/hospital-71.png"}, {"rating": 3.7, "user_ratings_total": 549, "name": "Medeor Hospital Qutab Institutional Area, New Delhi", "reference": "ChIJBZ_9PCQdDTkRj8fUqUp94aY", "geometry": {"location": {"lat": 28.5373195, "lng": 77.1811993}, "viewport": {"northeast": {"lat": 28.5384628302915, "lng": 77.1824809802915}, "southwest": {"lat": 28.53576486970849, "lng": 77.1797830197085}}}, "opening_hours": {"open_now": true}, "place_id": "ChIJBZ_9PCQdDTkRj8fUqUp94aY", "plus_code": {"global_code": "7JWVG5PJ+WF", "compound_code": "G5PJ+WF New Delhi, Delhi, India"}, "vicinity": "B-33-34, Qutab Institutional Area, New Delhi", "photos": [{"photo_reference": "CmRaAAAAcgHmXn76x4v3wfUDk6pJwdxUppclvFwwM_VZ6t2Wm2zWhivnuTDG7oNJdsZRe5eDARH3B3Xw1yIwBMOTJUo3qTfLaF9QdHahP5k5AP3PTQSttfCAhTPZvq8LJdn-QYajEhA93jcCHQjDI5YEofbgpLYIGhReoFP5YVnwZUap-20bua8KVAu4vw", "width": 4096, "html_attributions": ["<a href=\"https://maps.google.com/maps/contrib/115364969684165011379\">Shariq Roomi</a>"], "height": 3072}], "scope": "GOOGLE", "business_status": "OPERATIONAL", "types": ["hospital", "health", "point_of_interest", "establishment"], "icon": "https://maps.gstatic.com/mapfiles/place_api/icons/v1/png_71/hospital-71.png"}]}