{"status": "OK", "next_page_token": "AcnaJv3YxRqHV05bauVKHuQ3C7BQyRWaE_to1Kd1W8tF9uZyNHQSP3x7r-7WeTAu7VH5Qbzhn4WyYSirvrVR0j7ohoDheIR-Xvvgdgi-6X7UKodOFb5WcgZRasqTS6t1CCKMzntmxEs0N5e06n46Ecw4cBNCp_EAkXUQ92s2ttc2aEYG4XXVvEm27_CCpDyAntG6VobW_oSqIZm8ArK2hCj3xy4weRDhKNZkt9kTdDDvh0KtLx5s2HLdJ79n4_lH0x53HvFV69BXjpWRaRkBt8vcuCX1H9czLkb0c_eK7Ucx5uZS0K-9pOMxJ244VT2HpOR2knCGlr_2yRntVvyAcsI9_wc3OUQtiWz4A_IctYK1jMNc7quL8JGZbxSzerHseH1gx6QOP-fVSbfdFwGhVs-gIS35vjOla5i5a0_J_uhx6IArfpGL", "html_attributions": [], "results": [{"name": "Eye Hospital", "reference": "ChIJrZ5OLd9ADTkRYsZTeWihL2M", "geometry": {"location": {"lat": 28.32314079999999, "lng": 76.78204149999999}, "viewport": {"northeast": {"lat": 28.3245200802915, "lng": 76.78341983029149}, "southwest": {"lat": 28.32182211970849, "lng": 76.78072186970849}}}, "place_id": "ChIJrZ5OLd9ADTkRYsZTeWihL2M", "plus_code": {"global_code": "7JWR8QFJ+7R", "compound_code": "8QFJ+7R Pataudi, Haryana, India"}, "vicinity": "Pataudi", "scope": "GOOGLE", "business_status": "OPERATIONAL", "types": ["hospital", "health", "point_of_interest", "establishment"], "icon": "https://maps.gstatic.com/mapfiles/place_api/icons/v1/png_71/hospital-71.png"}, {"rating": 3.3, "user_ratings_total": 24, "name": "Swami Amardev Hospital", "reference": "ChIJYfC24N5ADTkRfaTiwf-AkFw", "geometry": {"location": {"lat": 28.320206, "lng": 76.78880219999999}, "viewport": {"northeast": {"lat": 28.3215818302915, "lng": 76.7902201302915}, "southwest": {"lat": 28.3188838697085, "lng": 76.78752216970848}}}, "place_id": "ChIJYfC24N5ADTkRfaTiwf-AkFw", "plus_code": {"global_code": "7JWR8QCQ+3G", "compound_code": "8QCQ+3G Pataudi, Haryana, India"}, "vicinity": "Ashram Hari Mandir, Pataudi", "photos": [{"photo_reference": "CmRaAAAA0u_MFU3GHdRm6si6uCg-cVMCVqfs3RotumjpnyIJYlyvxkjaUIGNfgBn72fGVUP_Vmgu7QDve029Vp2TmQbV_Li6zToCEC5h53o0IrzwTRZJxD7eO_jS8USaD0vAC_87EhB7XM18BOMBJusvij88pbFaGhQNsqRTb2OCU4uzWRUaBFWAMpgGIA", "width": 1920, "html_attributions": ["<a href=\"https://maps.google.com/maps/contrib/102154596384679037271\">PRIYANSHU YADAV</a>"], "height": 1080}], "scope": "GOOGLE", "business_status": "OPERATIONAL", "types": ["hospital", "health", "point_of_interest", "establishment"], "icon": "https://maps.gstatic.com/mapfiles/place_api/icons/v1/png_71/hospital-71.png"}, {"name": "Ayush Skin Care Clinic Pataudi", "reference": "ChIJF9I8BvFBDTkR_I1DEvP7SGA", "geometry": {"location": {"lat": 28.3294495, "lng": 76.7802829}, "viewport": {"northeast": {"lat": 28.3307093302915, "lng": 76.78174973029151}, "southwest": {"lat": 28.3280113697085, "lng": 76.7790517697085}}}, "opening_hours": {"open_now": true}, "place_id": "ChIJF9I8BvFBDTkR_I1DEvP7SGA", "plus_code": {"global_code": "7JWR8QHJ+Q4", "compound_code": "8QHJ+Q4 Pataudi, Haryana, India"}, "vicinity": "Pataudi", "photos": [{"photo_reference": "CmRaAAAABvlG_PP3JdPe49pa5XkoqLSBazUWBuswX96nngcpMIc5MwUmiePAN92MY-aUb7MtpTHOAeCHyXI3f_Sjwe-bUCif4-AEEk9H9GOx5Cub3rLur6e7AfIFwO6Ojuqz1YQzEhClTSWBJ8IVEoW4v0uYvDLtGhTbpn-7Zlmewb79tSNCYLKg2itJwg", "width": 3120, "html_attributions": ["<a href=\"https://maps.google.com/maps/contrib/114301965754122728106\">hariom sambharwal</a>"], "height": 4160}], "scope": "GOOGLE", "business_status": "OPERATIONAL", "types": ["hospital", "health", "point_of_interest", "establishment"], "icon": "https://maps.gstatic.com/mapfiles/place_api/icons/v1/png_71/hospital-71.png"}, {"rating": 3.7, "user_ratings_total": 7, "name": "Varma Dental and Eye Hospital", "reference": "ChIJE94eSB5BDTkR1qFzqW6Uk9A", "geometry": {"location": {"lat": 28.3294463, "lng": 76.7804673}, "viewport": {"northeast": {"lat": 28.3307469302915, "lng": 76.78188018029151}, "southwest": {"lat": 28.3280489697085, "lng": 76.7791822197085}}}, "opening_hours": {"open_now": true}, "place_id": "ChIJE94eSB5BDTkR1qFzqW6Uk9A", "plus_code": {"global_code": "7JWR8QHJ+Q5", "compound_code": "8QHJ+Q5 Pataudi, Haryana, India"}, "vicinity": "Gurgaon Road, Pataudi", "photos": [{"photo_reference": "CmRaAAAAwQT9N66WPjKcM35quOGfgxOLRco6p_nPNa_lw75eI6lBd6VkRmn_3d6lRmIALjWCG72xqpDnnC4-yWOmw31vK5eijWLenfp_h1T6ZHyJx0lCUqIC-DhfqjE-OKCPsdkMEhBrhWGPic0WepNJtAfEalHKGhQ_WUqqbROzztazyQONwYCaHURSBw", "width": 960, "html_attributions": ["<a href=\"https://maps.google.com/maps/contrib/108116666271589819084\">Varma Dental and Eye Hospital</a>"], "height": 720}], "scope": "GOOGLE", "business_status": "OPERATIONAL", "types": ["hospital", "dentist", "health", "point_of_interest", "establishment"], "icon": "https://maps.gstatic.com/mapfiles/place_api/icons/v1/png_71/generic_business-71.png"}, {"name": "Shree Kailash Hospital", "reference": "ChIJMZ6wPzxBDTkRC7o31Fp9mAA", "geometry": {"location": {"lat": 28.3297073, "lng": 76.7808033}, "viewport": {"northeast": {"lat": 28.3310216302915, "lng": 76.7821919302915}, "southwest": {"lat": 28.32832366970849, "lng": 76.7794939697085}}}, "opening_hours": {"open_now": true}, "place_id": "ChIJMZ6wPzxBDTkRC7o31Fp9mAA", "plus_code": {"global_code": "7JWR8QHJ+V8", "compound_code": "8QHJ+V8 Pataudi, Haryana, India"}, "vicinity": "Gurgaon Road, Pataudi", "photos": [{"photo_reference": "CmRaAAAAFFla6oqEQ7Zg5_XX3-ZvGNzB_PNyJ8iiYkSuvPu1bnjJZh9eJLTwmR8-WQq0FaA6PsaY1l1QSVzVEShvvIY7RF8ywM1fEuNMmWIm09DnLFaLIPO4v7jMzzcRevm9FKbPEhCPZTdVAgLZaf6JJ9ksLLpBGhQHXgHMD9v51ZQ1fcCWI0spKsm9Gg", "width": 3024, "html_attributions": ["<a href=\"https://maps.google.com/maps/contrib/113721755764424563046\">Shree Kailash Hospital</a>"], "height": 4032}], "scope": "GOOGLE", "business_status": "OPERATIONAL", "types": ["hospital", "health", "point_of_interest", "establishment"], "icon": "https://maps.gstatic.com/mapfiles/place_api/icons/v1/png_71/hospital-71.png"}, {"name": "pataudi near tilk hospital", "reference": "ChIJJYtdBOBADTkRXrL58O98BPE", "geometry": {"location": {"lat": 28.3292, "lng": 76.7802578}, "viewport": {"northeast": {"lat": 28.3305070302915, "lng": 76.7816614302915}, "southwest": {"lat": 28.3278090697085, "lng": 76.77896346970849}}}, "opening_hours": {"open_now": true}, "place_id": "ChIJJYtdBOBADTkRXrL58O98BPE", "plus_code": {"global_code": "7JWR8QHJ+M4", "compound_code": "8QHJ+M4 Pataudi, Haryana, India"}, "vicinity": "Pataudi Road, Pataudi", "scope": "GOOGLE", "business_status": "OPERATIONAL", "types": ["hospital", "health", "point_of_interest", "establishment"], "icon": "https://maps.gstatic.com/mapfiles/place_api/icons/v1/png_71/hospital-71.png"}, {"rating": 5, "user_ratings_total": 3, "name": "Yaduvanshi medical store", "reference": "ChIJ0cMRaSJBDTkRfnn7IdH4l58", "geometry": {"location": {"lat": 28.3291328, "lng": 76.7804693}, "viewport": {"northeast": {"lat": 28.3304986302915, "lng": 76.78179603029152}, "southwest": {"lat": 28.3278006697085, "lng": 76.7790980697085}}}, "opening_hours": {"open_now": true}, "place_id": "ChIJ0cMRaSJBDTkRfnn7IdH4l58", "plus_code": {"global_code": "7JWR8QHJ+M5", "compound_code": "8QHJ+M5 Pataudi, Haryana, India"}, "vicinity": "Pataudi Road, Pataudi", "photos": [{"photo_reference": "CmRaAAAAFFpQcb_lWI3aiiCGBMk1ALHExC_W_YpZ7w25jZ8tilxqTHKzaz7rzo-0Mn3F58qiwUvxQB2Y-yMPeYYk-xQTYI4lbSo49PWpO4Gao4n7FygK_mwG-5ZSMvziOBr7FUeREhB3DYSrXifye06XOE0gaB4lGhS_G6ZziBTBevFWA-ZIybSio7qM1A", "width": 3000, "html_attributions": ["<a href=\"https://maps.google.com/maps/contrib/103475800382543382434\">Rakesh Yadav</a>"], "height": 4000}], "scope": "GOOGLE", "business_status": "OPERATIONAL", "types": ["hospital", "health", "point_of_interest", "establishment"], "icon": "https://maps.gstatic.com/mapfiles/place_api/icons/v1/png_71/hospital-71.png"}, {"rating": 3.3, "user_ratings_total": 6, "name": "Tilak Hospital", "reference": "ChIJZTBwAeBADTkRJDCN_bbXbdw", "geometry": {"location": {"lat": 28.32899860000001, "lng": 76.7799541}, "viewport": {"northeast": {"lat": 28.33029468029151, "lng": 76.7813869802915}, "southwest": {"lat": 28.3275967197085, "lng": 76.77868901970848}}}, "opening_hours": {"open_now": true}, "place_id": "ChIJZTBwAeBADTkRJDCN_bbXbdw", "plus_code": {"global_code": "7JWR8QHH+HX", "compound_code": "8QHH+HX Pataudi, Haryana, India"}, "vicinity": "Pataudi", "photos": [{"photo_reference": "CmRaAAAAUNwz5uQNwD7OUFVMrubbbKZ-dUwLHZo1KzOqVZdMGux4uZ3ONyYQP_jkKiR3fChA-PpK7B29bvtZ3s20VxXqVraYowNRxI_mWQY7zePwOpYMNhdtK21UiHDiea1rt8l5EhBYNzJa4i_fL1e5RWJkj7F3GhSYldS5V8wqYH73ANZ3P-g1vsbpng", "width": 3264, "html_attributions": ["<a href=\"https://maps.google.com/maps/contrib/100590878910579643691\">Gajraj Singh</a>"], "height": 1520}], "scope": "GOOGLE", "business_status": "OPERATIONAL", "types": ["hospital", "health", "point_of_interest", "establishment"], "icon": "https://maps.gstatic.com/mapfiles/place_api/icons/v1/png_71/hospital-71.png"}, {"rating": 5, "user_ratings_total": 3, "name": "Krishnaa Physiotherapy", "reference": "ChIJn8V4dtJBDTkRcjS4ly7IMlI", "geometry": {"location": {"lat": 28.3284984, "lng": 76.7804084}, "viewport": {"northeast": {"lat": 28.3297700302915, "lng": 76.7817087302915}, "southwest": {"lat": 28.3270720697085, "lng": 76.77901076970849}}}, "opening_hours": {"open_now": true}, "place_id": "ChIJn8V4dtJBDTkRcjS4ly7IMlI", "plus_code": {"global_code": "7JWR8QHJ+95", "compound_code": "8QHJ+95 Gurugram, Haryana, India"}, "vicinity": "Krishnaa Library, Near Badshah Car Singar/Tilak Hospital/Gyani Inverter Ramlila Ground, Major Market Gurugram Road, Pataudi, Gurugram", "photos": [{"photo_reference": "CmRaAAAAyXz3Z5ckXjN4J6aVGIB5MnkFc1Fk5KU_cP6G-MvvI3bp7lG1A11nxEa21FetHWJSTmOjTwsuUYGMcTJbcF6X_YTADGT-JkxOjDR9so_xRpDcTLDdrw12DjWLz1szeXjZEhBeRuFN1CC3_kEX-nfbky-NGhT8eGmAoX9pRCQMTkW_6dmNXo9c2w", "width": 1032, "html_attributions": ["<a href=\"https://maps.google.com/maps/contrib/109796601554993484577\">Ishwar Singh</a>"], "height": 774}], "scope": "GOOGLE", "business_status": "OPERATIONAL", "types": ["hospital", "health", "point_of_interest", "establishment"], "icon": "https://maps.gstatic.com/mapfiles/place_api/icons/v1/png_71/hospital-71.png"}, {"rating": 5, "user_ratings_total": 4, "name": "Krishnaa Physiotherapy and Krishnaa Library (Dr Ishwar Singh)", "reference": "ChIJb2Wg2eNBDTkRikYfLRBsg7w", "geometry": {"location": {"lat": 28.3284983, "lng": 76.7804119}, "viewport": {"northeast": {"lat": 28.3297699802915, "lng": 76.7817104802915}, "southwest": {"lat": 28.3270720197085, "lng": 76.77901251970849}}}, "opening_hours": {"open_now": true}, "place_id": "ChIJb2Wg2eNBDTkRikYfLRBsg7w", "plus_code": {"global_code": "7JWR8QHJ+95", "compound_code": "8QHJ+95 Pataudi, Haryana, India"}, "vicinity": "Krishnaa Library Near Gyani Inverter/Badshah car singar/Ramlila Ground Near Tilak Hospital, Major Market Gurugram, Road, Pataudi", "scope": "GOOGLE", "business_status": "OPERATIONAL", "types": ["physiotherapist", "hospital", "health", "point_of_interest", "establishment"], "icon": "https://maps.gstatic.com/mapfiles/place_api/icons/v1/png_71/generic_business-71.png"}, {"rating": 5, "user_ratings_total": 3, "name": "Geetanjali Hospital", "reference": "ChIJneXINeRBDTkReLnsvM-H2ag", "geometry": {"location": {"lat": 28.3300784, "lng": 76.781913}, "viewport": {"northeast": {"lat": 28.3314722302915, "lng": 76.7832611302915}, "southwest": {"lat": 28.3287742697085, "lng": 76.78056316970849}}}, "opening_hours": {"open_now": true}, "place_id": "ChIJneXINeRBDTkReLnsvM-H2ag", "plus_code": {"global_code": "7JWR8QJJ+2Q", "compound_code": "8QJJ+2Q Pataudi, Haryana, India"}, "vicinity": "Gurgaon road Rampur, mod, Pataudi", "photos": [{"photo_reference": "CmRaAAAAc_iw86Ejh1bb2LlH7BMhXBpwO2CMJyY6q2roLpxt23-Yu1AIZ5YYSzWNyANRIUE123-dn5DyQkwd_S4Rno1C5a48I9D8AoydFUtDa4TW6PiSaX-qeeQHcOFaMx7_Ulb9EhBuPBp1N8n5AWpmFcjbruW4GhRaFxFh6coC2YbsZc4RfbdoLAhGIw", "width": 864, "html_attributions": ["<a href=\"https://maps.google.com/maps/contrib/116683513120850612794\">Subhash Yadav</a>"], "height": 1152}], "scope": "GOOGLE", "business_status": "OPERATIONAL", "types": ["hospital", "health", "point_of_interest", "establishment"], "icon": "https://maps.gstatic.com/mapfiles/place_api/icons/v1/png_71/hospital-71.png"}, {"rating": 5, "user_ratings_total": 2, "name": "New Life Care Clinic (Dr Manoj Chauhan) B.A.M.S", "reference": "ChIJ-76gxN9ADTkRTRUU3iiaI2o", "geometry": {"location": {"lat": 28.3280127, "lng": 76.7816308}, "viewport": {"northeast": {"lat": 28.3293724302915, "lng": 76.7829760802915}, "southwest": {"lat": 28.3266744697085, "lng": 76.7802781197085}}}, "opening_hours": {"open_now": true}, "place_id": "ChIJ-76gxN9ADTkRTRUU3iiaI2o", "plus_code": {"global_code": "7JWR8QHJ+6M", "compound_code": "8QHJ+6M Pataudi, Haryana, India"}, "vicinity": "Pataudi", "photos": [{"photo_reference": "CmRaAAAAp61K7O-dhI9la3EfsORACjwNF9RWCj9bubL3Z52kqJA1t-ANkM94NzVZGYECh22J_1WGHMyjjs0Lopx5saNmsyl5j5FayTcksCMitFysBzmDdZjZh6Aw00Dlak0TQ5NxEhAb5WG9EKu2oEnVenL1SIHIGhSr1hj4lag-I46V-DehlDKMsOJ4Cw", "width": 2340, "html_attributions": ["<a href=\"https://maps.google.com/maps/contrib/115567370641275701087\">Manoj Chauhan</a>"], "height": 4160}], "scope": "GOOGLE", "business_status": "OPERATIONAL", "types": ["hospital", "health", "point_of_interest", "establishment"], "icon": "https://maps.gstatic.com/mapfiles/place_api/icons/v1/png_71/hospital-71.png"}, {"name": "gulab kaur memorial hospital", "reference": "ChIJh7x3Rs9BDTkRuoDCop6fjuU", "geometry": {"location": {"lat": 28.3282256, "lng": 76.7774814}, "viewport": {"northeast": {"lat": 28.3296244302915, "lng": 76.7788840302915}, "southwest": {"lat": 28.3269264697085, "lng": 76.77618606970849}}}, "opening_hours": {"open_now": true}, "place_id": "ChIJh7x3Rs9BDTkRuoDCop6fjuU", "plus_code": {"global_code": "7JWR8QHG+7X", "compound_code": "8QHG+7X Pataudi, Haryana, India"}, "vicinity": "opposit- old bus stand,Rewari chowk, Pataudi", "scope": "GOOGLE", "business_status": "OPERATIONAL", "types": ["hospital", "health", "point_of_interest", "establishment"], "icon": "https://maps.gstatic.com/mapfiles/place_api/icons/v1/png_71/hospital-71.png"}, {"name": "Verma Dental Hospital", "reference": "ChIJzeFDtdZBDTkRROsyCV4REro", "geometry": {"location": {"lat": 28.3291135, "lng": 76.7766178}, "viewport": {"northeast": {"lat": 28.3304702802915, "lng": 76.7779580302915}, "southwest": {"lat": 28.32777231970849, "lng": 76.7752600697085}}}, "place_id": "ChIJzeFDtdZBDTkRROsyCV4REro", "plus_code": {"global_code": "7JWR8QHG+JJ", "compound_code": "8QHG+JJ Mirzapur, Haryana, India"}, "vicinity": "Unnamed Road, Mirzapur", "photos": [{"photo_reference": "CmRaAAAATrZEkK2MzG-ITRbPdu7w1zdtzoxyYY3BxbKii4ghLTzjBfXXI-Seez6g__saaPurPvrGIkJSnddzwql3--iSJZIkkHyar3GKFVTpu4KF1BSQXPGcIRmZ9TKDnNmP4XQnEhD8RWh0lXOog0quqGjZZC0DGhQ4Y-IvREDqdiPP9CtP91rL91C4iQ", "width": 1944, "html_attributions": ["<a href=\"https://maps.google.com/maps/contrib/110663754509333276632\">Ravinder Kumar</a>"], "height": 2592}], "scope": "GOOGLE", "business_status": "OPERATIONAL", "types": ["hospital", "health", "point_of_interest", "establishment"], "icon": "https://maps.gstatic.com/mapfiles/place_api/icons/v1/png_71/hospital-71.png"}, {"rating": 5, "user_ratings_total": 1, "name": "City Hospital", "reference": "ChIJjwOcAwVBDTkRcpe8MPE0nyY", "geometry": {"location": {"lat": 28.3275967, "lng": 76.77750850000001}, "viewport": {"northeast": {"lat": 28.3289299302915, "lng": 76.77887418029151}, "southwest": {"lat": 28.3262319697085, "lng": 76.77617621970849}}}, "place_id": "ChIJjwOcAwVBDTkRcpe8MPE0nyY", "plus_code": {"global_code": "7JWR8QHH+22", "compound_code": "8QHH+22 Pataudi, Haryana, India"}, "vicinity": "Pataudi", "scope": "GOOGLE", "business_status": "OPERATIONAL", "types": ["hospital", "health", "point_of_interest", "establishment"], "icon": "https://maps.gstatic.com/mapfiles/place_api/icons/v1/png_71/hospital-71.png"}, {"name": "Santosh Hospital Pataudi", "reference": "ChIJ0TV_ch9BDTkRAL5AU9VidBY", "geometry": {"location": {"lat": 28.3295399, "lng": 76.77617599999999}, "viewport": {"northeast": {"lat": 28.3309233302915, "lng": 76.7775733302915}, "southwest": {"lat": 28.3282253697085, "lng": 76.77487536970848}}}, "place_id": "ChIJ0TV_ch9BDTkRAL5AU9VidBY", "plus_code": {"global_code": "7JWR8QHG+RF", "compound_code": "8QHG+RF Mirzapur, Haryana, India"}, "vicinity": "Mirzapur", "scope": "GOOGLE", "business_status": "OPERATIONAL", "types": ["hospital", "health", "point_of_interest", "establishment"], "icon": "https://maps.gstatic.com/mapfiles/place_api/icons/v1/png_71/hospital-71.png"}, {"rating": 4.8, "user_ratings_total": 4, "name": "Joshi Hospital", "reference": "ChIJz5UL9SBBDTkRLY-i9rE7kuU", "geometry": {"location": {"lat": 28.3269586, "lng": 76.77766679999999}, "viewport": {"northeast": {"lat": 28.3283180802915, "lng": 76.77902513029149}, "southwest": {"lat": 28.3256201197085, "lng": 76.77632716970848}}}, "opening_hours": {"open_now": true}, "place_id": "ChIJz5UL9SBBDTkRLY-i9rE7kuU", "plus_code": {"global_code": "7JWR8QGH+Q3", "compound_code": "8QGH+Q3 Pataudi, Haryana, India"}, "vicinity": "Dr. Joshi wali gali, Nauhtta Chowk, Pataudi", "photos": [{"photo_reference": "CmRaAAAAvcBtmX1JYrr18ToY7hJeLRfcyVJRuki4FTnL5DXwb9QPgAbtKU4XTvZa8sjL04Z2g0UJhk26htpiSH9dxzj5MpHx2Pkz3S3u6oqOdedBNgZQ9QK-YWfSC2TadOF71ZyCEhDsBSEaghueTqnVgaLnzhIxGhQbcQs8N4S3BQq8vUn0O3HOh924gQ", "width": 1080, "html_attributions": ["<a href=\"https://maps.google.com/maps/contrib/112497971676163818174\">chetan Bhagotiya</a>"], "height": 1920}], "scope": "GOOGLE", "business_status": "OPERATIONAL", "types": ["hospital", "health", "point_of_interest", "establishment"], "icon": "https://maps.gstatic.com/mapfiles/place_api/icons/v1/png_71/hospital-71.png"}, {"rating": 5, "user_ratings_total": 1, "name": "Joshi Hospital & Maternity center", "reference": "ChIJvSDCRyBBDTkRzlHCttz-RjA", "geometry": {"location": {"lat": 28.3269, "lng": 76.777721}, "viewport": {"northeast": {"lat": 28.3282723802915, "lng": 76.7790909302915}, "southwest": {"lat": 28.3255744197085, "lng": 76.7763929697085}}}, "opening_hours": {"open_now": true}, "place_id": "ChIJvSDCRyBBDTkRzlHCttz-RjA", "plus_code": {"global_code": "7JWR8QGH+Q3", "compound_code": "8QGH+Q3 Pataudi, Haryana, India"}, "vicinity": "market Nahutta Chowk, Pataudi", "scope": "GOOGLE", "business_status": "OPERATIONAL", "types": ["hospital", "health", "point_of_interest", "establishment"], "icon": "https://maps.gstatic.com/mapfiles/place_api/icons/v1/png_71/hospital-71.png"}, {"rating": 4.8, "user_ratings_total": 5, "name": "Geetanjali Hospital Pataudi", "reference": "ChIJTQS8LCNBDTkRmHHiRT9VREo", "geometry": {"location": {"lat": 28.3318032, "lng": 76.783838}, "viewport": {"northeast": {"lat": 28.33328898029151, "lng": 76.78502708029151}, "southwest": {"lat": 28.3305910197085, "lng": 76.7823291197085}}}, "place_id": "ChIJTQS8LCNBDTkRmHHiRT9VREo", "plus_code": {"global_code": "7JWR8QJM+PG", "compound_code": "8QJM+PG Pataudi, Haryana, India"}, "vicinity": "Pataudi Road, Pataudi", "scope": "GOOGLE", "business_status": "OPERATIONAL", "types": ["hospital", "health", "point_of_interest", "establishment"], "icon": "https://maps.gstatic.com/mapfiles/place_api/icons/v1/png_71/hospital-71.png"}, {"rating": 5, "user_ratings_total": 4, "name": "Sh Kailash Hospital", "reference": "ChIJbcyn7G1BDTkRxaBdU1RCwcQ", "geometry": {"location": {"lat": 28.3293497, "lng": 76.7844307}, "viewport": {"northeast": {"lat": 28.3306450302915, "lng": 76.7857745802915}, "southwest": {"lat": 28.3279470697085, "lng": 76.7830766197085}}}, "place_id": "ChIJbcyn7G1BDTkRxaBdU1RCwcQ", "plus_code": {"global_code": "7JWR8QHM+PQ", "compound_code": "8QHM+PQ Pataudi, Haryana, India"}, "vicinity": "Pataudi", "scope": "GOOGLE", "business_status": "OPERATIONAL", "types": ["hospital", "health", "point_of_interest", "establishment"], "icon": "https://maps.gstatic.com/mapfiles/place_api/icons/v1/png_71/hospital-71.png"}]}