{"status": "OK", "html_attributions": [], "results": [{"rating": 3.5, "user_ratings_total": 12, "name": "Primary Health Center, Bhora Kalan", "reference": "ChIJX9MzxbM4DTkRtpQy8DpLt7Y", "geometry": {"location": {"lat": 28.3066926, "lng": 76.8412274}, "viewport": {"northeast": {"lat": 28.3078725302915, "lng": 76.8425683302915}, "southwest": {"lat": 28.3051745697085, "lng": 76.83987036970849}}}, "place_id": "ChIJX9MzxbM4DTkRtpQy8DpLt7Y", "plus_code": {"global_code": "7JWR8R4R+MF", "compound_code": "8R4R+MF Bhora Kalan, Haryana, India"}, "vicinity": "Bhora Kalan", "scope": "GOOGLE", "business_status": "OPERATIONAL", "types": ["hospital", "health", "point_of_interest", "establishment"], "icon": "https://maps.gstatic.com/mapfiles/place_api/icons/v1/png_71/hospital-71.png"}, {"name": "Advance Herbal hospital (DR.GAUTAM Tanwar)", "reference": "ChIJNZ1xcmQ5DTkR4FtV4wvEIBc", "geometry": {"location": {"lat": 28.3080817, "lng": 76.83577749999999}, "viewport": {"northeast": {"lat": 28.3094299302915, "lng": 76.83717968029151}, "southwest": {"lat": 28.3067319697085, "lng": 76.83448171970849}}}, "place_id": "ChIJNZ1xcmQ5DTkR4FtV4wvEIBc", "plus_code": {"global_code": "7JWR8R5P+68", "compound_code": "8R5P+68 Bhora Kalan, Haryana, India"}, "vicinity": "Bhora Kalan", "photos": [{"photo_reference": "CmRaAAAAxaqW_owXfmnsSnpRVmb-V46WiY7lelYGv-1ANjdLNbJ-jc_gi7ckxKBTUdB-nqB7bR_Lxn0ThsmnAc9_us4RbkK_-4U6NQsXy94ULFnrZjXkPl0ZKDJftO_V0G3edX11EhCf8LcEjf_JmJFN6_K12GNyGhSyRFHdP15MoZjhNmH_qk1C_DVaSA", "width": 3096, "html_attributions": ["<a href=\"https://maps.google.com/maps/contrib/111715387411831150854\">Dr.Gautam Singh</a>"], "height": 4128}], "scope": "GOOGLE", "business_status": "OPERATIONAL", "types": ["hospital", "health", "point_of_interest", "establishment"], "icon": "https://maps.gstatic.com/mapfiles/place_api/icons/v1/png_71/hospital-71.png"}, {"rating": 4.7, "user_ratings_total": 6, "name": "S V Nursing Home", "reference": "ChIJuy_UYqU4DTkRh-jLmdsZsZ4", "geometry": {"location": {"lat": 28.3095618, "lng": 76.84631639999999}, "viewport": {"northeast": {"lat": 28.3109107802915, "lng": 76.8476653802915}, "southwest": {"lat": 28.30821281970849, "lng": 76.8449674197085}}}, "opening_hours": {"open_now": true}, "place_id": "ChIJuy_UYqU4DTkRh-jLmdsZsZ4", "plus_code": {"global_code": "7JWR8R5W+RG", "compound_code": "8R5W+RG Bhora Kalan, Haryana, India"}, "vicinity": "Bhora Kalan", "photos": [{"photo_reference": "CmRaAAAAQ06_jT_Mj5YSB13C4plX7pSy_WLnTYqsUsAlf8jW9vgxH6m-fF_2R4JYc-oQiatx0JmwwIDHwcjrX-qRT0ilPjHj9LOU8GvYF5ML_bo7aEBohqcBI5LpsXfCN1d_tm3_EhBJoRIsdDD_74tEcDtbnZYuGhRumV9cs5-YZd2QAPA2Ve5XjvSlmA", "width": 852, "html_attributions": ["<a href=\"https://maps.google.com/maps/contrib/105371337435947148181\">S V Nursing Home</a>"], "height": 478}], "scope": "GOOGLE", "business_status": "OPERATIONAL", "types": ["hospital", "health", "point_of_interest", "establishment"], "icon": "https://maps.gstatic.com/mapfiles/place_api/icons/v1/png_71/hospital-71.png"}, {"name": "Medical shop", "reference": "ChIJNWxfv085DTkR55LcGesTu1A", "geometry": {"location": {"lat": 28.3054498, "lng": 76.8290609}, "viewport": {"northeast": {"lat": 28.3068017302915, "lng": 76.83075218029151}, "southwest": {"lat": 28.3041037697085, "lng": 76.8280542197085}}}, "place_id": "ChIJNWxfv085DTkR55LcGesTu1A", "plus_code": {"global_code": "7JWR8R4H+5J", "compound_code": "8R4H+5J Pataudi, Haryana, India"}, "vicinity": "Main chok, Pataudi", "scope": "GOOGLE", "business_status": "OPERATIONAL", "types": ["hospital", "health", "point_of_interest", "establishment"], "icon": "https://maps.gstatic.com/mapfiles/place_api/icons/v1/png_71/hospital-71.png"}, {"rating": 5, "user_ratings_total": 4, "name": "Government Veterinary Hospital", "reference": "ChIJBdn2XKU4DTkRV5nfyyt2raU", "geometry": {"location": {"lat": 28.2991766, "lng": 76.8362952}, "viewport": {"northeast": {"lat": 28.3004307802915, "lng": 76.8375913802915}, "southwest": {"lat": 28.2977328197085, "lng": 76.8348934197085}}}, "opening_hours": {"open_now": true}, "place_id": "ChIJBdn2XKU4DTkRV5nfyyt2raU", "plus_code": {"global_code": "7JWR7RXP+MG", "compound_code": "7RXP+MG Bhora Kalan, Haryana, India"}, "vicinity": "Bhora Kalan", "photos": [{"photo_reference": "CmRaAAAAkZzZIMlLo_dicIu9w50e6BNYiVndZjKPwuMm7f4-ZfdAsaTVxr71iHW-22KgcNhqjBGkm3ZbAZxyjDnm-Fnf4-choIiodBLD5mfLwMDLztjL1pIhFWcnY4Osr2pswsRnEhBuoE7BW1UWEo4vKKkEpmHmGhSBku2ghiC_-MgwOwn8eo5sJYZt4w", "width": 3120, "html_attributions": ["<a href=\"https://maps.google.com/maps/contrib/108908719726183430618\">Special Sanjay</a>"], "height": 4160}], "scope": "GOOGLE", "business_status": "OPERATIONAL", "types": ["hospital", "health", "point_of_interest", "establishment"], "icon": "https://maps.gstatic.com/mapfiles/place_api/icons/v1/png_71/hospital-71.png"}, {"rating": 4.5, "user_ratings_total": 4, "name": "Vinayak Health Care Hospital", "reference": "ChIJy88eRKU4DTkRRonJv-C6U10", "geometry": {"location": {"lat": 28.298697, "lng": 76.836494}, "viewport": {"northeast": {"lat": 28.3000861302915, "lng": 76.8378654302915}, "southwest": {"lat": 28.29738816970849, "lng": 76.8351674697085}}}, "opening_hours": {"open_now": true}, "place_id": "ChIJy88eRKU4DTkRRonJv-C6U10", "plus_code": {"global_code": "7JWR7RXP+FH", "compound_code": "7RXP+FH Gurugram, Haryana, India"}, "vicinity": "Bhodakalan, Gurgaon, Bilaspur Road, Gurgaon, Gurugram", "scope": "GOOGLE", "business_status": "OPERATIONAL", "types": ["hospital", "health", "point_of_interest", "establishment"], "icon": "https://maps.gstatic.com/mapfiles/place_api/icons/v1/png_71/hospital-71.png"}, {"name": "Shree Neelkanth Hospital", "reference": "ChIJ_0e3xTE5DTkRjKDBgkF5wWs", "geometry": {"location": {"lat": 28.3032362, "lng": 76.8302611}, "viewport": {"northeast": {"lat": 28.3045851802915, "lng": 76.83161008029151}, "southwest": {"lat": 28.30188721970849, "lng": 76.8289121197085}}}, "opening_hours": {"open_now": true}, "place_id": "ChIJ_0e3xTE5DTkRjKDBgkF5wWs", "plus_code": {"global_code": "7JWR8R3J+74", "compound_code": "8R3J+74 Bhora Kalan, Haryana, India"}, "vicinity": "parchin Hanuman Mandir, VPO, Bilaspur - Pataudi Road, Bhora Kalan", "scope": "GOOGLE", "business_status": "OPERATIONAL", "types": ["hospital", "health", "point_of_interest", "establishment"], "icon": "https://maps.gstatic.com/mapfiles/place_api/icons/v1/png_71/hospital-71.png"}]}