{"status": "OK", "html_attributions": [], "results": [{"rating": 4.4, "user_ratings_total": 29, "name": "German International Academy Chennai (GIAC)", "reference": "ChIJ9cA_8ztdUjoRQZKCSCGzqBE", "geometry": {"location": {"lat": 12.9607901, "lng": 80.25863149999999}, "viewport": {"northeast": {"lat": 12.9621360302915, "lng": 80.26001778029149}, "southwest": {"lat": 12.9594380697085, "lng": 80.25731981970848}}}, "opening_hours": {"open_now": false}, "place_id": "ChIJ9cA_8ztdUjoRQZKCSCGzqBE", "plus_code": {"global_code": "7M42X765+8F", "compound_code": "X765+8F Chennai, Tamil Nadu, India"}, "vicinity": "No.4/391, Ram Garden, Anna Salai, Palavakkam, Chennai", "photos": [{"photo_reference": "ATtYBwIraVSTdJsyM_KYlR_OHj2fJIighrus8PQD_WemBNzCdTWqSnSWkzO0XeQN-32yLf4Bm6NA9bYckS12f_J5wXr6USxf4SiTpB9S_7PJhKa5PLr5BS_-t3nA-dUeQ3ldX8Q-zJ1MOAYleEDgHpG-lOcxExx8sfiJXvNI4KjrSzZ98M9l", "width": 5616, "html_attributions": ["<a href=\"https://maps.google.com/maps/contrib/106177735440420141505\">German International Academy Chennai (GIAC)</a>"], "height": 3744}], "scope": "GOOGLE", "business_status": "OPERATIONAL", "types": ["primary_school", "secondary_school", "school", "point_of_interest", "establishment"], "icon": "https://maps.gstatic.com/mapfiles/place_api/icons/v1/png_71/school-71.png"}, {"rating": 5, "user_ratings_total": 10, "permanently_closed": true, "name": "Indus International Primary School Chennai", "reference": "ChIJy1ga0u5nUjoRIyMX7OwVvzg", "geometry": {"location": {"lat": 12.9497148, "lng": 80.2596482}, "viewport": {"northeast": {"lat": 12.9509417802915, "lng": 80.2610047802915}, "southwest": {"lat": 12.9482438197085, "lng": 80.2583068197085}}}, "place_id": "ChIJy1ga0u5nUjoRIyMX7OwVvzg", "plus_code": {"global_code": "7M42W7X5+VV", "compound_code": "W7X5+VV Neelankarai, Chennai, Tamil Nadu, India"}, "vicinity": "4, 1, Doctor Kalaignar Karunanidhi Salai, Sri Kapaleeswarar Nagar, Neelankarai", "photos": [{"photo_reference": "ATtYBwI9ELJuLtGQUHr7WOHO1EpxmpwbzfyJ4B_FrcE6jlUzvUGiIZKOJT_N07X2eRzWi2VMVqKqGL59rkoveO6zv7HUvI9QP0zhZ5UTZ4gAq7ntZFeE5_5tgavjofgBFNjRi-fJk9ra1Cba5ad77YzJZ5rLUcYJDlNGgvO7t7oA2hLOe4I4", "width": 4032, "html_attributions": ["<a href=\"https://maps.google.com/maps/contrib/116706918102689920111\">Ragumoorthy Nehrumoorthy</a>"], "height": 3024}], "scope": "GOOGLE", "business_status": "CLOSED_TEMPORARILY", "types": ["primary_school", "school", "point_of_interest", "establishment"], "icon": "https://maps.gstatic.com/mapfiles/place_api/icons/v1/png_71/school-71.png"}, {"rating": 3.8, "user_ratings_total": 65, "name": "Shraddha Childrens Academy", "reference": "ChIJi3j6F0FdUjoRnU-NllN4RK8", "geometry": {"location": {"lat": 12.9713268, "lng": 80.2585805}, "viewport": {"northeast": {"lat": 12.9726860302915, "lng": 80.2597169302915}, "southwest": {"lat": 12.9699880697085, "lng": 80.25701896970848}}}, "opening_hours": {"open_now": false}, "place_id": "ChIJi3j6F0FdUjoRnU-NllN4RK8", "plus_code": {"global_code": "7M42X7C5+GC", "compound_code": "X7C5+GC Chennai, Tamil Nadu, India"}, "vicinity": "1, 10 A, State Highway 49, Kottivakkam, Chennai", "photos": [{"photo_reference": "ATtYBwJ1HhbqxYRCIH3OgCv8tkKhS48FwNJyNd4yZsT2FnUAzDcEfs1LDqb7dPUy-6-EzF67AvkZZ31wiFIJ3H3lEhNh7Lv_S3UyilMyTtiiv2NAxcfwpDKejj-Nv7hlHWdOj5yzwMwslLPZC9MshqXojqLmLMneBB38RnUh4I7kMletlCDO", "width": 4032, "html_attributions": ["<a href=\"https://maps.google.com/maps/contrib/105479305424130004241\">Shraddha Childrens Academy</a>"], "height": 2269}], "scope": "GOOGLE", "business_status": "OPERATIONAL", "types": ["school", "primary_school", "secondary_school", "point_of_interest", "establishment"], "icon": "https://maps.gstatic.com/mapfiles/place_api/icons/v1/png_71/school-71.png"}, {"rating": 4.9, "user_ratings_total": 28, "name": "Billabong High International School", "reference": "ChIJee409jxdUjoRg9W_xHao-EU", "geometry": {"location": {"lat": 12.9593667, "lng": 80.2580859}, "viewport": {"northeast": {"lat": 12.9607205302915, "lng": 80.25939513029151}, "southwest": {"lat": 12.9580225697085, "lng": 80.25669716970849}}}, "opening_hours": {"open_now": false}, "place_id": "ChIJee409jxdUjoRg9W_xHao-EU", "plus_code": {"global_code": "7M42X755+P6", "compound_code": "X755+P6 Palavakkam, Chennai, Tamil Nadu, India"}, "vicinity": "6F, Radio Colony Street, Palavakkam", "photos": [{"photo_reference": "ATtYBwKvKXsTXwrE8_JXr6VgQdtiaJN4Q58mHNXM-JaGIZcTljNZNKmf_DVhuPCzpWOWuzB1CzruQEy8n7Cfaz4ZPUXuVXO21tu6Y6q7WoG3pd6B6bEQYh0WnZXWc-JTuMN68HRnIzMZBWAuJR1di3fRhRpauXcw3VcOpZwsx2R3UZL4Hn1j", "width": 960, "html_attributions": ["<a href=\"https://maps.google.com/maps/contrib/111027561845507715604\">Billabong High International School</a>"], "height": 728}], "scope": "GOOGLE", "business_status": "OPERATIONAL", "types": ["school", "primary_school", "point_of_interest", "establishment"], "icon": "https://maps.gstatic.com/mapfiles/place_api/icons/v1/png_71/school-71.png"}, {"permanently_closed": true, "name": "Grace Garden Primary School", "reference": "ChIJ2x5VBRhdUjoRanklSoKaHZI", "geometry": {"location": {"lat": 12.955537, "lng": 80.2537443}, "viewport": {"northeast": {"lat": 12.9568091302915, "lng": 80.25509018029149}, "southwest": {"lat": 12.9541111697085, "lng": 80.25239221970848}}}, "place_id": "ChIJ2x5VBRhdUjoRanklSoKaHZI", "plus_code": {"global_code": "7M42X743+6F", "compound_code": "X743+6F Neelankarai, Chennai, Tamil Nadu, India"}, "vicinity": "Ranga Reddy Gardens, Neelankarai", "scope": "GOOGLE", "business_status": "CLOSED_TEMPORARILY", "types": ["primary_school", "school", "point_of_interest", "establishment"], "icon": "https://maps.gstatic.com/mapfiles/place_api/icons/v1/png_71/school-71.png"}, {"permanently_closed": true, "name": "Chennai Nursery and Primary School", "reference": "ChIJ1XyAYhZdUjoRwKfrfIbt2As", "geometry": {"location": {"lat": 12.9609647, "lng": 80.2516575}, "viewport": {"northeast": {"lat": 12.9622920302915, "lng": 80.2530018802915}, "southwest": {"lat": 12.9595940697085, "lng": 80.2503039197085}}}, "place_id": "ChIJ1XyAYhZdUjoRwKfrfIbt2As", "plus_code": {"global_code": "7M42X762+9M", "compound_code": "X762+9M Palavakkam, Chennai, Tamil Nadu, India"}, "vicinity": "62, 2nd Street, MGR Nagar, Palavakkam", "scope": "GOOGLE", "business_status": "CLOSED_TEMPORARILY", "types": ["primary_school", "school", "point_of_interest", "establishment"], "icon": "https://maps.gstatic.com/mapfiles/place_api/icons/v1/png_71/school-71.png"}, {"rating": 5, "user_ratings_total": 1, "permanently_closed": true, "name": "Sri Sankara Nursery And Primary School", "reference": "ChIJNWxTzRVdUjoRXjB6-RVs6I4", "geometry": {"location": {"lat": 12.9625893, "lng": 80.25165480000001}, "viewport": {"northeast": {"lat": 12.9640039302915, "lng": 80.25301843029152}, "southwest": {"lat": 12.9613059697085, "lng": 80.2503204697085}}}, "place_id": "ChIJNWxTzRVdUjoRXjB6-RVs6I4", "plus_code": {"global_code": "7M42X772+2M", "compound_code": "X772+2M Chennai, Tamil Nadu, India"}, "vicinity": "3/817 7th Street Krishna Nagar, Palavakkam", "photos": [{"photo_reference": "ATtYBwLg1k6Y7TMJ-mVzWSihWMIpvtK7XRFqRSfkxG2RVmr_J5QLd9HWyY8bt_Hexkj8CSnUrJXO-8RwRRsFQEoPpczu3M2W8n1Q1Ph-s2prNM-7ag37COYvhdcBjVohYyl-rAgypTFaJ8AIhcNsgL_DQ3kdzhEKLShHz_JCAHsReN4lVKi8", "width": 1144, "html_attributions": ["<a href=\"https://maps.google.com/maps/contrib/102599529809580205667\">AV Gardening</a>"], "height": 763}], "scope": "GOOGLE", "business_status": "CLOSED_TEMPORARILY", "types": ["primary_school", "school", "point_of_interest", "establishment"], "icon": "https://maps.gstatic.com/mapfiles/place_api/icons/v1/png_71/school-71.png"}, {"rating": 4.2, "user_ratings_total": 62, "permanently_closed": true, "name": "Manthan Vidyashram", "reference": "ChIJr8QnWjxdUjoRN0FNAzFLogk", "geometry": {"location": {"lat": 12.971283, "lng": 80.255814}, "viewport": {"northeast": {"lat": 12.9726866802915, "lng": 80.25718128029152}, "southwest": {"lat": 12.9699887197085, "lng": 80.2544833197085}}}, "place_id": "ChIJr8QnWjxdUjoRN0FNAzFLogk", "plus_code": {"global_code": "7M42X7C4+G8", "compound_code": "X7C4+G8 Chennai, Tamil Nadu, India"}, "vicinity": "2/155, Natco Colony North Street, Kottivakkam, Chennai", "photos": [{"photo_reference": "ATtYBwJoW8gB4B7Gyg83UAcewjmlth9J7PoemRJWt-tEEstnng8r8zXkyXWDSheeTcugxU3IzCUtGzrPe_h1rlds9blcPM1Rj3MtPR7vkFWNfhirQ61Bx_-N8qpP9A4PGkLfJtHHY-co3siAvVaXJCTFGv2NkMAVepSQEk2GU-Qzsli5ER1E", "width": 4608, "html_attributions": ["<a href=\"https://maps.google.com/maps/contrib/108080605587943117266\">Sadishkumar Neelamegam</a>"], "height": 2592}], "scope": "GOOGLE", "business_status": "CLOSED_TEMPORARILY", "types": ["school", "primary_school", "secondary_school", "point_of_interest", "establishment"], "icon": "https://maps.gstatic.com/mapfiles/place_api/icons/v1/png_71/school-71.png"}, {"permanently_closed": true, "name": "Children's Paradise Nursery & Primary School", "reference": "ChIJjUV3g2pdUjoRYt9zNoi2ViE", "geometry": {"location": {"lat": 12.9698768, "lng": 80.2541254}, "viewport": {"northeast": {"lat": 12.9712658302915, "lng": 80.25548203029149}, "southwest": {"lat": 12.9685678697085, "lng": 80.25278406970848}}}, "place_id": "ChIJjUV3g2pdUjoRYt9zNoi2ViE", "plus_code": {"global_code": "7M42X793+XM", "compound_code": "X793+XM Chennai, Tamil Nadu, India"}, "vicinity": "6, Mettu street, Thiruvanmiyur, Chennai", "scope": "GOOGLE", "business_status": "CLOSED_TEMPORARILY", "types": ["primary_school", "school", "point_of_interest", "establishment"], "icon": "https://maps.gstatic.com/mapfiles/place_api/icons/v1/png_71/school-71.png"}]}