{"status": "OK", "html_attributions": [], "results": [{"rating": 4.5, "user_ratings_total": 2, "name": "Advocate S. Paul", "reference": "ChIJUxYSWQN1AjoR8O6qxD-W8gA", "geometry": {"location": {"lat": 22.6087814, "lng": 88.4016779}, "viewport": {"northeast": {"lat": 22.6100765802915, "lng": 88.4030414802915}, "southwest": {"lat": 22.6073786197085, "lng": 88.40034351970849}}}, "opening_hours": {"open_now": false}, "place_id": "ChIJUxYSWQN1AjoR8O6qxD-W8gA", "plus_code": {"global_code": "7MJCJC52+GM", "compound_code": "JC52+GM Kolkata, West Bengal, India"}, "vicinity": "Petrol Pump, P-849, Block A, Jessore Road Junction, opposite Lake Town, Kolkata", "photos": [{"photo_reference": "ATtYBwIoUNSWvcVrumzzMbxvEt9CuS9rhHkYj7UQ3TfSk8GwzmzxD5fNqmKva3uorn8mj8Lrpx1AnnjUx9d1gd1BLvqk4njr2XwnKaNDorvHiYI0xYtGQpmXOBmKvjaLqUpdQ8md8BidKIRRQx52ogA2IY3CZYqmNFM-Y3tWvzxRZiV6VMCg", "width": 1920, "html_attributions": ["<a href=\"https://maps.google.com/maps/contrib/104270661499278288919\">Advocate S. Paul</a>"], "height": 1080}], "scope": "GOOGLE", "business_status": "OPERATIONAL", "types": ["lawyer", "local_government_office", "health", "point_of_interest", "establishment"], "icon": "https://maps.gstatic.com/mapfiles/place_api/icons/v1/png_71/civic_building-71.png"}, {"rating": 3, "user_ratings_total": 1, "name": "\u00c7ompactor", "reference": "ChIJRSoaCwF2AjoRFDMckTLu0eo", "geometry": {"location": {"lat": 22.6087269, "lng": 88.3980576}, "viewport": {"northeast": {"lat": 22.6100536302915, "lng": 88.3994129302915}, "southwest": {"lat": 22.6073556697085, "lng": 88.3967149697085}}}, "place_id": "ChIJRSoaCwF2AjoRFDMckTLu0eo", "plus_code": {"global_code": "7MJCJ95X+F6", "compound_code": "J95X+F6 Kolkata, West Bengal, India"}, "vicinity": "Shree Bhumi, Patipukur, Kolkata", "photos": [{"photo_reference": "ATtYBwKPKZxjyaBfLbIaA2qJhRXdLcdhhkQwt9Za8FMzDQIEabpxeYaVS6eumZmQiv6B8DSl3bXm4C70Ui0zXaSLpks5McDXCXcQEHQoITSMHxhpqpRPgBvaQ1Gs4Crl6_tRaPkTp9W-4nClDbzP3NYY3aBfdrdZhak28_WYIfu4PyP4S1LM", "width": 1836, "html_attributions": ["<a href=\"https://maps.google.com/maps/contrib/104822520191398647259\">hirak sengupta</a>"], "height": 3264}], "scope": "GOOGLE", "business_status": "OPERATIONAL", "types": ["local_government_office", "health", "point_of_interest", "establishment"], "icon": "https://maps.gstatic.com/mapfiles/place_api/icons/v1/png_71/civic_building-71.png"}, {"name": "S. P. Enterprise", "reference": "ChIJb3_6ypyd-DkRtZnUJngWjKo", "geometry": {"location": {"lat": 22.6280289, "lng": 88.39095569999999}, "viewport": {"northeast": {"lat": 22.6294090802915, "lng": 88.3923094802915}, "southwest": {"lat": 22.6267111197085, "lng": 88.38961151970848}}}, "place_id": "ChIJb3_6ypyd-DkRtZnUJngWjKo", "plus_code": {"global_code": "7MJCJ9HR+69", "compound_code": "J9HR+69 Kolkata, West Bengal, India"}, "vicinity": "2/1/D, Namasudra, Roy Para Lane, Baranagar, Kolkata", "scope": "GOOGLE", "business_status": "OPERATIONAL", "types": ["local_government_office", "point_of_interest", "establishment"], "icon": "https://maps.gstatic.com/mapfiles/place_api/icons/v1/png_71/civic_building-71.png"}, {"rating": 5, "user_ratings_total": 1, "name": "DREAM CATCHER JOB CONSULTANCY", "reference": "ChIJWaORhAB2AjoRpEDrFS2As_Q", "geometry": {"location": {"lat": 22.608353, "lng": 88.40124999999999}, "viewport": {"northeast": {"lat": 22.6096565802915, "lng": 88.40258748029149}, "southwest": {"lat": 22.6069586197085, "lng": 88.39988951970848}}}, "place_id": "ChIJWaORhAB2AjoRpEDrFS2As_Q", "plus_code": {"global_code": "7MJCJC52+8G", "compound_code": "JC52+8G Kolkata, West Bengal, India"}, "vicinity": "852, Lake Town Road, Block A, Lake Town, Kolkata", "scope": "GOOGLE", "business_status": "OPERATIONAL", "types": ["local_government_office", "point_of_interest", "establishment"], "icon": "https://maps.gstatic.com/mapfiles/place_api/icons/v1/png_71/civic_building-71.png"}, {"name": "REGISTER LEGAL GURU", "reference": "ChIJGd0Az_h1AjoRnHGQ79ZDRug", "geometry": {"location": {"lat": 22.6099632, "lng": 88.4069234}, "viewport": {"northeast": {"lat": 22.6113165302915, "lng": 88.4082758302915}, "southwest": {"lat": 22.6086185697085, "lng": 88.4055778697085}}}, "place_id": "ChIJGd0Az_h1AjoRnHGQ79ZDRug", "plus_code": {"global_code": "7MJCJC54+XQ", "compound_code": "JC54+XQ Kolkata, West Bengal, India"}, "vicinity": "Avani Oxford Phase II, 136, Jessore Road, Block - 5, Flat - 14H, Kolkata", "scope": "GOOGLE", "business_status": "OPERATIONAL", "types": ["local_government_office", "point_of_interest", "establishment"], "icon": "https://maps.gstatic.com/mapfiles/place_api/icons/v1/png_71/civic_building-71.png"}, {"rating": 4, "user_ratings_total": 1, "name": "Subho Drishti", "reference": "ChIJGd0Az_h1AjoRLmaKiAwGr6U", "geometry": {"location": {"lat": 22.6099632, "lng": 88.4069234}, "viewport": {"northeast": {"lat": 22.6113165302915, "lng": 88.4082758302915}, "southwest": {"lat": 22.6086185697085, "lng": 88.4055778697085}}}, "place_id": "ChIJGd0Az_h1AjoRLmaKiAwGr6U", "plus_code": {"global_code": "7MJCJC54+XQ", "compound_code": "JC54+XQ Kolkata, West Bengal, India"}, "vicinity": "Avani Oxford Phase II, 136, Jessore Road, Block - 5, Flat - 14H, Kolkata", "photos": [{"photo_reference": "ATtYBwKNBQ-md2EQjR9ocVZPTwmzYsPUsglOMyBtdiLtzactZZCasKu4h__5HHUKKm9IiyysNwzXO-1pUHDynGk8WzHyWY06c_3Vn_ZVxkrGQPJR4z8rJRIA3otJ-dm5uPl2j8agIzqRUYznDbEr3S0E7bWWOJ2lxE8dOhlgRS0GucyHKERX", "width": 3264, "html_attributions": ["<a href=\"https://maps.google.com/maps/contrib/117249845711166696547\">fact bangla \u09ac\u09be\u0982\u09b2\u09be</a>"], "height": 2448}], "scope": "GOOGLE", "business_status": "OPERATIONAL", "types": ["local_government_office", "point_of_interest", "establishment"], "icon": "https://maps.gstatic.com/mapfiles/place_api/icons/v1/png_71/civic_building-71.png"}, {"rating": 5, "user_ratings_total": 3, "name": "tMESiS Solution", "reference": "ChIJP9w6X6id-DkRzMeAdXsUNDg", "geometry": {"location": {"lat": 22.6295731, "lng": 88.3919312}, "viewport": {"northeast": {"lat": 22.6309091302915, "lng": 88.39327833029151}, "southwest": {"lat": 22.6282111697085, "lng": 88.39058036970849}}}, "place_id": "ChIJP9w6X6id-DkRzMeAdXsUNDg", "plus_code": {"global_code": "7MJCJ9HR+RQ", "compound_code": "J9HR+RQ Baranagar, West Bengal, India"}, "vicinity": "27/40/A, Atapara, Sinthee, Baranagar", "scope": "GOOGLE", "business_status": "OPERATIONAL", "types": ["local_government_office", "point_of_interest", "establishment"], "icon": "https://maps.gstatic.com/mapfiles/place_api/icons/v1/png_71/civic_building-71.png"}, {"name": "Dum Dum Town Trinomool Office", "reference": "ChIJ8_vejRqe-DkR_l5e93nKmgI", "geometry": {"location": {"lat": 22.6228493, "lng": 88.4132085}, "viewport": {"northeast": {"lat": 22.6241942802915, "lng": 88.4144494302915}, "southwest": {"lat": 22.62149631970849, "lng": 88.41175146970849}}}, "place_id": "ChIJ8_vejRqe-DkR_l5e93nKmgI", "plus_code": {"global_code": "7MJCJCF7+47", "compound_code": "JCF7+47 South Dumdum, West Bengal, India"}, "vicinity": "RN Guha Road, Ramgarh, South Dumdum", "photos": [{"photo_reference": "ATtYBwK0NBP-AHnpgP-N1OlrKDeRNphAEK3v-eCcyBNIjnPFdnEkNHwOwOtR4FTeSkHTGpHh1kigVpFm4wsR8_S3MoMxWx9VwPL-zFCcsZT8U2BU_fUGAoVRdkFJsfYznW3Qq_4C7X7QVWQQ6mYLTq6YZB7Yl4SHNXvnqjogZZ78B6O5YJVq", "width": 471, "html_attributions": ["<a href=\"https://maps.google.com/maps/contrib/105098292780742924007\">Raja Das</a>"], "height": 312}], "scope": "GOOGLE", "business_status": "OPERATIONAL", "types": ["local_government_office", "point_of_interest", "establishment"], "icon": "https://maps.gstatic.com/mapfiles/place_api/icons/v1/png_71/civic_building-71.png"}, {"rating": 5, "user_ratings_total": 1, "name": "Marriage Registration Office (Dum Dum)", "reference": "ChIJ0ZT9NZqf-DkRIaMfVsJNXnw", "geometry": {"location": {"lat": 22.6180935, "lng": 88.4136073}, "viewport": {"northeast": {"lat": 22.61945248029151, "lng": 88.4149122802915}, "southwest": {"lat": 22.6167545197085, "lng": 88.41221431970848}}}, "opening_hours": {"open_now": false}, "place_id": "ChIJ0ZT9NZqf-DkRIaMfVsJNXnw", "plus_code": {"global_code": "7MJCJC97+6C", "compound_code": "JC97+6C Kolkata, West Bengal, India"}, "vicinity": "99, 75, Jessore Road, Kolkata", "photos": [{"photo_reference": "ATtYBwLQ4fDbFvrgJ_zBViTAoWcz4rQZN159dwUqfsPIDQQC2LESmfqhbeThQF9BHA2RXxe_Ovay-mhy_gggL9JwdEffCMvr2oekglBtRJf0KI6DdAU-jsBV2cQ7902vNwFyzUIpP9l3OUDvY4bfjXupmBZak-eoQ0BCExlp9CSkv29hq55X", "width": 3264, "html_attributions": ["<a href=\"https://maps.google.com/maps/contrib/102276963590562902881\">Marriage Registration Office (Dum Dum)</a>"], "height": 1836}], "scope": "GOOGLE", "business_status": "OPERATIONAL", "types": ["local_government_office", "point_of_interest", "establishment"], "icon": "https://maps.gstatic.com/mapfiles/place_api/icons/v1/png_71/civic_building-71.png"}]}