{"status": "OK", "html_attributions": [], "results": [{"name": "Sri Sankatahara Ganapathy Temple", "reference": "ChIJ4w5nRuTkDDkRKbL9u6m_PI0", "geometry": {"location": {"lat": 28.603168, "lng": 77.324693}, "viewport": {"northeast": {"lat": 28.6045063302915, "lng": 77.3260272302915}, "southwest": {"lat": 28.60180836970849, "lng": 77.32332926970848}}}, "place_id": "ChIJ4w5nRuTkDDkRKbL9u6m_PI0", "plus_code": {"global_code": "7JWVJ83F+7V", "compound_code": "J83F+7V Delhi, India"}, "vicinity": "India", "scope": "GOOGLE", "business_status": "OPERATIONAL", "types": ["bus_station", "transit_station", "point_of_interest", "establishment"], "icon": "https://maps.gstatic.com/mapfiles/place_api/icons/v1/png_71/bus-71.png"}, {"name": "Fire Station", "reference": "ChIJleekKObkDDkROgkevj-oI_E", "geometry": {"location": {"lat": 28.606744, "lng": 77.32125599999999}, "viewport": {"northeast": {"lat": 28.6080883302915, "lng": 77.3225957802915}, "southwest": {"lat": 28.60539036970849, "lng": 77.31989781970849}}}, "place_id": "ChIJleekKObkDDkROgkevj-oI_E", "plus_code": {"global_code": "7JWVJ84C+MG", "compound_code": "J84C+MG Delhi, India"}, "vicinity": "India", "scope": "GOOGLE", "business_status": "OPERATIONAL", "types": ["bus_station", "transit_station", "point_of_interest", "establishment"], "icon": "https://maps.gstatic.com/mapfiles/place_api/icons/v1/png_71/bus-71.png"}, {"rating": 5, "user_ratings_total": 1, "name": "Fire Station", "reference": "ChIJg8sbL-bkDDkRnt4xyp_3LKY", "geometry": {"location": {"lat": 28.606868, "lng": 77.32143099999999}, "viewport": {"northeast": {"lat": 28.6081953802915, "lng": 77.3227404302915}, "southwest": {"lat": 28.6054974197085, "lng": 77.32004246970848}}}, "place_id": "ChIJg8sbL-bkDDkRnt4xyp_3LKY", "plus_code": {"global_code": "7JWVJ84C+PH", "compound_code": "J84C+PH Delhi, India"}, "vicinity": "India", "scope": "GOOGLE", "business_status": "OPERATIONAL", "types": ["bus_station", "transit_station", "point_of_interest", "establishment"], "icon": "https://maps.gstatic.com/mapfiles/place_api/icons/v1/png_71/bus-71.png"}, {"rating": 4.3, "user_ratings_total": 81, "name": "Sector 15 Metro Station", "reference": "ChIJwSFBl1_kDDkR8iek3TzZkbI", "geometry": {"location": {"lat": 28.585595, "lng": 77.31144909999999}, "viewport": {"northeast": {"lat": 28.5868340802915, "lng": 77.3126781802915}, "southwest": {"lat": 28.5841361197085, "lng": 77.30998021970849}}}, "place_id": "ChIJwSFBl1_kDDkR8iek3TzZkbI", "plus_code": {"global_code": "7JWVH8P6+6H", "compound_code": "H8P6+6H Noida, Uttar Pradesh, India"}, "vicinity": "Captain Vijyant Thapar Marg, New Okhla, Sector 2, Noida", "photos": [{"photo_reference": "ATtYBwLdQS5gerLpxmUpQNxJVX5rSuEuFOi8BtTR89omzjAgoboyB58QiHbxou-hgA5JjUQ4DpULLYkCEvDdI2UkWQFQ9Y77DWHq53s8Y4gZMCNZrP4zMQqe-011a-zOdKDvulcG43EAdjYiYcGbMvb0j6YGmCXHJtzWjofSBRqgsGbG58v5", "width": 4032, "html_attributions": ["<a href=\"https://maps.google.com/maps/contrib/110245175816463964923\">Raja Tyagi</a>"], "height": 2268}], "scope": "GOOGLE", "business_status": "OPERATIONAL", "types": ["bus_station", "transit_station", "point_of_interest", "establishment"], "icon": "https://maps.gstatic.com/mapfiles/place_api/icons/v1/png_71/bus-71.png"}, {"rating": 4, "user_ratings_total": 3, "name": "Sector 15 Noida Metro Station", "reference": "ChIJj_dzjV_kDDkRXi_hevNVzdU", "geometry": {"location": {"lat": 28.5857315, "lng": 77.31106009999999}, "viewport": {"northeast": {"lat": 28.5870952802915, "lng": 77.31243528029151}, "southwest": {"lat": 28.5843973197085, "lng": 77.30973731970849}}}, "place_id": "ChIJj_dzjV_kDDkRXi_hevNVzdU", "plus_code": {"global_code": "7JWVH8P6+7C", "compound_code": "H8P6+7C Noida, Uttar Pradesh, India"}, "vicinity": "India", "photos": [{"photo_reference": "ATtYBwJ1AoPaeHr1imHSHGWZ8ZpKF-DUJg338HrI5Bu5LWXwZni3vJlfeM7C9GJX4ctKbfDmjbmIhqowYj_xg0JTegOZe7fOTMvoPO97vTuOfhyUb0_MuojURa2j_Ztiz5Y6mmAWcw7mkVomp0ow85HX55i0HiY-olHtbnn0l4jWx8pR_zGP", "width": 3000, "html_attributions": ["<a href=\"https://maps.google.com/maps/contrib/113114502718932220706\">AMIT vishwakarma</a>"], "height": 4000}], "scope": "GOOGLE", "business_status": "OPERATIONAL", "types": ["bus_station", "transit_station", "point_of_interest", "establishment"], "icon": "https://maps.gstatic.com/mapfiles/place_api/icons/v1/png_71/bus-71.png"}, {"rating": 3.7, "user_ratings_total": 23, "name": "Sector 15 Metro Station", "reference": "ChIJjfZxjV_kDDkRzOYPaPVxLZE", "geometry": {"location": {"lat": 28.58572599999999, "lng": 77.311042}, "viewport": {"northeast": {"lat": 28.5870645802915, "lng": 77.3123724802915}, "southwest": {"lat": 28.5843666197085, "lng": 77.3096745197085}}}, "place_id": "ChIJjfZxjV_kDDkRzOYPaPVxLZE", "plus_code": {"global_code": "7JWVH8P6+7C", "compound_code": "H8P6+7C Noida, Uttar Pradesh, India"}, "vicinity": "India", "photos": [{"photo_reference": "ATtYBwJR7RQ4OsZUtbYmADojVTm7ABw5eG6iTMwtsAVf6qIlt-9vq1UuXcebHkdISBpAnXUcd0BiIqNHoqTZdBhP6cn7exRG7MQldThf6aJNN9RibqdkMXcbriv0mLtq9Z-tLW1YBfeARLquLRyVjblqMUF1Bjjl-ZZ4vlDZChXOywsS5peG", "width": 4032, "html_attributions": ["<a href=\"https://maps.google.com/maps/contrib/115443655372723686995\">Rakesh Goyal</a>"], "height": 3024}], "scope": "GOOGLE", "business_status": "OPERATIONAL", "types": ["bus_station", "transit_station", "point_of_interest", "establishment"], "icon": "https://maps.gstatic.com/mapfiles/place_api/icons/v1/png_71/bus-71.png"}, {"name": "Sector 56", "reference": "ChIJoah2JQXlDDkRMWurvi1n2T8", "geometry": {"location": {"lat": 28.599957, "lng": 77.341615}, "viewport": {"northeast": {"lat": 28.6012994302915, "lng": 77.34295473029151}, "southwest": {"lat": 28.5986014697085, "lng": 77.3402567697085}}}, "place_id": "ChIJoah2JQXlDDkRMWurvi1n2T8", "plus_code": {"global_code": "7JWVH8XR+XJ", "compound_code": "H8XR+XJ Noida, Uttar Pradesh, India"}, "vicinity": "India", "scope": "GOOGLE", "business_status": "OPERATIONAL", "types": ["bus_station", "transit_station", "point_of_interest", "establishment"], "icon": "https://maps.gstatic.com/mapfiles/place_api/icons/v1/png_71/bus-71.png"}, {"name": "Sector 15 Noida Metro Station", "reference": "ChIJ_66G717kDDkR0Lr9iGlnDMY", "geometry": {"location": {"lat": 28.5829759, "lng": 77.3132126}, "viewport": {"northeast": {"lat": 28.5843202802915, "lng": 77.3145530802915}, "southwest": {"lat": 28.5816223197085, "lng": 77.3118551197085}}}, "place_id": "ChIJ_66G717kDDkR0Lr9iGlnDMY", "plus_code": {"global_code": "7JWVH8M7+57", "compound_code": "H8M7+57 Noida, Uttar Pradesh, India"}, "vicinity": "India", "scope": "GOOGLE", "business_status": "OPERATIONAL", "types": ["bus_station", "transit_station", "point_of_interest", "establishment"], "icon": "https://maps.gstatic.com/mapfiles/place_api/icons/v1/png_71/bus-71.png"}, {"rating": 4, "user_ratings_total": 25, "name": "Sector 16 Metro Station", "reference": "ChIJUy46r1vkDDkRTvK1uQmUsL0", "geometry": {"location": {"lat": 28.5788115, "lng": 77.3173843}, "viewport": {"northeast": {"lat": 28.5801949302915, "lng": 77.31874548029151}, "southwest": {"lat": 28.5774969697085, "lng": 77.3160475197085}}}, "place_id": "ChIJUy46r1vkDDkRTvK1uQmUsL0", "plus_code": {"global_code": "7JWVH8H8+GX", "compound_code": "H8H8+GX Noida, Uttar Pradesh, India"}, "vicinity": "India", "photos": [{"photo_reference": "ATtYBwLFP-hemPnYsKuNBvboPEw2rx0A3YtV7d8gQQvATml2WbE2M-F9-kgDYhAssjCg-g3vx-iQkINQ98Caopprq4LB7fCaw6vXFyJ0wGAPiwSKrhnIxvwC4ChtQE6mAgwcu8WSLpPVtyU_1ngbi7IAN445ECQo_EaHJTdj9QiNc_7Z_MU", "width": 2448, "html_attributions": ["<a href=\"https://maps.google.com/maps/contrib/100484192136584535487\">Anoop rawat YT</a>"], "height": 3264}], "scope": "GOOGLE", "business_status": "OPERATIONAL", "types": ["bus_station", "transit_station", "point_of_interest", "establishment"], "icon": "https://maps.gstatic.com/mapfiles/place_api/icons/v1/png_71/bus-71.png"}, {"rating": 5, "user_ratings_total": 1, "name": "Sector 16 Noida Metro Station", "reference": "ChIJMWfuqFvkDDkRLXDy_LMGroo", "geometry": {"location": {"lat": 28.5786135, "lng": 77.3174829}, "viewport": {"northeast": {"lat": 28.5798518802915, "lng": 77.3187810802915}, "southwest": {"lat": 28.5771539197085, "lng": 77.3160831197085}}}, "place_id": "ChIJMWfuqFvkDDkRLXDy_LMGroo", "plus_code": {"global_code": "7JWVH8H8+CX", "compound_code": "H8H8+CX Noida, Uttar Pradesh, India"}, "vicinity": "India", "photos": [{"photo_reference": "ATtYBwLa6JAeqMiwdcJNRqU5i4-ZDUjwBr_nbPQexua2F6Fk1IGRbnBdLGdQYJql2mPzJSG_IHNatyMe8o8DH9BqKMJya2a0pXQCvGIZAlI1zXEmxpvhuuPY-4VMTTEk56XdNRlE-bAzf7Bp38fho3X8umyKNYoKUAstRepUyE4Bgbv5wD5i", "width": 4000, "html_attributions": ["<a href=\"https://maps.google.com/maps/contrib/111575307145966228544\">Vishal Yadav</a>"], "height": 3000}], "scope": "GOOGLE", "business_status": "OPERATIONAL", "types": ["bus_station", "transit_station", "point_of_interest", "establishment"], "icon": "https://maps.gstatic.com/mapfiles/place_api/icons/v1/png_71/bus-71.png"}, {"rating": 3.6, "user_ratings_total": 29, "name": "Rajnigandha Bus Stop", "reference": "ChIJW2r771rkDDkRdZ1n9EPVgLk", "geometry": {"location": {"lat": 28.57761099999999, "lng": 77.318568}, "viewport": {"northeast": {"lat": 28.5789639302915, "lng": 77.31992143029152}, "southwest": {"lat": 28.57626596970849, "lng": 77.3172234697085}}}, "place_id": "ChIJW2r771rkDDkRdZ1n9EPVgLk", "plus_code": {"global_code": "7JWVH8H9+2C", "compound_code": "H8H9+2C Noida, Uttar Pradesh, India"}, "vicinity": "Block B, Sector 3, Noida", "photos": [{"photo_reference": "ATtYBwJUGPaX3SjWgTAH0J9w1URamvl3q_y1qyHkBaTIWd-7xF1qkDsviwMazIJh33TgviHxteFiwbnjHmlDQiDCmEBmoUcc9tQt2EgePONzQdMMI4M6z6sS5Bubf3eefxDopqqoQq35SW3Y2IOQ2Ax5hcZ1OwavhiOYO12NN8EF4NwPSe6z", "width": 4160, "html_attributions": ["<a href=\"https://maps.google.com/maps/contrib/111575307145966228544\">Vishal Yadav</a>"], "height": 2340}], "scope": "GOOGLE", "business_status": "OPERATIONAL", "types": ["bus_station", "transit_station", "point_of_interest", "establishment"], "icon": "https://maps.gstatic.com/mapfiles/place_api/icons/v1/png_71/bus-71.png"}]}