{"status": "OK", "html_attributions": [], "results": [{"rating": 3, "user_ratings_total": 1, "name": "Sector 4 Police Station", "reference": "ChIJixJDknsXDTkReZb2LlOFASU", "geometry": {"location": {"lat": 28.47260000000001, "lng": 77.0038}, "viewport": {"northeast": {"lat": 28.4739428302915, "lng": 77.0051306302915}, "southwest": {"lat": 28.4712448697085, "lng": 77.00243266970848}}}, "place_id": "ChIJixJDknsXDTkReZb2LlOFASU", "plus_code": {"global_code": "7JWVF2F3+2G", "compound_code": "F2F3+2G Gurugram, Haryana, India"}, "vicinity": "India", "scope": "GOOGLE", "business_status": "OPERATIONAL", "types": ["bus_station", "transit_station", "point_of_interest", "establishment"], "icon": "https://maps.gstatic.com/mapfiles/place_api/icons/v1/png_71/bus-71.png"}, {"name": "Sector 4 Police Station", "reference": "ChIJG9RJjXsXDTkRjJGoN7MM1tw", "geometry": {"location": {"lat": 28.472419, "lng": 77.003995}, "viewport": {"northeast": {"lat": 28.4737534802915, "lng": 77.0052988802915}, "southwest": {"lat": 28.4710555197085, "lng": 77.0026009197085}}}, "place_id": "ChIJG9RJjXsXDTkRjJGoN7MM1tw", "plus_code": {"global_code": "7JWVF2C3+XH", "compound_code": "F2C3+XH Gurugram, Haryana, India"}, "vicinity": "India", "photos": [{"photo_reference": "ATtYBwL5b97LZsi9Qwmdof43q9cxo8ueC6-lWDwLJPCf4B8ZTf6RtdDrBszRFssBhI4auL6YxuVJcqEaQWMDiZO89grUzWL7IHj-LfRdQ0anqdlwRmhlKA3ARgc8ik_RYG_1FV3Bqzu6xp-NoDKsz_NKJN25Tz5fmo9f-tfJ9pjK8B2Vm2-9", "width": 4128, "html_attributions": ["<a href=\"https://maps.google.com/maps/contrib/105000305209830166594\">Dinesh Kumar</a>"], "height": 3096}], "scope": "GOOGLE", "business_status": "OPERATIONAL", "types": ["bus_station", "transit_station", "point_of_interest", "establishment"], "icon": "https://maps.gstatic.com/mapfiles/place_api/icons/v1/png_71/bus-71.png"}, {"rating": 3.8, "user_ratings_total": 36, "name": "Gurugram Railway Station", "reference": "ChIJnX89tGEXDTkRIz-1hZ2gDyg", "geometry": {"location": {"lat": 28.485439, "lng": 77.00867199999999}, "viewport": {"northeast": {"lat": 28.4867566802915, "lng": 77.01000753029152}, "southwest": {"lat": 28.4840587197085, "lng": 77.0073095697085}}}, "place_id": "ChIJnX89tGEXDTkRIz-1hZ2gDyg", "plus_code": {"global_code": "7JWVF2P5+5F", "compound_code": "F2P5+5F Gurugram, Haryana, India"}, "vicinity": "India", "photos": [{"photo_reference": "ATtYBwLf1M1bDpLfKaV8KHNJcmobVeFJdC4suuxFVzY791tyqcdZl8KxistrPPL57zVI6Uqo0ZQPEC5GO-_bcu_ySPZtp3ysov5zgH5hWwKZ5tC0JI5TD0Frj7bIMIrYaKKLTZOj7HHNOD4qynyVqWvfE69OTzThgAUSciWRXmplDJR80VDn", "width": 4032, "html_attributions": ["<a href=\"https://maps.google.com/maps/contrib/100397163836368717696\">Bharti Raizada</a>"], "height": 1960}], "scope": "GOOGLE", "business_status": "OPERATIONAL", "types": ["bus_station", "transit_station", "point_of_interest", "establishment"], "icon": "https://maps.gstatic.com/mapfiles/place_api/icons/v1/png_71/bus-71.png"}, {"rating": 3.7, "user_ratings_total": 13, "name": "Gurugram Railway Station", "reference": "ChIJN_pTtGEXDTkRloAlJXU3HBU", "geometry": {"location": {"lat": 28.485549, "lng": 77.00874499999999}, "viewport": {"northeast": {"lat": 28.4868366802915, "lng": 77.0100728302915}, "southwest": {"lat": 28.48413871970849, "lng": 77.0073748697085}}}, "place_id": "ChIJN_pTtGEXDTkRloAlJXU3HBU", "plus_code": {"global_code": "7JWVF2P5+6F", "compound_code": "F2P5+6F Gurugram, Haryana, India"}, "vicinity": "India", "photos": [{"photo_reference": "ATtYBwIbA8VZRcqkGeO-6FcBIgZqduF3vkEqBkXCb0OP0983mkUTvyihfJ4HWA8RAh4StfpeSPAqR656-wBvYVfmcMjJ2d1LzOqliDZ5A5YKW5-PLzomq-fdjmi84zQQDjMChrU3hcDBwLBt_igOzGuy8TQKzZFlMQweftAWfW8GDRKrSVHt", "width": 4160, "html_attributions": ["<a href=\"https://maps.google.com/maps/contrib/106992777541227690579\">Ankit Mahawar</a>"], "height": 3120}], "scope": "GOOGLE", "business_status": "OPERATIONAL", "types": ["bus_station", "transit_station", "point_of_interest", "establishment"], "icon": "https://maps.gstatic.com/mapfiles/place_api/icons/v1/png_71/bus-71.png"}]}