{"status": "OK", "html_attributions": [], "results": [{"rating": 3.6, "user_ratings_total": 106, "name": "Uttam Nagar Terminal", "reference": "ChIJSdxJfNsEDTkRCdtj2_ffIxY", "geometry": {"location": {"lat": 28.6252123, "lng": 77.0658225}, "viewport": {"northeast": {"lat": 28.6265258302915, "lng": 77.0671900802915}, "southwest": {"lat": 28.6238278697085, "lng": 77.06449211970849}}}, "place_id": "ChIJSdxJfNsEDTkRCdtj2_ffIxY", "plus_code": {"global_code": "7JWVJ3G8+38", "compound_code": "J3G8+38 New Delhi, Delhi, India"}, "vicinity": "Shivaji Marg, Block D, JJ Colony, Uttam Nagar, New Delhi", "photos": [{"photo_reference": "ATtYBwJ0uD-COX71FczenxCF1ytKTfHGLbp7ngyaBSK9jZ7u--bb8Hnu-RNS18b4CHxeAKr_aQPyLaKIogSi1ruS2yHp_zWgxGmSeKfHxl8bx3k3IPBA6d-qLxiD3mlo4ax4a7a92avtaE0npgT1Ro9WjDW0iTSNG9xt96NPY6AUMuPxflss", "width": 4032, "html_attributions": ["<a href=\"https://maps.google.com/maps/contrib/108140977490826854105\">Soham Saarthaka Aluria</a>"], "height": 2268}], "scope": "GOOGLE", "business_status": "OPERATIONAL", "types": ["bus_station", "transit_station", "point_of_interest", "establishment"], "icon": "https://maps.gstatic.com/mapfiles/place_api/icons/v1/png_71/bus-71.png"}, {"rating": 3.7, "user_ratings_total": 29, "name": "Uttam Nagar West Metro Station", "reference": "ChIJJfaahicFDTkRC_R_9W3mpX0", "geometry": {"location": {"lat": 28.6218542, "lng": 77.05571499999999}, "viewport": {"northeast": {"lat": 28.6233035802915, "lng": 77.0571584302915}, "southwest": {"lat": 28.6206056197085, "lng": 77.05446046970849}}}, "place_id": "ChIJJfaahicFDTkRC_R_9W3mpX0", "plus_code": {"global_code": "7JWVJ3C4+P7", "compound_code": "J3C4+P7 Delhi, India"}, "vicinity": "India", "photos": [{"photo_reference": "ATtYBwIPpgbHMK2sz9TbOEd3grvQk_MW1wHLuZbIe-NtR6Q8ii27J7mzesxt3h5lEx-cr5k6TI-Kn2CzM-DiJJFwEV5xourYBnOOJ60KDSzH2qmqTOxlrYqsgCsp0YFr4tcilJJ6BM0ud4jYhCuqFL-ixLhhIn7vyhRQlt7bF__WsA0x93Ks", "width": 3120, "html_attributions": ["<a href=\"https://maps.google.com/maps/contrib/106940113078282584761\">Bhanu Pratap Mudgal</a>"], "height": 4160}], "scope": "GOOGLE", "business_status": "OPERATIONAL", "types": ["bus_station", "transit_station", "point_of_interest", "establishment"], "icon": "https://maps.gstatic.com/mapfiles/place_api/icons/v1/png_71/bus-71.png"}, {"rating": 3.5, "user_ratings_total": 8, "name": "Uttam Nagar West Metro Station", "reference": "ChIJg7P9mycFDTkRoXpuvwOF6pY", "geometry": {"location": {"lat": 28.6217546, "lng": 77.05537749999999}, "viewport": {"northeast": {"lat": 28.6229437802915, "lng": 77.0568412302915}, "southwest": {"lat": 28.6202458197085, "lng": 77.05414326970849}}}, "place_id": "ChIJg7P9mycFDTkRoXpuvwOF6pY", "plus_code": {"global_code": "7JWVJ3C4+P5", "compound_code": "J3C4+P5 Delhi, India"}, "vicinity": "India", "photos": [{"photo_reference": "ATtYBwJ52XbxOS74u1hc0_nwESNRnpzWweQjfZxSaKE9NFEMx-_iusFYmUnahM2iEb4HiULEr8XkQR1EPXI_Y33FruH0AhpyDPUtezQQ-JGuzKmj677RkcKThMMz9yZ4wGtYG02UFGuJIt0XyaIz-WIBFqSiNP05fj3Gtx_ivpkDMH6VmlAE", "width": 514, "html_attributions": ["<a href=\"https://maps.google.com/maps/contrib/100911712069105712778\">Shreejan Astro Center NK</a>"], "height": 381}], "scope": "GOOGLE", "business_status": "OPERATIONAL", "types": ["bus_station", "transit_station", "point_of_interest", "establishment"], "icon": "https://maps.gstatic.com/mapfiles/place_api/icons/v1/png_71/bus-71.png"}, {"rating": 3.4, "user_ratings_total": 23, "name": "Uttam Nagar Terminal", "reference": "ChIJwYTdfNsEDTkRbhuG78Tbdes", "geometry": {"location": {"lat": 28.625632, "lng": 77.065512}, "viewport": {"northeast": {"lat": 28.6267206802915, "lng": 77.0669977302915}, "southwest": {"lat": 28.6240227197085, "lng": 77.0642997697085}}}, "place_id": "ChIJwYTdfNsEDTkRbhuG78Tbdes", "plus_code": {"global_code": "7JWVJ3G8+76", "compound_code": "J3G8+76 Delhi, India"}, "vicinity": "India", "photos": [{"photo_reference": "ATtYBwJveQgy2A2kif81QSoFoyYJbU4fnmv6Ss0U7fFLeAULxuMRXd_HqVhhIHTAoaRYjhpzOLICKh_4WSIRPTSerwjVX64wOvT6qee2mq0NAPHpdiSExAQuPWCZm5G4exc_RFVa_UOz1GNWaWDTskSsgDbljU02DckeQvfhPFLbU-fvXARG", "width": 1920, "html_attributions": ["<a href=\"https://maps.google.com/maps/contrib/102753714244916434607\">Sudhanshu roy</a>"], "height": 1080}], "scope": "GOOGLE", "business_status": "OPERATIONAL", "types": ["bus_station", "transit_station", "point_of_interest", "establishment"], "icon": "https://maps.gstatic.com/mapfiles/place_api/icons/v1/png_71/bus-71.png"}, {"rating": 4.2, "user_ratings_total": 62, "name": "Nawada Metro Station", "reference": "ChIJM4IkMSUFDTkR_EVhzI0MqFw", "geometry": {"location": {"lat": 28.620237, "lng": 77.04552199999999}, "viewport": {"northeast": {"lat": 28.6216120302915, "lng": 77.0468672302915}, "southwest": {"lat": 28.6189140697085, "lng": 77.04416926970848}}}, "place_id": "ChIJM4IkMSUFDTkR_EVhzI0MqFw", "plus_code": {"global_code": "7JWVJ2CW+36", "compound_code": "J2CW+36 Delhi, India"}, "vicinity": "India", "photos": [{"photo_reference": "ATtYBwJ951Yd-WJxHoZ1rEiCuO4jseCW-LynQxEwkV__A7aiHEl_9xNP7nby2K2jIblnWnG8Oj5wXmRAQuH0cZnqu4KZ86fZpB7LvERosvElpJJIXlvHvBbpQFHpY2rky_AM5GwNEKS-doctKcajBDRBs9_emoQZk2Jg2Uy8OxnHTUFl32eI", "width": 4000, "html_attributions": ["<a href=\"https://maps.google.com/maps/contrib/103672929256718431746\">sanjeev kumar</a>"], "height": 2250}], "scope": "GOOGLE", "business_status": "OPERATIONAL", "types": ["bus_station", "transit_station", "point_of_interest", "establishment"], "icon": "https://maps.gstatic.com/mapfiles/place_api/icons/v1/png_71/bus-71.png"}, {"name": "Uttam Nagar East (Aakash Institute)", "reference": "ChIJT-L8pcQEDTkRxtrlXLQWR5w", "geometry": {"location": {"lat": 28.6259269, "lng": 77.0687159}, "viewport": {"northeast": {"lat": 28.6272838802915, "lng": 77.07006163029149}, "southwest": {"lat": 28.62458591970849, "lng": 77.06736366970848}}}, "place_id": "ChIJT-L8pcQEDTkRxtrlXLQWR5w", "plus_code": {"global_code": "7JWVJ3G9+9F", "compound_code": "J3G9+9F Delhi, India"}, "vicinity": "India", "scope": "GOOGLE", "business_status": "OPERATIONAL", "types": ["bus_station", "transit_station", "point_of_interest", "establishment"], "icon": "https://maps.gstatic.com/mapfiles/place_api/icons/v1/png_71/bus-71.png"}, {"rating": 5, "user_ratings_total": 1, "name": "DTC Uttam Nagar Terminal", "reference": "ChIJXXvC8TgFDTkRPmv8D69q5kw", "geometry": {"location": {"lat": 28.6208602, "lng": 77.03530959999999}, "viewport": {"northeast": {"lat": 28.62221128029151, "lng": 77.0366942802915}, "southwest": {"lat": 28.6195133197085, "lng": 77.03399631970848}}}, "place_id": "ChIJXXvC8TgFDTkRPmv8D69q5kw", "plus_code": {"global_code": "7JWVJ2CP+84", "compound_code": "J2CP+84 New Delhi, Delhi, India"}, "vicinity": "Shivaji Marg, Hastsal, New Delhi", "scope": "GOOGLE", "business_status": "OPERATIONAL", "types": ["bus_station", "transit_station", "point_of_interest", "establishment"], "icon": "https://maps.gstatic.com/mapfiles/place_api/icons/v1/png_71/bus-71.png"}]}