{"status": "OK", "html_attributions": [], "results": [{"rating": 3.6, "user_ratings_total": 20, "name": "Rohini Depot-II", "reference": "ChIJ4cj9mD8BDTkRnS3r-Jk9oSA", "geometry": {"location": {"lat": 28.729896, "lng": 77.121825}, "viewport": {"northeast": {"lat": 28.7312244302915, "lng": 77.1231553302915}, "southwest": {"lat": 28.7285264697085, "lng": 77.12045736970849}}}, "place_id": "ChIJ4cj9mD8BDTkRnS3r-Jk9oSA", "plus_code": {"global_code": "7JWVP4HC+XP", "compound_code": "P4HC+XP New Delhi, Delhi, India"}, "vicinity": "Doctor KN Katju Marg, Block G-3, Sector 16, Rohini, New Delhi", "photos": [{"photo_reference": "ATtYBwJGkvF-84ShSl9buF7xVcBYGj0xLQuiJht2xMNsV2zuw07eXSUgFs_XBeCrYzx3tal51A1ff0DgFGxZf8TY_Wozwy4giaNsIavnlROJBbOqClpc8Qg7XPfIfyhcgiIdv6nm598xjMEY3IJhLW8L4lZ96M-1CcrGYhs5o7kCdvwJraK0", "width": 3328, "html_attributions": ["<a href=\"https://maps.google.com/maps/contrib/100790961062408944005\">dragon emperor man</a>"], "height": 1872}], "scope": "GOOGLE", "business_status": "OPERATIONAL", "types": ["bus_station", "transit_station", "point_of_interest", "establishment"], "icon": "https://maps.gstatic.com/mapfiles/place_api/icons/v1/png_71/bus-71.png"}, {"rating": 4.4, "user_ratings_total": 35, "name": "Rohini West Metro Station", "reference": "ChIJb1OUk1oBDTkR-zeiFXzd1gM", "geometry": {"location": {"lat": 28.7152443, "lng": 77.11514129999999}, "viewport": {"northeast": {"lat": 28.7166044802915, "lng": 77.1165005802915}, "southwest": {"lat": 28.7139065197085, "lng": 77.1138026197085}}}, "place_id": "ChIJb1OUk1oBDTkR-zeiFXzd1gM", "plus_code": {"global_code": "7JWVP488+33", "compound_code": "P488+33 Delhi, India"}, "vicinity": "India", "photos": [{"photo_reference": "ATtYBwKF4_OEz4Dr6TNK5WAzvlltMOXuvuAnZqrB5io1eUzPEuDQe2XIj0hnc-GyyaBOj7W5eXVqXkKoQuWPN0ZJPiZfhGu3FEVEpmtkBZp4ibTODL3SwNpJtKSIxh2i78vmOFjfBH1Pe_jfMu8N_6p7WGGaiMf3baSEAqm7tiVhBXOc1a0C", "width": 4160, "html_attributions": ["<a href=\"https://maps.google.com/maps/contrib/110062420727708469815\">Vaibhav Garg</a>"], "height": 3120}], "scope": "GOOGLE", "business_status": "OPERATIONAL", "types": ["bus_station", "transit_station", "point_of_interest", "establishment"], "icon": "https://maps.gstatic.com/mapfiles/place_api/icons/v1/png_71/bus-71.png"}, {"rating": 4.1, "user_ratings_total": 13, "name": "Rohini West Metro Station", "reference": "ChIJ60v5oloBDTkRZEH_eh2oz-A", "geometry": {"location": {"lat": 28.7154054, "lng": 77.11455579999999}, "viewport": {"northeast": {"lat": 28.7167409802915, "lng": 77.11589253029149}, "southwest": {"lat": 28.7140430197085, "lng": 77.11319456970848}}}, "place_id": "ChIJ60v5oloBDTkRZEH_eh2oz-A", "plus_code": {"global_code": "7JWVP487+5R", "compound_code": "P487+5R Delhi, India"}, "vicinity": "India", "photos": [{"photo_reference": "ATtYBwJjC7JXqJJuyShiu34X5wF5jY9Udz7hJ8dyBgAUaR_hLrGaTIt8yNizauu84oS2kWdoOjgMHHO2WzejvGFOn8PVLjtnp8146zqDnBQgBrYP17MwlnN0r_CiC7lZr1iCdq--ShBoFGa41v7hEbmPIlOAZx7cKvP535IfWp9EJKH27i83", "width": 4160, "html_attributions": ["<a href=\"https://maps.google.com/maps/contrib/107954062317585368304\">Jitendra Kumar Sharma</a>"], "height": 3120}], "scope": "GOOGLE", "business_status": "OPERATIONAL", "types": ["bus_station", "transit_station", "point_of_interest", "establishment"], "icon": "https://maps.gstatic.com/mapfiles/place_api/icons/v1/png_71/bus-71.png"}, {"name": "Rohini West Metro Station", "reference": "ChIJERFmo1oBDTkRRkfINXHunI0", "geometry": {"location": {"lat": 28.715572, "lng": 77.114609}, "viewport": {"northeast": {"lat": 28.71691703029149, "lng": 77.11595438029151}, "southwest": {"lat": 28.71421906970849, "lng": 77.1132564197085}}}, "place_id": "ChIJERFmo1oBDTkRRkfINXHunI0", "plus_code": {"global_code": "7JWVP487+6R", "compound_code": "P487+6R Delhi, India"}, "vicinity": "India", "photos": [{"photo_reference": "ATtYBwJCREUaQu32KkdUO0ra1usPgPty9dMcO_V0CX_0yb1K7MkBVqJ8GmkVW4TFjswgdynlGhNXCp_U7l30pVddRCknuHQEX8AGrI6PgZGfspsfOtygBAbTrdSf6brgWHSyyGe6rn3yGqMLqQ2NCJxUR-IePJt1mQuUgJ_HgndyZ9xHmV_n", "width": 4928, "html_attributions": ["<a href=\"https://maps.google.com/maps/contrib/114754091124761744850\">Rippy Bedi</a>"], "height": 3136}], "scope": "GOOGLE", "business_status": "OPERATIONAL", "types": ["bus_station", "transit_station", "point_of_interest", "establishment"], "icon": "https://maps.gstatic.com/mapfiles/place_api/icons/v1/png_71/bus-71.png"}, {"rating": 3.1, "user_ratings_total": 7, "name": "Rithala Metro Station", "reference": "ChIJNagMg04BDTkREzVmi4awhJk", "geometry": {"location": {"lat": 28.7196137, "lng": 77.1085283}, "viewport": {"northeast": {"lat": 28.7209882802915, "lng": 77.1098997802915}, "southwest": {"lat": 28.7182903197085, "lng": 77.1072018197085}}}, "place_id": "ChIJNagMg04BDTkREzVmi4awhJk", "plus_code": {"global_code": "7JWVP495+RC", "compound_code": "P495+RC New Delhi, Delhi, India"}, "vicinity": "Bhagawan Mahavir Marg, Rohini Institutional Area, Sector 10, Rohini, New Delhi", "scope": "GOOGLE", "business_status": "OPERATIONAL", "types": ["bus_station", "transit_station", "point_of_interest", "establishment"], "icon": "https://maps.gstatic.com/mapfiles/place_api/icons/v1/png_71/bus-71.png"}, {"rating": 3.9, "user_ratings_total": 90, "name": "Rithala Metro Station", "reference": "ChIJq21Om04BDTkRcvj6fjA-6s4", "geometry": {"location": {"lat": 28.71977800000001, "lng": 77.10867}, "viewport": {"northeast": {"lat": 28.72112903029149, "lng": 77.1100208802915}, "southwest": {"lat": 28.7184310697085, "lng": 77.1073229197085}}}, "place_id": "ChIJq21Om04BDTkRcvj6fjA-6s4", "plus_code": {"global_code": "7JWVP495+WF", "compound_code": "P495+WF New Delhi, Delhi, India"}, "vicinity": "Rohini Institutional Area, Sector 5, Rohini, New Delhi", "photos": [{"photo_reference": "ATtYBwKZKMYPZMzBcjxOS-XW_YD2V0UYXc182eKJVfBs7Efd61W_zc97TIjzfrmgDJJf7jqJ4qSE2fWm_xhdP1WsNPw3LCqx-mk8DE2V1-mQb5BF4_DcHVAyox0M44Je-OOB7wcgnDcYyvPJAdCRqt71ci2L27xVpYCSORQ_3V1joHjUTdNP", "width": 4160, "html_attributions": ["<a href=\"https://maps.google.com/maps/contrib/101458534878837999208\">sushil Kumar</a>"], "height": 3120}], "scope": "GOOGLE", "business_status": "OPERATIONAL", "types": ["bus_station", "transit_station", "point_of_interest", "establishment"], "icon": "https://maps.gstatic.com/mapfiles/place_api/icons/v1/png_71/bus-71.png"}, {"rating": 4.1, "user_ratings_total": 19, "name": "Rithala Metro Station", "reference": "ChIJQYClEUwBDTkRfG8bX2aRc9I", "geometry": {"location": {"lat": 28.720816, "lng": 77.1072804}, "viewport": {"northeast": {"lat": 28.7220314802915, "lng": 77.10901063029151}, "southwest": {"lat": 28.7193335197085, "lng": 77.10631266970849}}}, "place_id": "ChIJQYClEUwBDTkRfG8bX2aRc9I", "plus_code": {"global_code": "7JWVP4C4+8W", "compound_code": "P4C4+8W Delhi, India"}, "vicinity": "India", "photos": [{"photo_reference": "ATtYBwL02PAg_dH8hCjOTd0W4jLVpby46tvsyjR45EWGIijwhQaciStlkajSerf7ZasZg7AthdmbLDb98vdDDjkNMZh4N5-PsktLg4Tmj_Aa7gcmP4vuq18so8qbVQEWBhzXT8_0sSXDSUw7dN_io_YdocX_CgUu539LIt98yD7srKP_GG_f", "width": 3840, "html_attributions": ["<a href=\"https://maps.google.com/maps/contrib/103786908001926863762\">Vivek Anand</a>"], "height": 2160}], "scope": "GOOGLE", "business_status": "OPERATIONAL", "types": ["bus_station", "transit_station", "point_of_interest", "establishment"], "icon": "https://maps.gstatic.com/mapfiles/place_api/icons/v1/png_71/bus-71.png"}, {"rating": 3.8, "user_ratings_total": 4, "name": "Rohini East Metro Station", "reference": "ChIJE0v-2l8BDTkRMfZU4meVkb8", "geometry": {"location": {"lat": 28.70820059999999, "lng": 77.1249544}, "viewport": {"northeast": {"lat": 28.70953713029149, "lng": 77.12629198029151}, "southwest": {"lat": 28.7068391697085, "lng": 77.12359401970849}}}, "place_id": "ChIJE0v-2l8BDTkRMfZU4meVkb8", "plus_code": {"global_code": "7JWVP45F+7X", "compound_code": "P45F+7X Delhi, India"}, "vicinity": "India", "photos": [{"photo_reference": "ATtYBwLHWXgX31mO1co6Iw2sS-2nxPxKgOK7oatWqLvbRGcPkH_svdOpuioh6vKw4beejP00NAKGY0TEY8pB55JYFx7EukLtllCagWgp-b6tkEnWzdZnXu09OVQsQPPAgoXS33caQZIyiXsMtpOzdoxG5Tbx_azuVVJEL6yLidFG-A5uz-BA", "width": 3024, "html_attributions": ["<a href=\"https://maps.google.com/maps/contrib/109447788635658160319\">Amit Nagpal</a>"], "height": 4032}], "scope": "GOOGLE", "business_status": "OPERATIONAL", "types": ["bus_station", "transit_station", "point_of_interest", "establishment"], "icon": "https://maps.gstatic.com/mapfiles/place_api/icons/v1/png_71/bus-71.png"}, {"rating": 4, "user_ratings_total": 7, "name": "Rithala Metro Station Bus Stop", "reference": "ChIJqVQed0sBDTkRe6VTrDLAZ8Q", "geometry": {"location": {"lat": 28.722386, "lng": 77.105109}, "viewport": {"northeast": {"lat": 28.7237691802915, "lng": 77.10648933029151}, "southwest": {"lat": 28.7210712197085, "lng": 77.10379136970849}}}, "place_id": "ChIJqVQed0sBDTkRe6VTrDLAZ8Q", "plus_code": {"global_code": "7JWVP4C4+X2", "compound_code": "P4C4+X2 New Delhi, Delhi, India"}, "vicinity": "Bhagawan Mahavir Marg, Rithala Extension, Rithala, Rohini, New Delhi", "photos": [{"photo_reference": "ATtYBwL0FPkSl6Cun1KLXLHBNuBcNqVVV-mcmextSO-cPq-mDom9nqiarLdCqZGTk9v5CdofHN7YDbeGQ-1h6gWTPjEFhN3lHx34rJ-pSSG9gPbRag04gWRoQNQLfDNudXhdQOq-Qq8_BHYCW-4rLu6E0_2gk6251oJTc68ZZOxUetrpmnDR", "width": 1280, "html_attributions": ["<a href=\"https://maps.google.com/maps/contrib/114033165504061831992\">Siddharth Das</a>"], "height": 720}], "scope": "GOOGLE", "business_status": "OPERATIONAL", "types": ["bus_station", "transit_station", "point_of_interest", "establishment"], "icon": "https://maps.gstatic.com/mapfiles/place_api/icons/v1/png_71/bus-71.png"}, {"rating": 4.1, "user_ratings_total": 36, "name": "Rohini East Metro Station", "reference": "ChIJuRWsDGABDTkR3Rxbv2UIrS0", "geometry": {"location": {"lat": 28.7076201, "lng": 77.1259699}, "viewport": {"northeast": {"lat": 28.7087840802915, "lng": 77.12738548029151}, "southwest": {"lat": 28.7060861197085, "lng": 77.1246875197085}}}, "place_id": "ChIJuRWsDGABDTkR3Rxbv2UIrS0", "plus_code": {"global_code": "7JWVP45G+29", "compound_code": "P45G+29 Delhi, India"}, "vicinity": "India", "photos": [{"photo_reference": "ATtYBwJGJR4F9BFYAww31LEAwJaTZ3grYNNDHFDqbTx-yt9cEa3vIAYOWiALdWRrnU-shFUCWhlDwNeoDYc3cttci4vK_irPOaJ2fYmzGslns_6t56bNP-loeeY6ZjEDTFi-AAPS0JbfS0R3NB8VDI_gis6x6dX03n-c4rkK9TZZv6jp8C8m", "width": 4000, "html_attributions": ["<a href=\"https://maps.google.com/maps/contrib/106845761162992028629\">Efrah Noor</a>"], "height": 3000}], "scope": "GOOGLE", "business_status": "OPERATIONAL", "types": ["bus_station", "transit_station", "point_of_interest", "establishment"], "icon": "https://maps.gstatic.com/mapfiles/place_api/icons/v1/png_71/bus-71.png"}, {"rating": 3.5, "user_ratings_total": 4, "name": "Fire Station Rohini Sector-8", "reference": "ChIJq2rUFmABDTkRiRbzAUu_mjs", "geometry": {"location": {"lat": 28.7072247, "lng": 77.1267369}, "viewport": {"northeast": {"lat": 28.7085467302915, "lng": 77.1280600302915}, "southwest": {"lat": 28.7058487697085, "lng": 77.12536206970849}}}, "place_id": "ChIJq2rUFmABDTkRiRbzAUu_mjs", "plus_code": {"global_code": "7JWVP44G+VM", "compound_code": "P44G+VM Delhi, India"}, "vicinity": "India", "photos": [{"photo_reference": "ATtYBwJM2KDBvD75zk5w0hptmG1odiUHE8Y6AvDJ0oSALq3ED62SgrgaQ3Gh7IbQfiwX8aVYaTxQ9OWSks3JWoRxld-eBGHV3jFNdd1z9jJ0WjOcl9In2kMLsydTV23hzToofm44RIDt_RPu1KGeHzzPVXrPS69T9ZY316KThY3fJXc-Q3Ka", "width": 3096, "html_attributions": ["<a href=\"https://maps.google.com/maps/contrib/101016344108666028421\">Tashmeet Singh</a>"], "height": 4128}], "scope": "GOOGLE", "business_status": "OPERATIONAL", "types": ["bus_station", "transit_station", "point_of_interest", "establishment"], "icon": "https://maps.gstatic.com/mapfiles/place_api/icons/v1/png_71/bus-71.png"}, {"rating": 3.3, "user_ratings_total": 3, "name": "Fire Station Rohini Sector-8", "reference": "ChIJRYSDGWABDTkRwb4TJwzRkQs", "geometry": {"location": {"lat": 28.706942, "lng": 77.126616}, "viewport": {"northeast": {"lat": 28.70831478029149, "lng": 77.1279864802915}, "southwest": {"lat": 28.7056168197085, "lng": 77.12528851970849}}}, "place_id": "ChIJRYSDGWABDTkRwb4TJwzRkQs", "plus_code": {"global_code": "7JWVP44G+QJ", "compound_code": "P44G+QJ Delhi, India"}, "vicinity": "India", "photos": [{"photo_reference": "ATtYBwJC7C89qKxpeKbjNoDAQme1FVgOpOZiwELLHydxayFqsJNzdAhXVUh5ivnRHMFloW-lnsgM-z3dYeI_E82lIg0oE8YkWrYkEKpNmo3MNJSyDSbMkoXhPuyjQp6DMczaRFYdpQXCuB3ECYfoj3NZo3-A7qt896hNW8d7eBL4t1cgYkBh", "width": 2128, "html_attributions": ["<a href=\"https://maps.google.com/maps/contrib/103087610927501295288\">Rajneesh Vohra</a>"], "height": 4608}], "scope": "GOOGLE", "business_status": "OPERATIONAL", "types": ["bus_station", "transit_station", "point_of_interest", "establishment"], "icon": "https://maps.gstatic.com/mapfiles/place_api/icons/v1/png_71/bus-71.png"}, {"rating": 4.2, "user_ratings_total": 20, "name": "Saraswati Vihar", "reference": "ChIJx5XGU-cDDTkRvKUqxZxUhoM", "geometry": {"location": {"lat": 28.7001817, "lng": 77.12484789999999}, "viewport": {"northeast": {"lat": 28.7015125802915, "lng": 77.12623293029151}, "southwest": {"lat": 28.6988146197085, "lng": 77.12353496970849}}}, "place_id": "ChIJx5XGU-cDDTkRvKUqxZxUhoM", "plus_code": {"global_code": "7JWVP42F+3W", "compound_code": "P42F+3W Delhi, India"}, "vicinity": "Outer Ring Road, Pocket 5, Sector 8B, Pitampura, New Delhi", "photos": [{"photo_reference": "ATtYBwIPdGinAKYXI1Y2Zj5FbdYa2aOSjooMIR5B6UpAOBFbikrNnsZjQ3AnhFzDcMgKz2ZJRHE5f478teDdDKCo2259doc4klsOrKwMPya3GtCOJbnn7JZbQ4vB7FDQmTT8rqV4br79Ja22rJ2m6iJF-qVofkNWWSurVMuy7DNYoPHn9Lpd", "width": 1920, "html_attributions": ["<a href=\"https://maps.google.com/maps/contrib/114754091124761744850\">Rippy Bedi</a>"], "height": 1051}], "scope": "GOOGLE", "business_status": "OPERATIONAL", "types": ["bus_station", "transit_station", "point_of_interest", "establishment"], "icon": "https://maps.gstatic.com/mapfiles/place_api/icons/v1/png_71/bus-71.png"}, {"rating": 5, "user_ratings_total": 3, "name": "Saraswati Vihar", "reference": "ChIJUeYr_90DDTkRg52y6ChuNJ8", "geometry": {"location": {"lat": 28.7000261, "lng": 77.1253049}, "viewport": {"northeast": {"lat": 28.7014382302915, "lng": 77.1266147302915}, "southwest": {"lat": 28.69874026970851, "lng": 77.12391676970849}}}, "place_id": "ChIJUeYr_90DDTkRg52y6ChuNJ8", "plus_code": {"global_code": "7JWVP42G+24", "compound_code": "P42G+24 New Delhi, Delhi, India"}, "vicinity": "Service Road, Block C, Saraswati Vihar, Pitam Pura, New Delhi", "photos": [{"photo_reference": "ATtYBwLUaUT6YJErHEbO8P5hfXyKjI7xjxGaU8KWUDJeC5bIwh4A4C0-uoz2LFUQRAYakkM_cAtPp1Nupi3Ub10RcjlbxA_oe1wiI0IDC-3TkzKJznFSoA7iguhWaTGRz2u-YRPpMiOifYEoTFL8Ij2BYrH3-4aB91UkdAIUkk0TGtWSWCDS", "width": 1920, "html_attributions": ["<a href=\"https://maps.google.com/maps/contrib/114754091124761744850\">Rippy Bedi</a>"], "height": 1051}], "scope": "GOOGLE", "business_status": "OPERATIONAL", "types": ["bus_station", "transit_station", "point_of_interest", "establishment"], "icon": "https://maps.gstatic.com/mapfiles/place_api/icons/v1/png_71/bus-71.png"}, {"rating": 5, "user_ratings_total": 1, "name": "Alok Kunj Bus Stop Sector 15 Rohini", "reference": "ChIJ70LMaGsBDTkRspKXVP3tmAk", "geometry": {"location": {"lat": 28.72789389999999, "lng": 77.130421}, "viewport": {"northeast": {"lat": 28.72924113029149, "lng": 77.13177253029151}, "southwest": {"lat": 28.7265431697085, "lng": 77.1290745697085}}}, "place_id": "ChIJ70LMaGsBDTkRspKXVP3tmAk", "plus_code": {"global_code": "7JWVP4HJ+55", "compound_code": "P4HJ+55 Delhi, India"}, "vicinity": "India", "photos": [{"photo_reference": "ATtYBwJxmi-0BGyb8cvV6wC7KiYRxlJzgF4XZamW7R_3_zC6rC77YID89MR-h-N3NW-qqnjIH9qUVNipmD2Ks7V139iAVDe_Z7YJVcuU4FeapsQGpF2jbJVF2PX4jDbVKpVedN89QIDuEIPD_xK99gY9xyZ_Hs9HVcuUPcarw8RAPh5TYJYa", "width": 4608, "html_attributions": ["<a href=\"https://maps.google.com/maps/contrib/103087610927501295288\">Rajneesh Vohra</a>"], "height": 3456}], "scope": "GOOGLE", "business_status": "OPERATIONAL", "types": ["bus_station", "transit_station", "point_of_interest", "establishment"], "icon": "https://maps.gstatic.com/mapfiles/place_api/icons/v1/png_71/bus-71.png"}, {"rating": 3.9, "user_ratings_total": 30, "name": "Pitampura Metro Station", "reference": "ChIJE4noL9kDDTkR0LCALFFvGuQ", "geometry": {"location": {"lat": 28.7035103, "lng": 77.13211059999999}, "viewport": {"northeast": {"lat": 28.7048653302915, "lng": 77.13346393029151}, "southwest": {"lat": 28.7021673697085, "lng": 77.13076596970849}}}, "place_id": "ChIJE4noL9kDDTkR0LCALFFvGuQ", "plus_code": {"global_code": "7JWVP43J+CR", "compound_code": "P43J+CR Delhi, India"}, "vicinity": "India", "photos": [{"photo_reference": "ATtYBwI4vE3lkplr-w7zKZINBjuK-azlYrqTpw0Bh1jy6cIjtiAhtMGdkJvr37cr-sErqPHssw2YE_flz_-vT9ywxRkve_MkyHrrk_kxMjlKeYcN6wxvmmjf4M-pfFkVHKsUuim8GPqZb5HJIz717uvKoXf3oaXULWmLhN-0hFblJmbNWWYs", "width": 3096, "html_attributions": ["<a href=\"https://maps.google.com/maps/contrib/106149684046368255684\">nifty insight</a>"], "height": 4128}], "scope": "GOOGLE", "business_status": "OPERATIONAL", "types": ["bus_station", "transit_station", "point_of_interest", "establishment"], "icon": "https://maps.gstatic.com/mapfiles/place_api/icons/v1/png_71/bus-71.png"}, {"rating": 4.3, "user_ratings_total": 3, "name": "Pitampura Metro Station (Opposite)", "reference": "ChIJ--5WJdkDDTkRoxe6IbcUmOU", "geometry": {"location": {"lat": 28.7033503, "lng": 77.13199259999999}, "viewport": {"northeast": {"lat": 28.7047045302915, "lng": 77.13334613029151}, "southwest": {"lat": 28.7020065697085, "lng": 77.1306481697085}}}, "place_id": "ChIJ--5WJdkDDTkRoxe6IbcUmOU", "plus_code": {"global_code": "7JWVP43J+8Q", "compound_code": "P43J+8Q Delhi, India"}, "vicinity": "India", "photos": [{"photo_reference": "ATtYBwJf9DXfSK-aPZgQIL6T1GH71BhnoTnfuBGHrgWLFYr8zktiLtUVr6TF0lb8nBHcW0G9b51YYsQce4TIPXl9cvwHttczOtJEizklbFy7Sk1GUh-4lztxbaRx-Q3g_OhBffrmcBY1QfFqWzuhjMsfW9TtL0_lPf3KGiDdsAzUbLqhR0r5", "width": 3968, "html_attributions": ["<a href=\"https://maps.google.com/maps/contrib/114754091124761744850\">Rippy Bedi</a>"], "height": 2103}], "scope": "GOOGLE", "business_status": "OPERATIONAL", "types": ["bus_station", "transit_station", "point_of_interest", "establishment"], "icon": "https://maps.gstatic.com/mapfiles/place_api/icons/v1/png_71/bus-71.png"}]}