{"status": "OK", "html_attributions": [], "results": [{"rating": 3.3, "user_ratings_total": 3, "name": "Versova Police Beat House", "reference": "ChIJbYwMFhe25zsRDWAquZHrHnk", "geometry": {"location": {"lat": 19.13921479999999, "lng": 72.823566}, "viewport": {"northeast": {"lat": 19.1405654802915, "lng": 72.82491658029151}, "southwest": {"lat": 19.13786751970849, "lng": 72.82221861970851}}}, "opening_hours": {"open_now": true}, "place_id": "ChIJbYwMFhe25zsRDWAquZHrHnk", "plus_code": {"global_code": "7JFJ4RQF+MC", "compound_code": "4RQF+MC Mumbai, Maharashtra, India"}, "vicinity": "A-801, BMC Road, SV Patel Nagar, Andheri West, Mumbai", "photos": [{"photo_reference": "CmRaAAAAW5dtPVzUZG_8FcWRXXvGurDktG9y_rdIY9qWrf69ACsZaSdPAEqKgirSvSQcTH9noJ0WlOX2TvxUniewsKLkNGWZef4jN2B9MW-K15-z99Tfttz4-I3Tb6umqZ6eMOpXEhAQHUHhC49AA94z5YoNN_R-GhRZL8jTzwocF63cMcwr_p6Z44NHAQ", "width": 4032, "html_attributions": ["<a href=\"https://maps.google.com/maps/contrib/108735675778092861566\">Varun Bhakhri</a>"], "height": 2268}], "scope": "GOOGLE", "business_status": "OPERATIONAL", "types": ["police", "point_of_interest", "establishment"], "icon": "https://maps.gstatic.com/mapfiles/place_api/icons/v1/png_71/police-71.png"}, {"rating": 3.3, "user_ratings_total": 4, "name": "Police Station", "reference": "ChIJ_1Qvrhe25zsRHyKdUSHAsXY", "geometry": {"location": {"lat": 19.1400006, "lng": 72.8256773}, "viewport": {"northeast": {"lat": 19.1413000302915, "lng": 72.8270505302915}, "southwest": {"lat": 19.1386020697085, "lng": 72.8243525697085}}}, "place_id": "ChIJ_1Qvrhe25zsRHyKdUSHAsXY", "plus_code": {"global_code": "7JFJ4RRG+27", "compound_code": "4RRG+27 Mumbai, Maharashtra, India"}, "vicinity": "BIT NO.1,, BIT NO.1, P Tandon Road, Lokhandwala Complex, Andheri West, Mumbai", "photos": [{"photo_reference": "CmRaAAAAqAazoUtEWBnzuKOWmHzPVg3_u8pZ2GOPXzJVhaqnBz9VNZxb1aaSjlmuetqDglHM3zvFfw3vt3fIlqfdh2zp-fTARoS2aPPxCzlEvRgwO4QK9XnQAzpNj3qv3B3k4YDtEhCz2klzzW54UpeMslLnjV5BGhQZ4RxaS71RG5xcu-2GlsKYFSw1sQ", "width": 2496, "html_attributions": ["<a href=\"https://maps.google.com/maps/contrib/106270834871321573934\">Abhay Naidu</a>"], "height": 3812}], "scope": "GOOGLE", "business_status": "OPERATIONAL", "types": ["police", "point_of_interest", "establishment"], "icon": "https://maps.gstatic.com/mapfiles/place_api/icons/v1/png_71/police-71.png"}, {"rating": 5, "user_ratings_total": 4, "name": "Police Officers Progressive Co-operative Housing Society Limited", "reference": "ChIJh1_qcgW25zsRWgi2ecu4G4E", "geometry": {"location": {"lat": 19.135117, "lng": 72.813746}, "viewport": {"northeast": {"lat": 19.13651653029151, "lng": 72.8150650302915}, "southwest": {"lat": 19.1338185697085, "lng": 72.81236706970849}}}, "place_id": "ChIJh1_qcgW25zsRWgi2ecu4G4E", "plus_code": {"global_code": "7JFJ4RP7+2F", "compound_code": "4RP7+2F Mumbai, Maharashtra, India"}, "vicinity": "Police Quaters, Fishries Road, POPCO Colony, Versova, Andheri West, Mumbai", "scope": "GOOGLE", "business_status": "OPERATIONAL", "types": ["premise", "police", "point_of_interest", "establishment"], "icon": "https://maps.gstatic.com/mapfiles/place_api/icons/v1/png_71/geocode-71.png"}, {"name": "Versova Police Beat #2", "reference": "ChIJ_TPEbGW35zsRhsiEbbm0lEk", "geometry": {"location": {"lat": 19.12846039999999, "lng": 72.8169004}, "viewport": {"northeast": {"lat": 19.1298056302915, "lng": 72.8182573302915}, "southwest": {"lat": 19.1271076697085, "lng": 72.81555936970848}}}, "place_id": "ChIJ_TPEbGW35zsRhsiEbbm0lEk", "plus_code": {"global_code": "7JFJ4RH8+9Q", "compound_code": "4RH8+9Q Mumbai, Maharashtra, India"}, "vicinity": "New Alpha Society, Aram Nagar, Andheri West, Mumbai", "scope": "GOOGLE", "business_status": "OPERATIONAL", "types": ["police", "point_of_interest", "establishment"], "icon": "https://maps.gstatic.com/mapfiles/place_api/icons/v1/png_71/police-71.png"}, {"name": "HARBOUR POLICE STATION", "reference": "ChIJVzQTJfO35zsRoYEyu5tFZTA", "geometry": {"location": {"lat": 19.1378901, "lng": 72.8212678}, "viewport": {"northeast": {"lat": 19.1392076802915, "lng": 72.82257423029151}, "southwest": {"lat": 19.1365097197085, "lng": 72.8198762697085}}}, "place_id": "ChIJVzQTJfO35zsRoYEyu5tFZTA", "plus_code": {"global_code": "7JFJ4RQC+5G", "compound_code": "4RQC+5G Andheri West, Mumbai, Maharashtra, India"}, "vicinity": "near ADWANI JUNCTION, MARKET, near SVP NAGAR, Andheri West, KOBBARITHOTA", "scope": "GOOGLE", "business_status": "OPERATIONAL", "types": ["police", "point_of_interest", "establishment"], "icon": "https://maps.gstatic.com/mapfiles/place_api/icons/v1/png_71/police-71.png"}]}