{"status": "OK", "next_page_token": "ATtYBwLY-hyhiAk_R4yo2SFXZEl7wmkALrTofr_ebWNX2TC-GNqKyEBz2EZbCv5wEbcr4N_jlnEotAeNmA-Lb7DqVl0SaF3f8XjLKTbpjbnnNydcAyNUfyMLD24i4sDBqImLX3royQl1EAR2nmReVrlKmZLbg0zaDqRgBNGVqzmSVxVI2crAmWTXeHslIO70bMSPHkcELLnVWd6_4VKvFcxSHtlmEqDokjLsd33qZCeRN4dlmVYVltkfBP4kshLFY6PnewbgNohoXURF7xVzFWoscmdC3jCAMlmDYxczUEisr0iOY2WcvHxv4GxV2Pm3uVuadGdLmU4ceFrWQ9IlQevvihgnQlqNyB-6mho8n17kfvHMDPvrPCAkp21f_KTFDl7UDHRB3AZsRDi29Tox2uma-u88MGXq3a2fE6tJQ_jxgvDmXuADLC0", "html_attributions": [], "results": [{"rating": 4.9, "user_ratings_total": 20, "permanently_closed": true, "name": "Time Kids", "reference": "ChIJVT4T-HR6rjsRWRpJ8NKBQWs", "geometry": {"location": {"lat": 12.7036369, "lng": 77.8108792}, "viewport": {"northeast": {"lat": 12.7050694802915, "lng": 77.8124163302915}, "southwest": {"lat": 12.7023715197085, "lng": 77.80971836970849}}}, "place_id": "ChIJVT4T-HR6rjsRWRpJ8NKBQWs", "plus_code": {"global_code": "7J4VPR36+F9", "compound_code": "PR36+F9 Mathigiri, Tamil Nadu, India"}, "vicinity": "opp. Kutty's Frozen Food, No. 204/206, Attibele Road, HCF Post, Mathigiri Cross Road, Near RTO Office, opp. Kutty's Frozen Food, Mathigiri", "photos": [{"photo_reference": "ATtYBwKBU3onG_ldx4QVVJbjybzUE9mHsexmN8O1qWaOH6Dg_AQW5rIzKTuCPz-SVKv01zOWi-rq3fMx9SOa1jCnQP5kzk-ehzhp4zw7sKTbjTY1ATrEFtb73sXKeTFmK56bwpBdXxHlG7ych9pUzEfICjEVohFiWwI0dCYTkDcpEN-BfN6n", "width": 641, "html_attributions": ["<a href=\"https://maps.google.com/maps/contrib/114011340010453883129\">Time Kids</a>"], "height": 359}], "scope": "GOOGLE", "business_status": "CLOSED_TEMPORARILY", "types": ["school", "point_of_interest", "establishment"], "icon": "https://maps.gstatic.com/mapfiles/place_api/icons/v1/png_71/school-71.png"}, {"rating": 4.5, "user_ratings_total": 17, "name": "Parimalam Matric Higher Sec School, Dinnur - Hosur", "reference": "ChIJrXT__qBwrjsRrmyzx2GRY_Y", "geometry": {"location": {"lat": 12.7094266, "lng": 77.81677359999999}, "viewport": {"northeast": {"lat": 12.7108098802915, "lng": 77.8181341302915}, "southwest": {"lat": 12.7081119197085, "lng": 77.81543616970848}}}, "place_id": "ChIJrXT__qBwrjsRrmyzx2GRY_Y", "plus_code": {"global_code": "7J4VPR58+QP", "compound_code": "PR58+QP Hosur, Tamil Nadu, India"}, "vicinity": "Parimalam Matric Higher Sec School, Denkanikottai Road, Dinnur, Hosur", "photos": [{"photo_reference": "ATtYBwKV0IEVJTW9qTv3PjI1_FGwRq1CcW1qWqBaCzZWnmBUNDGmyvVzwYBubk_STVE5J0qc980Z32OOEqk9WUTwbduiu6LoKPu4OoqPvdXxh7gJt9yr0TLzXVbl975p8LOnj5OR2cz2FnjmlNQNCb0j1SIl61siv-mzlHLHV7UBhpELjZp-", "width": 2104, "html_attributions": ["<a href=\"https://maps.google.com/maps/contrib/111658346758267997865\">Parimalam Matric Higher Sec School, Dinnur - Hosur</a>"], "height": 820}], "scope": "GOOGLE", "business_status": "OPERATIONAL", "types": ["school", "point_of_interest", "establishment"], "icon": "https://maps.gstatic.com/mapfiles/place_api/icons/v1/png_71/school-71.png"}, {"name": "Konakka Maram Konnaka", "reference": "ChIJlx8M8JlwrjsRsj-DtXpu2BE", "geometry": {"location": {"lat": 12.7168426, "lng": 77.80878369999999}, "viewport": {"northeast": {"lat": 12.7181850802915, "lng": 77.81009718029149}, "southwest": {"lat": 12.7154871197085, "lng": 77.80739921970849}}}, "opening_hours": {"open_now": true}, "place_id": "ChIJlx8M8JlwrjsRsj-DtXpu2BE", "plus_code": {"global_code": "7J4VPR85+PG", "compound_code": "PR85+PG Hosur, Tamil Nadu, India"}, "vicinity": "29/2, Lake Avenue, H.C.F, SBM Colony, Anthivadi, Hosur, Tamil Nadu 635110, Lake Avenue, H.C.F, SBM Colony, Anthivadi, Hosur", "scope": "GOOGLE", "business_status": "OPERATIONAL", "types": ["school", "point_of_interest", "establishment"], "icon": "https://maps.gstatic.com/mapfiles/place_api/icons/v1/png_71/school-71.png"}, {"rating": 3.9, "user_ratings_total": 57, "permanently_closed": true, "name": "Sri Chaitanya school", "reference": "ChIJqZVxRqFwrjsR4KEW_ZJ3Yvg", "geometry": {"location": {"lat": 12.7112291, "lng": 77.81999809999999}, "viewport": {"northeast": {"lat": 12.7125793802915, "lng": 77.82118468029151}, "southwest": {"lat": 12.70988141970849, "lng": 77.81848671970849}}}, "place_id": "ChIJqZVxRqFwrjsR4KEW_ZJ3Yvg", "plus_code": {"global_code": "7J4VPR69+FX", "compound_code": "PR69+FX Hosur, Tamil Nadu, India"}, "vicinity": "behind HR Super Market, Survey No: 116/2, Dinnur Bus Stop, behind HR Super Market, Denkanikotta Road, Hosur", "photos": [{"photo_reference": "ATtYBwI83ROkB8uCXx8C1RYQrBYrsHPm8ESEkxkZ4tC1aqsdEleACbykDcXcs0t5mL8mGQcdapCa78Mso1Uobxdri3NpY9jcF99uliQlqb_4HdPlLErjowJZs6Gp6EiX1LPskWP5tEQSX7hDUhKDq68ZHsHhGFsSYj1nhcom7EpydiVMqqif", "width": 4160, "html_attributions": ["<a href=\"https://maps.google.com/maps/contrib/105354663458651824773\">Sri Chaitanya school</a>"], "height": 3120}], "scope": "GOOGLE", "business_status": "CLOSED_TEMPORARILY", "types": ["school", "point_of_interest", "establishment"], "icon": "https://maps.gstatic.com/mapfiles/place_api/icons/v1/png_71/school-71.png"}, {"rating": 1, "user_ratings_total": 1, "name": "NATURAL NURSERY AND PRIMARY SCHOOL", "reference": "ChIJLWuFuQt6rjsRjG3LpKzKxbc", "geometry": {"location": {"lat": 12.7030466, "lng": 77.8178251}, "viewport": {"northeast": {"lat": 12.7043213302915, "lng": 77.81914408029151}, "southwest": {"lat": 12.7016233697085, "lng": 77.8164461197085}}}, "opening_hours": {"open_now": false}, "place_id": "ChIJLWuFuQt6rjsRjG3LpKzKxbc", "plus_code": {"global_code": "7J4VPR39+64", "compound_code": "PR39+64 Hosur, Tamil Nadu, India"}, "vicinity": "Navadhi Road, navadhi new colony, Navadhi, Hosur", "scope": "GOOGLE", "business_status": "OPERATIONAL", "types": ["primary_school", "school", "point_of_interest", "establishment"], "icon": "https://maps.gstatic.com/mapfiles/place_api/icons/v1/png_71/school-71.png"}, {"rating": 4.4, "user_ratings_total": 41, "name": "Little Elly Preschool Hosur", "reference": "ChIJd2s1b7twrjsRotq1kEKPjf0", "geometry": {"location": {"lat": 12.7184635, "lng": 77.8165155}, "viewport": {"northeast": {"lat": 12.7197758302915, "lng": 77.8178378302915}, "southwest": {"lat": 12.7170778697085, "lng": 77.81513986970849}}}, "place_id": "ChIJd2s1b7twrjsRotq1kEKPjf0", "plus_code": {"global_code": "7J4VPR98+9J", "compound_code": "PR98+9J Hosur, Tamil Nadu, India"}, "vicinity": "near Olympic Sports Academy, Learning Building, #39, RKS Nagar Vasavi Nagar Road, near Olympic Sports Academy, Hosur", "photos": [{"photo_reference": "ATtYBwIZIape5vgPdtAldMRwhy3qLTFOxqem9HVwv6VkmFARxhgyFVhf0N3lUxDqtmoOidLYUfxAWQi8RggmyltTM-phDXpu-qt5Apg_eFmGw6-lekMwfdOhljUVJLrfrzdU4vW84zZtQ4bBzw0cuAhlwYmcqJ8XEhApez1q-meYcPuxy9Yr", "width": 4032, "html_attributions": ["<a href=\"https://maps.google.com/maps/contrib/100736604702091765552\">mahesh Krishna</a>"], "height": 1960}], "scope": "GOOGLE", "business_status": "OPERATIONAL", "types": ["school", "point_of_interest", "establishment"], "icon": "https://maps.gstatic.com/mapfiles/place_api/icons/v1/png_71/school-71.png"}, {"rating": 4.9, "user_ratings_total": 8, "name": "Seventh Day Adventist International Academy, Kelamangalam", "reference": "ChIJVVVVGb1wrjsR-Q9jtLZ2ElM", "geometry": {"location": {"lat": 12.7196896, "lng": 77.8163572}, "viewport": {"northeast": {"lat": 12.7210645302915, "lng": 77.81773778029151}, "southwest": {"lat": 12.7183665697085, "lng": 77.8150398197085}}}, "place_id": "ChIJVVVVGb1wrjsR-Q9jtLZ2ElM", "plus_code": {"global_code": "7J4VPR98+VG", "compound_code": "PR98+VG Dinnur, Tamil Nadu, India"}, "vicinity": "Jeeva Nagar, Dinnur", "photos": [{"photo_reference": "ATtYBwL4rFA3NRWbHEUeRSwcj_qGG0KWnx6i1ZYJS573akVRdPKTI9bOdFGMKVpKUOyDPTG37WIhEoaD0nH2BW1OriUfyEUd0Sguk5hwhojGas4_EVrc_05SB1iilYd7N8sI_e-Bkq3NeUuPZXNC6L4KXWvTt0anLdBVJbR8DjW5xC-vqVt1", "width": 4160, "html_attributions": ["<a href=\"https://maps.google.com/maps/contrib/101169299172205866623\">LOKESH M</a>"], "height": 2336}], "scope": "GOOGLE", "business_status": "OPERATIONAL", "types": ["school", "point_of_interest", "establishment"], "icon": "https://maps.gstatic.com/mapfiles/place_api/icons/v1/png_71/school-71.png"}, {"rating": 4, "user_ratings_total": 1, "name": "Deeksha, Devaganapally, Hosur", "reference": "ChIJz5mfM5FwrjsRI0Coz78hsOg", "geometry": {"location": {"lat": 12.7213337, "lng": 77.8079496}, "viewport": {"northeast": {"lat": 12.7227613802915, "lng": 77.8093283802915}, "southwest": {"lat": 12.7200634197085, "lng": 77.8066304197085}}}, "place_id": "ChIJz5mfM5FwrjsRI0Coz78hsOg", "plus_code": {"global_code": "7J4VPRC5+G5", "compound_code": "PRC5+G5 Hosur, Tamil Nadu, India"}, "vicinity": "Shemford Futuristic School, 99/3A, 3B, Near Madagondapally Edu. Center, Hosur-Thally Road, Denkanikottai - Taluk, Devaganapally, Hosur", "scope": "GOOGLE", "business_status": "OPERATIONAL", "types": ["school", "point_of_interest", "establishment"], "icon": "https://maps.gstatic.com/mapfiles/place_api/icons/v1/png_71/school-71.png"}, {"name": "Cuemath centre", "reference": "ChIJm7sAOJFwrjsR8fEK1zj7p58", "geometry": {"location": {"lat": 12.7217244, "lng": 77.80739919999999}, "viewport": {"northeast": {"lat": 12.7229830802915, "lng": 77.80871773029149}, "southwest": {"lat": 12.7202851197085, "lng": 77.80601976970848}}}, "opening_hours": {"open_now": true}, "place_id": "ChIJm7sAOJFwrjsR8fEK1zj7p58", "plus_code": {"global_code": "7J4VPRC4+MX", "compound_code": "PRC4+MX Hosur, Tamil Nadu, India"}, "vicinity": "E-9, Manjushree Nagar Phase 2, SBM Colony, Anthivadi, Hosur", "scope": "GOOGLE", "business_status": "OPERATIONAL", "types": ["school", "point_of_interest", "establishment"], "icon": "https://maps.gstatic.com/mapfiles/place_api/icons/v1/png_71/school-71.png"}, {"name": "Kutty Boys", "reference": "ChIJhdOPftxxrjsRWEIsp2mV_uA", "geometry": {"location": {"lat": 12.709425, "lng": 77.8097104}, "viewport": {"northeast": {"lat": 12.7107621802915, "lng": 77.81102113029151}, "southwest": {"lat": 12.7080642197085, "lng": 77.8083231697085}}}, "place_id": "ChIJhdOPftxxrjsRWEIsp2mV_uA", "plus_code": {"global_code": "7J4VPR55+QV", "compound_code": "PR55+QV Hosur, Tamil Nadu, India"}, "vicinity": "Minakarapalli Road, Minakarapalli, Barath Nagar, Hosur", "photos": [{"photo_reference": "ATtYBwJMVIGiLoHV-ANs04NPALTf8dGzyRhfjFO_MJ0A-_SQSZ9tKZYB4XMTk27-4TdU4x1YVSlPRwK-vc4aDUW2fteoD-w97tHxtSAVrEXP1ta6M9RVc6YEdcnlSs-bXVVxWCfm-6UEg8KR852GFgAhdI0EjdYLy2hOogvdbQO2GC3ncQfI", "width": 5184, "html_attributions": ["<a href=\"https://maps.google.com/maps/contrib/114715685788716346355\">Ammu Kutty2425</a>"], "height": 3456}], "scope": "GOOGLE", "business_status": "OPERATIONAL", "types": ["school", "point_of_interest", "establishment"], "icon": "https://maps.gstatic.com/mapfiles/place_api/icons/v1/png_71/school-71.png"}, {"name": "Panchayat Union Public School", "reference": "ChIJhRHuCg5xrjsRITvecbhZzP0", "geometry": {"location": {"lat": 12.7086935, "lng": 77.809725}, "viewport": {"northeast": {"lat": 12.7100138302915, "lng": 77.8110630302915}, "southwest": {"lat": 12.7073158697085, "lng": 77.80836506970849}}}, "place_id": "ChIJhRHuCg5xrjsRITvecbhZzP0", "plus_code": {"global_code": "7J4VPR55+FV", "compound_code": "PR55+FV Hosur, Tamil Nadu, India"}, "vicinity": "Minakarapalli, Hosur", "photos": [{"photo_reference": "ATtYBwKHjFtIeBecaDeL-FuQYNCMG-lJl6mC7G59msAVnARbwC1C2gG_xRCs2UJddX0d9l4VWfAMxcq2cc1O9ocfqbtGOCKJpspEAik08bz-MkkAbvfHRrK9s5QVq0UfBcYOp9sC3tJwEw--DKVGHl2USQYkWgHcTtJXbRXxyVwU42s7EpKi", "width": 3264, "html_attributions": ["<a href=\"https://maps.google.com/maps/contrib/110049715966039342959\">joaquim stonebrowne</a>"], "height": 1836}], "scope": "GOOGLE", "business_status": "OPERATIONAL", "types": ["school", "point_of_interest", "establishment"], "icon": "https://maps.gstatic.com/mapfiles/place_api/icons/v1/png_71/school-71.png"}, {"rating": 5, "user_ratings_total": 6, "name": "Medley Musical", "reference": "ChIJXxE5_ORxrjsR1cotRPKcY2g", "geometry": {"location": {"lat": 12.707871, "lng": 77.812426}, "viewport": {"northeast": {"lat": 12.7096484802915, "lng": 77.81367118029151}, "southwest": {"lat": 12.70695051970849, "lng": 77.81097321970849}}}, "opening_hours": {"open_now": false}, "place_id": "ChIJXxE5_ORxrjsR1cotRPKcY2g", "plus_code": {"global_code": "7J4VPR56+4X", "compound_code": "PR56+4X Hosur, Tamil Nadu, India"}, "vicinity": "Barath Nagar, Hosur", "scope": "GOOGLE", "business_status": "OPERATIONAL", "types": ["school", "point_of_interest", "establishment"], "icon": "https://maps.gstatic.com/mapfiles/place_api/icons/v1/png_71/school-71.png"}, {"rating": 5, "user_ratings_total": 6, "name": "Medley Musical", "reference": "ChIJn4t16qFwrjsR_jY27uc3n60", "geometry": {"location": {"lat": 12.7105072, "lng": 77.8132968}, "viewport": {"northeast": {"lat": 12.7117675802915, "lng": 77.81458308029151}, "southwest": {"lat": 12.7090696197085, "lng": 77.8118851197085}}}, "opening_hours": {"open_now": false}, "place_id": "ChIJn4t16qFwrjsR_jY27uc3n60", "plus_code": {"global_code": "7J4VPR67+68", "compound_code": "PR67+68 Hosur, Tamil Nadu, India"}, "vicinity": "Brindhavan Homes,Bharath Nagar Extension,Behind Annapoorneshwari Palace Dinnur, Hosur", "photos": [{"photo_reference": "ATtYBwKk7_rZjDZS2pBJ4wEmy6s7tnCE7srZIpdt3ZMMj0qFTJpCov03W16S6j8Aeihc5MKd4RFt9nfyGqq6zD9qHJvXcb_uUJOQNBAy59x3djdbiwhEzNzA45ukIpcQQ9JLsjIBsUOh5S7De44TqiTytRploNZwveeV35r-ohn3msGk0zBO", "width": 736, "html_attributions": ["<a href=\"https://maps.google.com/maps/contrib/102018461534175687765\">Medley Musical</a>"], "height": 736}], "scope": "GOOGLE", "business_status": "OPERATIONAL", "types": ["school", "point_of_interest", "establishment"], "icon": "https://maps.gstatic.com/mapfiles/place_api/icons/v1/png_71/school-71.png"}, {"rating": 3.7, "user_ratings_total": 34, "name": "SDA School (Main Campus)", "reference": "ChIJN9XL-p1wrjsRzLdEMr__lcU", "geometry": {"location": {"lat": 12.7069164, "lng": 77.80752199999999}, "viewport": {"northeast": {"lat": 12.7083355302915, "lng": 77.8087325802915}, "southwest": {"lat": 12.7056375697085, "lng": 77.8060346197085}}}, "place_id": "ChIJN9XL-p1wrjsRzLdEMr__lcU", "plus_code": {"global_code": "7J4VPR45+Q2", "compound_code": "PR45+Q2 Hosur, Tamil Nadu, India"}, "vicinity": "Maranatha Colony, Midigirapalli, Hosur", "photos": [{"photo_reference": "ATtYBwLjjBdRLkl0KsQ_KBtZtZCGoc0mWXC9FF7WtTBmFjedVzYP8Wj5ViweAjCkIopHhZkn4-BK69RaQCzyMS8POPBsOooeF-O5TaOPaUywYePwwAZfy-aNeEw8tG-TcMBsMeL2AKPluNFslMciKKJIrfxj_xoOFk0oxoWGQHuMzruUXNKI", "width": 800, "html_attributions": ["<a href=\"https://maps.google.com/maps/contrib/101546494157856376077\">Noble Adventist</a>"], "height": 533}], "scope": "GOOGLE", "business_status": "OPERATIONAL", "types": ["school", "point_of_interest", "establishment"], "icon": "https://maps.gstatic.com/mapfiles/place_api/icons/v1/png_71/school-71.png"}, {"name": "SAFA NURSERY AND PRIMARY SCHOOL HOSUR", "reference": "ChIJr3OPUzhxrjsRgqRvUsy90U4", "geometry": {"location": {"lat": 12.7129935, "lng": 77.8133344}, "viewport": {"northeast": {"lat": 12.7142677802915, "lng": 77.8149404302915}, "southwest": {"lat": 12.7115698197085, "lng": 77.8122424697085}}}, "opening_hours": {"open_now": false}, "place_id": "ChIJr3OPUzhxrjsRgqRvUsy90U4", "plus_code": {"global_code": "7J4VPR77+58", "compound_code": "PR77+58 Hosur, Tamil Nadu, India"}, "vicinity": "Barath Nagar, Hosur", "scope": "GOOGLE", "business_status": "OPERATIONAL", "types": ["school", "point_of_interest", "establishment"], "icon": "https://maps.gstatic.com/mapfiles/place_api/icons/v1/png_71/school-71.png"}, {"name": "Mr Amal Nathan house", "reference": "ChIJo5-4FS5xrjsRMpW428wYcks", "geometry": {"location": {"lat": 12.7142988, "lng": 77.8125904}, "viewport": {"northeast": {"lat": 12.7156408802915, "lng": 77.8139601802915}, "southwest": {"lat": 12.7129429197085, "lng": 77.8112622197085}}}, "place_id": "ChIJo5-4FS5xrjsRMpW428wYcks", "plus_code": {"global_code": "7J4VPR77+P2", "compound_code": "PR77+P2 Hosur, Tamil Nadu, India"}, "vicinity": "Minakarapalli Road, Barath Nagar, Hosur", "scope": "GOOGLE", "business_status": "OPERATIONAL", "types": ["school", "point_of_interest", "establishment"], "icon": "https://maps.gstatic.com/mapfiles/place_api/icons/v1/png_71/school-71.png"}, {"rating": 5, "user_ratings_total": 1, "name": "ITI", "reference": "ChIJ4eDLCqBwrjsRzSS4HoIfpP4", "geometry": {"location": {"lat": 12.706697, "lng": 77.8152636}, "viewport": {"northeast": {"lat": 12.7078971302915, "lng": 77.81690798029149}, "southwest": {"lat": 12.7051991697085, "lng": 77.81421001970848}}}, "place_id": "ChIJ4eDLCqBwrjsRzSS4HoIfpP4", "plus_code": {"global_code": "7J4VPR48+M4", "compound_code": "PR48+M4 Hosur, Tamil Nadu, India"}, "vicinity": "82/24, Denkanikotta Road, Navadhi, Hosur", "photos": [{"photo_reference": "ATtYBwKD4utsRsyK8tI1lmLoCteZ1OikaHC8aUXKOvssyLSzsMXKX-n52YjhN0x-UxdRchrvAriHJd46cTqZ_3zG0wok-3eLv-RQnePS9bttPjE1ufxm7HoUo08wipVDjdRZwphNNa-E2BURgu8f_gX2DiRgaeZZMkh3yeMCUGRzQCENU3g4", "width": 1968, "html_attributions": ["<a href=\"https://maps.google.com/maps/contrib/116569518927177014594\">Veerabathiran veera</a>"], "height": 4144}], "scope": "GOOGLE", "business_status": "OPERATIONAL", "types": ["school", "point_of_interest", "establishment"], "icon": "https://maps.gstatic.com/mapfiles/place_api/icons/v1/png_71/school-71.png"}, {"rating": 4, "user_ratings_total": 1, "name": "Rotary Centre, Rotary Club of Hosur, R I Dist 2982", "reference": "ChIJm0TJNHR6rjsRQTXXCVjgRuM", "geometry": {"location": {"lat": 12.70347, "lng": 77.80931629999999}, "viewport": {"northeast": {"lat": 12.7042938802915, "lng": 77.8102497802915}, "southwest": {"lat": 12.7015959197085, "lng": 77.8075518197085}}}, "place_id": "ChIJm0TJNHR6rjsRQTXXCVjgRuM", "plus_code": {"global_code": "7J4VPR35+9P", "compound_code": "PR35+9P Mathigiri, Tamil Nadu, India"}, "vicinity": "Mathigiri", "scope": "GOOGLE", "business_status": "OPERATIONAL", "types": ["school", "point_of_interest", "establishment"], "icon": "https://maps.gstatic.com/mapfiles/place_api/icons/v1/png_71/school-71.png"}, {"name": "Rotary Centre", "reference": "ChIJ-zv0NHR6rjsRNmWmxDto9Ok", "geometry": {"location": {"lat": 12.703334, "lng": 77.80931629999999}, "viewport": {"northeast": {"lat": 12.7041990802915, "lng": 77.8102822802915}, "southwest": {"lat": 12.7015011197085, "lng": 77.80758431970848}}}, "place_id": "ChIJ-zv0NHR6rjsRNmWmxDto9Ok", "plus_code": {"global_code": "7J4VPR35+8P", "compound_code": "PR35+8P Mathigiri, Tamil Nadu, India"}, "vicinity": "Rotary Avenue, Mathigiri", "photos": [{"photo_reference": "ATtYBwJwSAeJMJ26_WwoxQ_2PhYPiJeNuNWSDnCD4wHzK6uap-KlqpzbxZgHdPkUKaP-hVUEVJqB2H4sNka1zOE-tajbPboWtEc2TcJLN1mIqa5w_MdtP4qeRcPyjSBJ_RdQHr9-sNbs2YgO6939sfs517qfqy_oIQ4bFKNgu_g1kKHf6Pwz", "width": 3024, "html_attributions": ["<a href=\"https://maps.google.com/maps/contrib/102265407069149068564\">jaypee Hosur</a>"], "height": 4032}], "scope": "GOOGLE", "business_status": "OPERATIONAL", "types": ["school", "point_of_interest", "establishment"], "icon": "https://maps.gstatic.com/mapfiles/place_api/icons/v1/png_71/school-71.png"}, {"name": "SRUSHTI COACHING CENTRE for ARTS", "reference": "ChIJBc8bVslxrjsRDeyneih-ZQE", "geometry": {"location": {"lat": 12.7163383, "lng": 77.8140194}, "viewport": {"northeast": {"lat": 12.7177171802915, "lng": 77.81537858029151}, "southwest": {"lat": 12.7150192197085, "lng": 77.81268061970849}}}, "place_id": "ChIJBc8bVslxrjsRDeyneih-ZQE", "plus_code": {"global_code": "7J4VPR87+GJ", "compound_code": "PR87+GJ Hosur, Tamil Nadu, India"}, "vicinity": "5th CROSS, main road, Kailai Nagar, Gokul Nagar, Hosur", "scope": "GOOGLE", "business_status": "OPERATIONAL", "types": ["school", "point_of_interest", "establishment"], "icon": "https://maps.gstatic.com/mapfiles/place_api/icons/v1/png_71/school-71.png"}]}