{"status": "OK", "html_attributions": [], "results": [{"rating": 4.6, "user_ratings_total": 15, "name": "LNR Public School", "reference": "ChIJbY3neP84rjsRJUD2nKRcvTc", "geometry": {"location": {"lat": 12.9113071, "lng": 77.4249828}, "viewport": {"northeast": {"lat": 12.9126499802915, "lng": 77.4262954802915}, "southwest": {"lat": 12.9099520197085, "lng": 77.4235975197085}}}, "place_id": "ChIJbY3neP84rjsRJUD2nKRcvTc", "plus_code": {"global_code": "7J4VWC6F+GX", "compound_code": "WC6F+GX Ramohalli, Karnataka, India"}, "vicinity": "lnr group of institutions, #26, Ramohalli", "photos": [{"photo_reference": "ATtYBwJmEcA6N8v0ejVRMAF07O1pDB_uUkZ0yGERVq4LNxV8tE07zydjQw8TSN0knkB3FsmTGVrlUQHKxry2epX5CGJB9zRR1qu6gCnmkOAN2l-klG-ai2HFJyuYO52QNr_B_vRlUihl5yZR34o48gOHaoA-wzu7TV6YEB38QmiZPRbsPBXy", "width": 1072, "html_attributions": ["<a href=\"https://maps.google.com/maps/contrib/111851815473412085998\">LNR Public School</a>"], "height": 712}], "scope": "GOOGLE", "business_status": "OPERATIONAL", "types": ["school", "point_of_interest", "establishment"], "icon": "https://maps.gstatic.com/mapfiles/place_api/icons/v1/png_71/school-71.png"}, {"name": "Yojith scool, LNR public school", "reference": "ChIJ7zlVNb45rjsR09Kgj7qoZlA", "geometry": {"location": {"lat": 12.911528, "lng": 77.424939}, "viewport": {"northeast": {"lat": 12.9128712802915, "lng": 77.42625403029149}, "southwest": {"lat": 12.9101733197085, "lng": 77.42355606970848}}}, "place_id": "ChIJ7zlVNb45rjsR09Kgj7qoZlA", "plus_code": {"global_code": "7J4VWC6F+JX", "compound_code": "WC6F+JX Ramohalli, Karnataka, India"}, "vicinity": "Unnamed Road, Ramohalli", "scope": "GOOGLE", "business_status": "OPERATIONAL", "types": ["school", "point_of_interest", "establishment"], "icon": "https://maps.gstatic.com/mapfiles/place_api/icons/v1/png_71/school-71.png"}, {"name": "Vinayaka Nagara Government School, Ramohalli", "reference": "ChIJ_3yh3fk4rjsREfj4T9vC2eI", "geometry": {"location": {"lat": 12.903198, "lng": 77.4284981}, "viewport": {"northeast": {"lat": 12.9046094802915, "lng": 77.42986313029151}, "southwest": {"lat": 12.9019115197085, "lng": 77.4271651697085}}}, "place_id": "ChIJ_3yh3fk4rjsREfj4T9vC2eI", "plus_code": {"global_code": "7J4VWC3H+79", "compound_code": "WC3H+79 Bengaluru, Karnataka, India"}, "vicinity": "Unnamed Road, Bengaluru", "photos": [{"photo_reference": "ATtYBwKnYjXvpApnigJaTLDUOCZVomG7TewFD5Q7WUICTQ2_KazDQQk8ejevjLRBQTEXTGCxwoc6yAGfB5Tl6cQNeBzZyq-93hAo-ZNnhYuopPNhCoteY0yLFKfDIcEpfq9D3_yt8_3MPjo7Opl2G8Z346ISt6TIyYu2EVs5etRdplEKsuMd", "width": 1280, "html_attributions": ["<a href=\"https://maps.google.com/maps/contrib/103847689459752056170\">Nagaraju Naga</a>"], "height": 960}], "scope": "GOOGLE", "business_status": "OPERATIONAL", "types": ["school", "point_of_interest", "establishment"], "icon": "https://maps.gstatic.com/mapfiles/place_api/icons/v1/png_71/school-71.png"}, {"rating": 3.5, "user_ratings_total": 2, "name": "Shubham karoti Maitreyee Gurukula", "reference": "ChIJ_____1Y4rjsRihkfPCnkzMs", "geometry": {"location": {"lat": 12.9051692, "lng": 77.4214278}, "viewport": {"northeast": {"lat": 12.9064391802915, "lng": 77.42285273029151}, "southwest": {"lat": 12.9037412197085, "lng": 77.4201547697085}}}, "place_id": "ChIJ_____1Y4rjsRihkfPCnkzMs", "vicinity": "No 52 / 1 , Big Banian Tree Road, Ramohalli, Kengeri Hobli, Bengaluru", "scope": "GOOGLE", "business_status": "OPERATIONAL", "types": ["school", "point_of_interest", "establishment"], "icon": "https://maps.gstatic.com/mapfiles/place_api/icons/v1/png_71/school-71.png"}, {"name": "Maithreya Pre Primary School", "reference": "ChIJrS1uAK85rjsRI0Cr2Po0Wn4", "geometry": {"location": {"lat": 12.9051692, "lng": 77.4214278}, "viewport": {"northeast": {"lat": 12.9064391802915, "lng": 77.42285273029151}, "southwest": {"lat": 12.9037412197085, "lng": 77.4201547697085}}}, "place_id": "ChIJrS1uAK85rjsRI0Cr2Po0Wn4", "plus_code": {"global_code": "7J4VWC4C+3H", "compound_code": "WC4C+3H Ramohalli, Karnataka, India"}, "vicinity": "Ramohalli", "photos": [{"photo_reference": "ATtYBwKtNUJ2hCVy3FKPvS3OtupOXyAZH433OmEfCtq20LbEXj-rjmyTk6g0j0hXv3Gmmh4mu3uODzmvY0iRHieYmftzmyUpSKSQKfg6RJ1cbu_kE2NGLjJ-tIUUgTHA4ZbWUezyo6ZBcr966uNmkpjgqBkd0TTC3S-zvUAibVxQAdwN-QX-", "width": 4608, "html_attributions": ["<a href=\"https://maps.google.com/maps/contrib/114440769893505840515\">Lishitha R Swamy gsc</a>"], "height": 2304}], "scope": "GOOGLE", "business_status": "OPERATIONAL", "types": ["school", "point_of_interest", "establishment"], "icon": "https://maps.gstatic.com/mapfiles/place_api/icons/v1/png_71/school-71.png"}, {"rating": 5, "user_ratings_total": 1, "name": "Sri Ganghadhareshwara High School.", "reference": "ChIJ-UVq3Jw5rjsRnOTUhMxTHHI", "geometry": {"location": {"lat": 12.9064185, "lng": 77.4196619}, "viewport": {"northeast": {"lat": 12.9077717802915, "lng": 77.4209849802915}, "southwest": {"lat": 12.9050738197085, "lng": 77.41828701970849}}}, "place_id": "ChIJ-UVq3Jw5rjsRnOTUhMxTHHI", "plus_code": {"global_code": "7J4VWC49+HV", "compound_code": "WC49+HV Ramohalli, Karnataka, India"}, "vicinity": "Ramohalli", "photos": [{"photo_reference": "ATtYBwIjnZuIn1reyJJ7Pdv6pR3baXZcdjLj7hNgS5Ft29bE4Cn_QMmO0SEDphPOrZLoopRKzVegcErosGXxHqenFaiTz6s41QinVJaCvrHZzuipfocflwFqNkoOmcTgdptma6F0WanZC4-Sc300q74qZN3HKfA_i3ZNJm3f8LV8hgeQuhnG", "width": 1200, "html_attributions": ["<a href=\"https://maps.google.com/maps/contrib/118052717516127051430\">shree L K</a>"], "height": 1200}], "scope": "GOOGLE", "business_status": "OPERATIONAL", "types": ["school", "point_of_interest", "establishment"], "icon": "https://maps.gstatic.com/mapfiles/place_api/icons/v1/png_71/school-71.png"}, {"name": "\u0c87\u0c82\u0ca1\u0cbf\u0caf\u0ca8\u0ccd \u0c87\u0ca8\u0ccd\u0cb8\u0ccd\u0c9f\u0cbf\u0c9f\u0cc2\u0c9f\u0ccd \u0cab\u0cbe\u0cb0\u0ccd \u0cb9\u0ccd\u0caf\u0cc2\u0cae\u0ca8\u0ccd \u0cb8\u0cc6\u0c9f\u0ccd\u0cb2\u0cae\u0cc6\u0c82\u0c9f\u0ccd\u0cb8\u0ccd", "reference": "ChIJnYcFWBw5rjsRvQLHvaiiFRc", "geometry": {"location": {"lat": 12.9180465, "lng": 77.4386744}, "viewport": {"northeast": {"lat": 12.9193807802915, "lng": 77.4401162802915}, "southwest": {"lat": 12.9166828197085, "lng": 77.43741831970848}}}, "place_id": "ChIJnYcFWBw5rjsRvQLHvaiiFRc", "plus_code": {"global_code": "7J4VWC9Q+6F", "compound_code": "WC9Q+6F Bheemanakuppe Ramasagara, Karnataka, India"}, "vicinity": "Bheemanakuppe Ramasagara", "photos": [{"photo_reference": "ATtYBwK8k1-73gOs9CQCAPYqVnr6hoQfCmsmPDnIvFyPvxv080VESGNi-SkC9cFIndApwe7pa-Y7Js8sV2dZJbILmC1R9a-8JmBo6CNwaNK5xYFE6_uGBV2P2pFxpdbB0wcm54Yx55WQQmEncvWuZiqUHOckKEuHQTe9LhjmRNT2mJ5Td8iT", "width": 1920, "html_attributions": ["<a href=\"https://maps.google.com/maps/contrib/111356032872729097859\">CHANDRA.v Hallikar</a>"], "height": 1080}], "scope": "GOOGLE", "business_status": "OPERATIONAL", "types": ["school", "point_of_interest", "establishment"], "icon": "https://maps.gstatic.com/mapfiles/place_api/icons/v1/png_71/school-71.png"}, {"name": "Ramohalli Government School", "reference": "ChIJG5XsVlE4rjsRHuTu6mEeiLs", "geometry": {"location": {"lat": 12.9075925, "lng": 77.41810389999999}, "viewport": {"northeast": {"lat": 12.9089399802915, "lng": 77.41945878029149}, "southwest": {"lat": 12.9062420197085, "lng": 77.41676081970849}}}, "place_id": "ChIJG5XsVlE4rjsRHuTu6mEeiLs", "plus_code": {"global_code": "7J4VWC59+26", "compound_code": "WC59+26 Bengaluru, Karnataka, India"}, "vicinity": "Unnamed Road, Bengaluru", "photos": [{"photo_reference": "ATtYBwJBq6jxSLtljVuXdSeSGgMjA4KCDQoQRFprzzG54LC0AJRq2pVBo5AHNYHt2z_ZZ5wrKBCAUpVAzdIWbJ8xjmY1nYgwLnpK_w6zjSf7TyyXP2NwsNyd74RM0zdPFd2z8u1U94LxXAYbxVQ0_a-7UesNDLoiGxQUt55wcyp6SPJ7xxbL", "width": 1920, "html_attributions": ["<a href=\"https://maps.google.com/maps/contrib/106576719527372137223\">Rohith Raghav</a>"], "height": 1080}], "scope": "GOOGLE", "business_status": "OPERATIONAL", "types": ["school", "point_of_interest", "establishment"], "icon": "https://maps.gstatic.com/mapfiles/place_api/icons/v1/png_71/school-71.png"}, {"rating": 5, "user_ratings_total": 1, "name": "Dog Guru School", "reference": "ChIJWUSBwVg5rjsR-H_29F4q4tw", "geometry": {"location": {"lat": 12.9196072, "lng": 77.422671}, "viewport": {"northeast": {"lat": 12.92263885, "lng": 77.42376593029151}, "southwest": {"lat": 12.91859665, "lng": 77.42106796970849}}}, "opening_hours": {"open_now": false}, "place_id": "ChIJWUSBwVg5rjsR-H_29F4q4tw", "plus_code": {"global_code": "7J4VWC9F+R3", "compound_code": "WC9F+R3 Maligondanahalli, Karnataka, India"}, "vicinity": "Unnamed Road, Maligondanahalli", "scope": "GOOGLE", "business_status": "OPERATIONAL", "types": ["school", "point_of_interest", "establishment"], "icon": "https://maps.gstatic.com/mapfiles/place_api/icons/v1/png_71/school-71.png"}, {"name": "\u0cb9\u0cc8\u0cb8\u0ccd\u0c95\u0cc2\u0cb2\u0ccd", "reference": "ChIJtx_bzFU5rjsRH1lvD0H0clI", "geometry": {"location": {"lat": 12.9097293, "lng": 77.41750499999999}, "viewport": {"northeast": {"lat": 12.9110166802915, "lng": 77.4188395802915}, "southwest": {"lat": 12.90831871970849, "lng": 77.41614161970848}}}, "place_id": "ChIJtx_bzFU5rjsRH1lvD0H0clI", "plus_code": {"global_code": "7J4VWC59+V2", "compound_code": "WC59+V2 Ramohalli, Karnataka, India"}, "vicinity": "Bevoor", "scope": "GOOGLE", "business_status": "OPERATIONAL", "types": ["school", "point_of_interest", "establishment"], "icon": "https://maps.gstatic.com/mapfiles/place_api/icons/v1/png_71/school-71.png"}, {"rating": 3, "user_ratings_total": 3, "name": "Bettanapalya SCHOOL", "reference": "ChIJE41ecuE4rjsRQjkg9BWjdN4", "geometry": {"location": {"lat": 12.9112475, "lng": 77.4427338}, "viewport": {"northeast": {"lat": 12.9125932802915, "lng": 77.4441022802915}, "southwest": {"lat": 12.9098953197085, "lng": 77.44140431970848}}}, "opening_hours": {"open_now": false}, "place_id": "ChIJE41ecuE4rjsRQjkg9BWjdN4", "plus_code": {"global_code": "7J4VWC6V+F3", "compound_code": "WC6V+F3 Bheemanakuppe, Karnataka, India"}, "vicinity": "Bettanapalya, Bheemanakuppe", "scope": "GOOGLE", "business_status": "OPERATIONAL", "types": ["school", "point_of_interest", "establishment"], "icon": "https://maps.gstatic.com/mapfiles/place_api/icons/v1/png_71/school-71.png"}, {"name": "Government School", "reference": "ChIJySp_c-E4rjsRYJ9T9BDV9-0", "geometry": {"location": {"lat": 12.9114759, "lng": 77.4427778}, "viewport": {"northeast": {"lat": 12.9128625802915, "lng": 77.4441033802915}, "southwest": {"lat": 12.9101646197085, "lng": 77.44140541970849}}}, "place_id": "ChIJySp_c-E4rjsRYJ9T9BDV9-0", "plus_code": {"global_code": "7J4VWC6V+H4", "compound_code": "WC6V+H4 Bengaluru, Karnataka, India"}, "vicinity": "Bettanapalya-Ramohalli Road, Bettanapalya, Bengaluru", "scope": "GOOGLE", "business_status": "OPERATIONAL", "types": ["school", "point_of_interest", "establishment"], "icon": "https://maps.gstatic.com/mapfiles/place_api/icons/v1/png_71/school-71.png"}]}