{"status": "OK", "next_page_token": "ATtYBwLVau8Izdt2pfEXld2ZpCK_NcTheYT6LFOkzC2ddWDc-ttN7zInV0UYHG6DEA8FiE9fj_LEJIdWp0lcR6z6po_ONinvlTgVK8dus3sHTOrBniJrDjEpqI_G-3UVPpIPj_DyEGJQSiE-WaqAKZkfBGChxg0KifUW_evjx7C3pdq--k2iJ1Z81CnoGgvlw5m7l4KmTQ3-wiMXm_dW1Io8rJiJTBj2lCHq0HE6Up1MaiDiC7_sFZWsXEanMiq1yQXv4-O9muvayqLXWIJrkkWuBK4dw9uzz__-souEw_01ufYQCmOp7N5v_7BJZ1PTbAhd6r6pePc2wMlZ3Qm9_ZukYhNOXJXnY2XK5-kmJnUvhg9mfpKWhzCJh8wzmOZBSqVcNQmEAXcu_Hpg4dSqQwR0ptlYRXzbDqYTyg8C2zkOn9Zm4EA2DD4tm_f_aFa68musn4RrEzSy8Os0BHBlyuRPmnoNIpzXExSMLFRble7iy_j6vkp_qNwjVolIdsbsC-ONHXEU99hQ_NrEuNNrM28REEBN6dSKmVE9oEOdmm2eeZVcqGN6g6RB3Co8l_prwstFggxjwxQVUUVvkHWB2W_s4Bluna3XrLP5Wb3nU9ZaX_f0T7zeHbnr43vg2GQCQBLnD1bKmQwO", "html_attributions": [], "results": [{"rating": 4.1, "user_ratings_total": 15, "name": "St. Mary's English Primary High School", "reference": "ChIJt9GpYeEkrjsR44rEreDYV5g", "geometry": {"location": {"lat": 13.0776262, "lng": 77.4283901}, "viewport": {"northeast": {"lat": 13.0789006802915, "lng": 77.42971978029149}, "southwest": {"lat": 13.0762027197085, "lng": 77.42702181970849}}}, "place_id": "ChIJt9GpYeEkrjsR44rEreDYV5g", "plus_code": {"global_code": "7J5V3CHH+39", "compound_code": "3CHH+39 Dasanapura, Karnataka, India"}, "vicinity": "Bangalor, Dasanapura", "scope": "GOOGLE", "business_status": "OPERATIONAL", "types": ["school", "point_of_interest", "establishment"], "icon": "https://maps.gstatic.com/mapfiles/place_api/icons/v1/png_71/school-71.png"}, {"name": "AIMS", "reference": "ChIJXUcpYu0lrjsRPkAzhaZHGmM", "geometry": {"location": {"lat": 13.0708825, "lng": 77.4220025}, "viewport": {"northeast": {"lat": 13.0721672802915, "lng": 77.4233363802915}, "southwest": {"lat": 13.0694693197085, "lng": 77.42063841970848}}}, "place_id": "ChIJXUcpYu0lrjsRPkAzhaZHGmM", "plus_code": {"global_code": "7J5V3CCC+9R", "compound_code": "3CCC+9R Dasanapura, Karnataka, India"}, "vicinity": "Dasanapura", "scope": "GOOGLE", "business_status": "OPERATIONAL", "types": ["school", "point_of_interest", "establishment"], "icon": "https://maps.gstatic.com/mapfiles/place_api/icons/v1/png_71/school-71.png"}, {"name": "Maruti School", "reference": "ChIJ70wA2N8lrjsREnvc81SGbME", "geometry": {"location": {"lat": 13.0717898, "lng": 77.4221031}, "viewport": {"northeast": {"lat": 13.0731489802915, "lng": 77.4233821302915}, "southwest": {"lat": 13.0704510197085, "lng": 77.4206841697085}}}, "place_id": "ChIJ70wA2N8lrjsREnvc81SGbME", "plus_code": {"global_code": "7J5V3CCC+PR", "compound_code": "3CCC+PR Arasinakunte, Karnataka, India"}, "vicinity": "Gejjigadahalli circle, Arasinakunte", "scope": "GOOGLE", "business_status": "OPERATIONAL", "types": ["school", "point_of_interest", "establishment"], "icon": "https://maps.gstatic.com/mapfiles/place_api/icons/v1/png_71/school-71.png"}, {"rating": 4, "user_ratings_total": 1, "name": "maruthi high school", "reference": "ChIJQ_IZKCAlrjsRDEbxKzFlqkQ", "geometry": {"location": {"lat": 13.0717977, "lng": 77.42207549999999}, "viewport": {"northeast": {"lat": 13.0731548302915, "lng": 77.4233686302915}, "southwest": {"lat": 13.0704568697085, "lng": 77.4206706697085}}}, "opening_hours": {"open_now": false}, "place_id": "ChIJQ_IZKCAlrjsRDEbxKzFlqkQ", "plus_code": {"global_code": "7J5V3CCC+PR", "compound_code": "3CCC+PR Arasinakunte, Karnataka, India"}, "vicinity": "Adarsh Nagar, Arasinakunte", "photos": [{"photo_reference": "ATtYBwIKIjO8PkN7IbB39WzGvjqWYqPtgPcCsnC2KKwK-QfDjD4SdK8FDWJ769O1UNLRMBlvk9ChNGLR3cRgiEsjlytYE42R_LtIGcgfJs_FaYCM502UX07NBYVzJaR9kuNU-wHkC3zQwHOvYHvRyzBCqe9vfIFMApIqji0cT_pu2eA7_rU", "width": 4608, "html_attributions": ["<a href=\"https://maps.google.com/maps/contrib/106170158171933403190\">narasimharaja n</a>"], "height": 3456}], "scope": "GOOGLE", "business_status": "OPERATIONAL", "types": ["school", "point_of_interest", "establishment"], "icon": "https://maps.gstatic.com/mapfiles/place_api/icons/v1/png_71/school-71.png"}, {"name": "Anganawadi", "reference": "ChIJRwkEN3olrjsReWK5Jf-o054", "geometry": {"location": {"lat": 13.0760805, "lng": 77.4353182}, "viewport": {"northeast": {"lat": 13.0774349302915, "lng": 77.4366352802915}, "southwest": {"lat": 13.0747369697085, "lng": 77.43393731970849}}}, "opening_hours": {"open_now": false}, "place_id": "ChIJRwkEN3olrjsReWK5Jf-o054", "plus_code": {"global_code": "7J5V3CGP+C4", "compound_code": "3CGP+C4 Dasanapura, Karnataka, India"}, "vicinity": "Dasanapura", "scope": "GOOGLE", "business_status": "OPERATIONAL", "types": ["school", "point_of_interest", "establishment"], "icon": "https://maps.gstatic.com/mapfiles/place_api/icons/v1/png_71/school-71.png"}, {"rating": 4.8, "user_ratings_total": 27, "name": "RUDSET Institute", "reference": "ChIJ6W0zujAlrjsR1_aUUzm7fEk", "geometry": {"location": {"lat": 13.0768294, "lng": 77.4255014}, "viewport": {"northeast": {"lat": 13.0781896302915, "lng": 77.4268053302915}, "southwest": {"lat": 13.0754916697085, "lng": 77.4241073697085}}}, "place_id": "ChIJ6W0zujAlrjsR1_aUUzm7fEk", "plus_code": {"global_code": "7J5V3CGG+P6", "compound_code": "3CGG+P6 Arasinakunte, Karnataka, India"}, "vicinity": "Veeraiah Nagar, Arasinakunte", "photos": [{"photo_reference": "ATtYBwJQ52-J8_armX0l94nCoGx9hf_vl4MEh7VF23kDtcpH3eO09TJQmeC0aM-rYsZhGDr_xaUDzV2sL7SBzbz0EXcDiXPMo5eI7EU5BbUdaC5y_ltt6BP8c19jnv4f1TM_VzCIE4EtC9QwB2IeLl4UuwOs495nJKVNLgPrAKfnaMltbcR8", "width": 4128, "html_attributions": ["<a href=\"https://maps.google.com/maps/contrib/103831277908403829706\">Rajesh Bhat</a>"], "height": 3096}], "scope": "GOOGLE", "business_status": "OPERATIONAL", "types": ["school", "point_of_interest", "establishment"], "icon": "https://maps.gstatic.com/mapfiles/place_api/icons/v1/png_71/school-71.png"}, {"rating": 4.4, "user_ratings_total": 37, "name": "Acharya Guru Parampara Vidyalaya", "reference": "ChIJQWhAfOYkrjsRDyVgRnelR1Y", "geometry": {"location": {"lat": 13.0775884, "lng": 77.4331658}, "viewport": {"northeast": {"lat": 13.0789516802915, "lng": 77.4344547802915}, "southwest": {"lat": 13.0762537197085, "lng": 77.4317568197085}}}, "opening_hours": {"open_now": false}, "place_id": "ChIJQWhAfOYkrjsRDyVgRnelR1Y", "plus_code": {"global_code": "7J5V3CHM+27", "compound_code": "3CHM+27 Dasanapura, Karnataka, India"}, "vicinity": "north,, Dasanapura", "photos": [{"photo_reference": "ATtYBwIHfE2kw9PjASfyTkyJMP86463EsVbcpBazCIoCpZeu5ZOl5drkbZfInq6DKEFmmNbtpRbkSHfE9Hq2kNKY_r-x9WCe9g5z5eKjdJhYvZbdxXlPkba1i6BBPm5Bm9BCAcNVhTEHMUVAXsQo5_7fXHKxX_cAtIVoWl2XQrDbKMRSod3k", "width": 4512, "html_attributions": ["<a href=\"https://maps.google.com/maps/contrib/111510522541027522455\">Sujay N</a>"], "height": 3008}], "scope": "GOOGLE", "business_status": "OPERATIONAL", "types": ["school", "point_of_interest", "establishment"], "icon": "https://maps.gstatic.com/mapfiles/place_api/icons/v1/png_71/school-71.png"}, {"rating": 5, "user_ratings_total": 2, "name": "Governmaent Lower Primary School, Dasanapura", "reference": "ChIJG6fIg-gkrjsRSOJ7cKToHSE", "geometry": {"location": {"lat": 13.0757709, "lng": 77.4359975}, "viewport": {"northeast": {"lat": 13.0771329802915, "lng": 77.43731213029152}, "southwest": {"lat": 13.0744350197085, "lng": 77.4346141697085}}}, "place_id": "ChIJG6fIg-gkrjsRSOJ7cKToHSE", "plus_code": {"global_code": "7J5V3CGP+89", "compound_code": "3CGP+89 Dasanapura, Karnataka, India"}, "vicinity": "North, Dasanapura", "photos": [{"photo_reference": "ATtYBwKy8FDlJn9HNJUd-Yrt-8qbW-Sd2_S9pwqavUo1TIgdfBQtQ9RqvzyUitCsnDGRv1EIAzhHxLvfC-foTm2nNmbuAQSoqymo_l-3sDfz1sINlbBGmHdAZYFUedfF8kMPu_nqH9PzmyIK7fbmlI_W-ScIOxzbxIHYZSiSI6c5bc9_dA-b", "width": 4160, "html_attributions": ["<a href=\"https://maps.google.com/maps/contrib/116111297431383462228\">#AK GAMER#</a>"], "height": 3120}], "scope": "GOOGLE", "business_status": "OPERATIONAL", "types": ["school", "point_of_interest", "establishment"], "icon": "https://maps.gstatic.com/mapfiles/place_api/icons/v1/png_71/school-71.png"}, {"name": "Government Kannada Medium School", "reference": "ChIJ-RpBAFQlrjsRpNuhtLvQe8M", "geometry": {"location": {"lat": 13.0757353, "lng": 77.436054}, "viewport": {"northeast": {"lat": 13.0771261802915, "lng": 77.4374221302915}, "southwest": {"lat": 13.0744282197085, "lng": 77.43472416970849}}}, "place_id": "ChIJ-RpBAFQlrjsRpNuhtLvQe8M", "plus_code": {"global_code": "7J5V3CGP+7C", "compound_code": "3CGP+7C Dasanapura, Karnataka, India"}, "vicinity": "North, Dasanapura", "scope": "GOOGLE", "business_status": "OPERATIONAL", "types": ["school", "point_of_interest", "establishment"], "icon": "https://maps.gstatic.com/mapfiles/place_api/icons/v1/png_71/school-71.png"}, {"rating": 4.5, "user_ratings_total": 8, "name": "St. Mary's Jacobite Syrian Orthodox Curch", "reference": "ChIJd6GC3-MkrjsRIjIom-GD86g", "geometry": {"location": {"lat": 13.0780658, "lng": 77.4283153}, "viewport": {"northeast": {"lat": 13.0795275302915, "lng": 77.4296976802915}, "southwest": {"lat": 13.0768295697085, "lng": 77.42699971970849}}}, "place_id": "ChIJd6GC3-MkrjsRIjIom-GD86g", "plus_code": {"global_code": "7J5V3CHH+68", "compound_code": "3CHH+68 Arasinakunte, Karnataka, India"}, "vicinity": "Veeraiah Nagar, Arasinakunte", "scope": "GOOGLE", "business_status": "OPERATIONAL", "types": ["school", "point_of_interest", "establishment"], "icon": "https://maps.gstatic.com/mapfiles/place_api/icons/v1/png_71/school-71.png"}, {"name": "Maramma Nadamma Dalamma Temple", "reference": "ChIJa822i-gkrjsRcjVKOuVRiBk", "geometry": {"location": {"lat": 13.0756018, "lng": 77.4369615}, "viewport": {"northeast": {"lat": 13.0769566802915, "lng": 77.4383105802915}, "southwest": {"lat": 13.0742587197085, "lng": 77.4356126197085}}}, "opening_hours": {"open_now": false}, "place_id": "ChIJa822i-gkrjsRcjVKOuVRiBk", "plus_code": {"global_code": "7J5V3CGP+6Q", "compound_code": "3CGP+6Q Bengaluru, Karnataka, India"}, "vicinity": "National Highway 48, Nagarur colony, Bengaluru", "scope": "GOOGLE", "business_status": "OPERATIONAL", "types": ["school", "point_of_interest", "establishment"], "icon": "https://maps.gstatic.com/mapfiles/place_api/icons/v1/png_71/school-71.png"}, {"name": "Near Govt school", "reference": "ChIJD1Bd-MMlrjsRFbGfQvY-3lI", "geometry": {"location": {"lat": 13.0768444, "lng": 77.4235209}, "viewport": {"northeast": {"lat": 13.0781933802915, "lng": 77.42486988029151}, "southwest": {"lat": 13.0754954197085, "lng": 77.42217191970849}}}, "place_id": "ChIJD1Bd-MMlrjsRFbGfQvY-3lI", "plus_code": {"global_code": "7J5V3CGF+PC", "compound_code": "3CGF+PC Arasinakunte, Karnataka, India"}, "vicinity": "Anganawadi Road, Adarsh Nagar, Arasinakunte", "scope": "GOOGLE", "business_status": "OPERATIONAL", "types": ["school", "point_of_interest", "establishment"], "icon": "https://maps.gstatic.com/mapfiles/place_api/icons/v1/png_71/school-71.png"}, {"name": "Harward Institute Of Management And Science", "reference": "ChIJP_IdEcMlrjsR7ubbwwZpLy0", "geometry": {"location": {"lat": 13.0724234, "lng": 77.4395454}, "viewport": {"northeast": {"lat": 13.0736985302915, "lng": 77.4409694302915}, "southwest": {"lat": 13.0710005697085, "lng": 77.43827146970848}}}, "place_id": "ChIJP_IdEcMlrjsR7ubbwwZpLy0", "plus_code": {"global_code": "7J5V3CCQ+XR", "compound_code": "3CCQ+XR Dasanapura, Karnataka, India"}, "vicinity": "Dasanapura", "scope": "GOOGLE", "business_status": "OPERATIONAL", "types": ["school", "point_of_interest", "establishment"], "icon": "https://maps.gstatic.com/mapfiles/place_api/icons/v1/png_71/school-71.png"}, {"name": "H V Mohan's Property", "reference": "ChIJ_xY9uvIlrjsRpwxfSrGJgB0", "geometry": {"location": {"lat": 13.0788003, "lng": 77.4251634}, "viewport": {"northeast": {"lat": 13.0801711302915, "lng": 77.42644673029152}, "southwest": {"lat": 13.0774731697085, "lng": 77.4237487697085}}}, "place_id": "ChIJ_xY9uvIlrjsRpwxfSrGJgB0", "plus_code": {"global_code": "7J5V3CHG+G3", "compound_code": "3CHG+G3 Arasinakunte, Karnataka, India"}, "vicinity": "Unnamed Road, Veeraiah Nagar, Arasinakunte", "photos": [{"photo_reference": "ATtYBwJi8CH43qsQ7MFQpz4msn3xVaCn-IVcx1eoRXnmaTh95J30Rk6-bfi9orp64Efyy1KUZEF05dNSnNKmDeGqLPIkNgLIKqRe6csCd2m0AvQ9azCQQVm-HvStHGobJrMQTgcARBSCEDmNkJMKGNLJ2_O8B1jeO9ECAXyGXmqPGn5CfnTT", "width": 720, "html_attributions": ["<a href=\"https://maps.google.com/maps/contrib/100025467218631566914\">Naveen Manchigaiah</a>"], "height": 416}], "scope": "GOOGLE", "business_status": "OPERATIONAL", "types": ["school", "point_of_interest", "establishment"], "icon": "https://maps.gstatic.com/mapfiles/place_api/icons/v1/png_71/school-71.png"}, {"name": "Geetha", "reference": "ChIJ29KcC9UlrjsRFffE-krlq6Y", "geometry": {"location": {"lat": 13.078682, "lng": 77.424847}, "viewport": {"northeast": {"lat": 13.0800843802915, "lng": 77.42627528029149}, "southwest": {"lat": 13.0773864197085, "lng": 77.42357731970849}}}, "place_id": "ChIJ29KcC9UlrjsRFffE-krlq6Y", "plus_code": {"global_code": "7J5V3CHF+FW", "compound_code": "3CHF+FW Arasinakunte, Karnataka, India"}, "vicinity": "Arasinakunte", "scope": "GOOGLE", "business_status": "OPERATIONAL", "types": ["school", "point_of_interest", "establishment"], "icon": "https://maps.gstatic.com/mapfiles/place_api/icons/v1/png_71/school-71.png"}, {"name": "Govt Rural Talented Backward Class School", "reference": "ChIJea4Z2-kkrjsRvtVSm5J5A9s", "geometry": {"location": {"lat": 13.0742477, "lng": 77.4394227}, "viewport": {"northeast": {"lat": 13.0757290302915, "lng": 77.4407849302915}, "southwest": {"lat": 13.0730310697085, "lng": 77.43808696970848}}}, "place_id": "ChIJea4Z2-kkrjsRvtVSm5J5A9s", "plus_code": {"global_code": "7J5V3CFQ+MQ", "compound_code": "3CFQ+MQ Bengaluru, Karnataka, India"}, "vicinity": "Adakamaranahall, Bengaluru", "scope": "GOOGLE", "business_status": "OPERATIONAL", "types": ["school", "point_of_interest", "establishment"], "icon": "https://maps.gstatic.com/mapfiles/place_api/icons/v1/png_71/school-71.png"}, {"rating": 5, "user_ratings_total": 1, "name": "Skyward School", "reference": "ChIJX0NqcR4lrjsRgnOwqDDYcjk", "geometry": {"location": {"lat": 13.0770589, "lng": 77.4224285}, "viewport": {"northeast": {"lat": 13.0784393302915, "lng": 77.4237845302915}, "southwest": {"lat": 13.0757413697085, "lng": 77.42108656970849}}}, "place_id": "ChIJX0NqcR4lrjsRgnOwqDDYcjk", "plus_code": {"global_code": "7J5V3CGC+RX", "compound_code": "3CGC+RX Bengaluru, Karnataka, India"}, "vicinity": "Subaschandra Bose Road, Adarsh Nagara, Arasanakunte, Neelamangala, Bengaluru", "scope": "GOOGLE", "business_status": "OPERATIONAL", "types": ["school", "point_of_interest", "establishment"], "icon": "https://maps.gstatic.com/mapfiles/place_api/icons/v1/png_71/school-71.png"}, {"rating": 5, "user_ratings_total": 1, "name": "Government Higher Primary School arishinakunte", "reference": "ChIJ_wQCzfwlrjsRNpSBIIWnKH4", "geometry": {"location": {"lat": 13.0765713, "lng": 77.42106079999999}, "viewport": {"northeast": {"lat": 13.0779376802915, "lng": 77.4223083802915}, "southwest": {"lat": 13.0752397197085, "lng": 77.41961041970849}}}, "place_id": "ChIJ_wQCzfwlrjsRNpSBIIWnKH4", "plus_code": {"global_code": "7J5V3CGC+JC", "compound_code": "3CGC+JC Arasinakunte, Karnataka, India"}, "vicinity": "Arasinakunte", "photos": [{"photo_reference": "ATtYBwLb9X5-woegOLB9Y9m_r2LMvDZFEpA3K_YckmwBwCjrgeRIBHuSPP1xomliROVo3r_s_zM7H7q0oAx_iczS-2aP57BIRyatzb0YKy46n7rwn1zhK4o-sT3xRB50l--RxfGw1qbQGtYCiffV56Y1YDU72Jyv4GfypBdt5K6rb1CC5LHo", "width": 1920, "html_attributions": ["<a href=\"https://maps.google.com/maps/contrib/103076302307148971190\">Ronil Pereira</a>"], "height": 1080}], "scope": "GOOGLE", "business_status": "OPERATIONAL", "types": ["school", "point_of_interest", "establishment"], "icon": "https://maps.gstatic.com/mapfiles/place_api/icons/v1/png_71/school-71.png"}, {"rating": 5, "user_ratings_total": 1, "name": "Govt School", "reference": "ChIJS2jXjh4lrjsRaX90DpzCl9w", "geometry": {"location": {"lat": 13.0765569, "lng": 77.4209961}, "viewport": {"northeast": {"lat": 13.0779181302915, "lng": 77.4222737802915}, "southwest": {"lat": 13.0752201697085, "lng": 77.4195758197085}}}, "place_id": "ChIJS2jXjh4lrjsRaX90DpzCl9w", "plus_code": {"global_code": "7J5V3CGC+J9", "compound_code": "3CGC+J9 Arasinakunte, Karnataka, India"}, "vicinity": "Adarsh Nagar, Arasinakunte", "photos": [{"photo_reference": "ATtYBwJkzRkaKhqDOK894Er6qOcNshbZGLoEGbzxIP3X-r1ODBvIQMeVBNSrswPGmSQRnNS5Ie8GpZerX91NkYZ1zJYdJlJf9Fp6xsGouVCU5zaeb6_Cc7xEftkWP7-RcZ-Cl9ZLDxKmz9lmuydxLdbiPufH39lKXzwGyQs7okhXrg8prGie", "width": 2592, "html_attributions": ["<a href=\"https://maps.google.com/maps/contrib/112887559887727500652\">praveen pravi</a>"], "height": 1944}], "scope": "GOOGLE", "business_status": "OPERATIONAL", "types": ["school", "point_of_interest", "establishment"], "icon": "https://maps.gstatic.com/mapfiles/place_api/icons/v1/png_71/school-71.png"}, {"name": "ICA EDU SKILLS ARISINAKUNTE", "reference": "ChIJqwTKZGglrjsRwmBbXeXXpPQ", "geometry": {"location": {"lat": 13.0801706, "lng": 77.4252281}, "viewport": {"northeast": {"lat": 13.0815092802915, "lng": 77.4266205802915}, "southwest": {"lat": 13.0788113197085, "lng": 77.42392261970849}}}, "place_id": "ChIJqwTKZGglrjsRwmBbXeXXpPQ", "plus_code": {"global_code": "7J5V3CJG+33", "compound_code": "3CJG+33 Nelamangala Town, Karnataka, India"}, "vicinity": "Nagarur colony, Nelamangala Town", "photos": [{"photo_reference": "ATtYBwK1ede63D5TTdx-SSsq4H74ZWejm8GZXhuBfueIB3vbNF3C3-_tLqrKS3vOEQ0loOrYTdygThOg7BFBHmhhnLzNLIX0VxqXNsK_4I6QRrYOMTRI35fZbpwR1UYXwofdtpBmazn0f1hR1tOO15m9KJuZbEHcZVgtAP2vosLwgvRX16A5", "width": 810, "html_attributions": ["<a href=\"https://maps.google.com/maps/contrib/100527981145801122147\">manoj manu</a>"], "height": 773}], "scope": "GOOGLE", "business_status": "OPERATIONAL", "types": ["school", "point_of_interest", "establishment"], "icon": "https://maps.gstatic.com/mapfiles/place_api/icons/v1/png_71/school-71.png"}]}