{"status": "OK", "next_page_token": "ATtYBwJtDn7rAMHhVfxig9d4O4QnE8PakhGakSrZmyKmgc1lkMWKhRhHjOiYzSikgjJIkTYqg5pCoKegN9sCbukmWbuAcRjoYQRsrdXielhf1K56zkVzfL5kSpX30Ypp6fIrR6vBI03DtEbj_o_wQXkUVG_dNwCZhbVSLC1U11GG8iWEXIB8hCp7xXVzFJIFNmQedPSVTU_oFc7bbNaX3GeEE32jx2DBBJwt_cJDB3dVfjxm-sNI_6gVvZadwthwOPa4K-pGgI_zg009UCQ6D29tehDB__Ooz0KYdj6GYejCalpbuw0bQA0OBOdrg0C-rXrnJc-ZezyRa3NcCWDRx2MqXeeOiAT0X5763VUaOIaKflqnGLdFRJrdzYgVoRjtgkEDf_e0RUFrJolLhMw2wM15g_GDL4HQtvf0xO0xgXXoOPcxXbVn3qA", "html_attributions": [], "results": [{"rating": 4, "user_ratings_total": 5, "name": "EuroKids Pre-School", "reference": "ChIJiad4dKEirjsR40GQFhNLtCg", "geometry": {"location": {"lat": 13.0753611, "lng": 77.557022}, "viewport": {"northeast": {"lat": 13.0766913802915, "lng": 77.5584159302915}, "southwest": {"lat": 13.0739934197085, "lng": 77.5557179697085}}}, "place_id": "ChIJiad4dKEirjsR40GQFhNLtCg", "plus_code": {"global_code": "7J5V3HG4+4R", "compound_code": "3HG4+4R Bengaluru, Karnataka, India"}, "vicinity": "No.802, 7th Cross, 7th Main,, BEL Layout 4th Block, Vidyaranyapura, Bengaluru", "photos": [{"photo_reference": "ATtYBwK6v07HGpIeB8DGSsilnNMXR4NMznvu-TqRFiy1rbMYREZKTmxocI53ezWRHNXhlUVFIZ8ZS-VLZhpBG-nquUXvjueefbvN_BnWqfrn2-NGozZ-wzFkLYVE_Xi_lEQK6WISrUuohIfRqArYE7daRz4BOpiIIquzoi3-NxyONtPgFya1", "width": 3120, "html_attributions": ["<a href=\"https://maps.google.com/maps/contrib/116261280194936374105\">shruthi bettadapura</a>"], "height": 4160}], "scope": "GOOGLE", "business_status": "OPERATIONAL", "types": ["school", "point_of_interest", "establishment"], "icon": "https://maps.gstatic.com/mapfiles/place_api/icons/v1/png_71/school-71.png"}, {"rating": 5, "user_ratings_total": 6, "name": "Hello Kids - Vidyaranyapura", "reference": "ChIJK5wTl6YirjsRDclGdgOWZfU", "geometry": {"location": {"lat": 13.072007, "lng": 77.55674549999999}, "viewport": {"northeast": {"lat": 13.0733434302915, "lng": 77.5581244302915}, "southwest": {"lat": 13.0706454697085, "lng": 77.5554264697085}}}, "place_id": "ChIJK5wTl6YirjsRDclGdgOWZfU", "plus_code": {"global_code": "7J5V3HC4+RM", "compound_code": "3HC4+RM Bengaluru, Karnataka, India"}, "vicinity": "979, 2nd Block BEL Layout, Behind Canara Bank, Bengaluru", "photos": [{"photo_reference": "ATtYBwLztuAxU0ZH-WfFPKn5nSGddzOdStPqste7bNwwYOg0tIzrLPaa7Q0laEZhsXJXwNUgM30NeKM6Z2yqNq8DkFYkKJV9rdhXKKaUogx52YEIgo-R0tGH3NoDmVLV3eXJ-wyljpRZLxvYNw9pW_AIAeI45wA7pVBYCpqdpN_trsIkE4GG", "width": 4608, "html_attributions": ["<a href=\"https://maps.google.com/maps/contrib/109061549710439320678\">Sneha Vasanth</a>"], "height": 3456}], "scope": "GOOGLE", "business_status": "OPERATIONAL", "types": ["school", "point_of_interest", "establishment"], "icon": "https://maps.gstatic.com/mapfiles/place_api/icons/v1/png_71/school-71.png"}, {"rating": 4.7, "user_ratings_total": 3, "name": "Equi Brain Kidz", "reference": "ChIJwd8NRqQirjsR9_ZfIJhAPfs", "geometry": {"location": {"lat": 13.070649, "lng": 77.554446}, "viewport": {"northeast": {"lat": 13.0719576802915, "lng": 77.55577658029151}, "southwest": {"lat": 13.0692597197085, "lng": 77.55307861970849}}}, "place_id": "ChIJwd8NRqQirjsR9_ZfIJhAPfs", "plus_code": {"global_code": "7J5V3HC3+7Q", "compound_code": "3HC3+7Q Bengaluru, Karnataka, India"}, "vicinity": "34, 1st Main Road, BEL Layout 1st Block, Vidyaranyapura, Bengaluru", "photos": [{"photo_reference": "ATtYBwIKPlO0Btvwh3HldbjUveLjFW9szb2pDcnrJcd0zUF4W7-Za192ZIHRbGLRAyLCvpopZKp8A0mWrZI3JjGdQZtMLmWvoZgl9BjQQjFzaSwUc_cxyV1evzNfEIPK4y8jZ1a04ulKddM_9vevYohGy5tl92zTpO3j2wqqDzjA0-Q2hm-r", "width": 3264, "html_attributions": ["<a href=\"https://maps.google.com/maps/contrib/113602825658531772190\">Sakunthala N</a>"], "height": 2448}], "scope": "GOOGLE", "business_status": "OPERATIONAL", "types": ["school", "point_of_interest", "establishment"], "icon": "https://maps.gstatic.com/mapfiles/place_api/icons/v1/png_71/school-71.png"}, {"rating": 5, "user_ratings_total": 2, "name": "Yuki Pre-School and Daycare", "reference": "ChIJBVAfDa8irjsRXTILWqTp3kE", "geometry": {"location": {"lat": 13.065469, "lng": 77.55390109999999}, "viewport": {"northeast": {"lat": 13.0667354302915, "lng": 77.5555996302915}, "southwest": {"lat": 13.0640374697085, "lng": 77.55290166970849}}}, "place_id": "ChIJBVAfDa8irjsRXTILWqTp3kE", "plus_code": {"global_code": "7J5V3H83+5H", "compound_code": "3H83+5H Bengaluru, Karnataka, India"}, "vicinity": "Bloom Field garden, Vidyaranyapura, No- 8, 3rd Cross Road, Bengaluru", "scope": "GOOGLE", "business_status": "OPERATIONAL", "types": ["school", "point_of_interest", "establishment"], "icon": "https://maps.gstatic.com/mapfiles/place_api/icons/v1/png_71/school-71.png"}, {"rating": 3.8, "user_ratings_total": 58, "permanently_closed": true, "name": "Samsidh MLZS, Vidyaranyapura", "reference": "ChIJMwx686QirjsRUSeFjgjd2WU", "geometry": {"location": {"lat": 13.0640006, "lng": 77.5530833}, "viewport": {"northeast": {"lat": 13.0652336302915, "lng": 77.5543923802915}, "southwest": {"lat": 13.0625356697085, "lng": 77.5516944197085}}}, "place_id": "ChIJMwx686QirjsRUSeFjgjd2WU", "plus_code": {"global_code": "7J5V3H73+J6", "compound_code": "3H73+J6 Bengaluru, Karnataka, India"}, "vicinity": "no. 9, 1st main, ramanna garden, ramachandrapura, vidyaranyapura post, bangalore, 560097", "photos": [{"photo_reference": "ATtYBwIdFSePxDOrMahAjfKpxR8Ide5UMLEqlnup56QFIW9PDRI5H6MwZEdx5LjpEia0dyfxc1FqAl1EZKDfz7sY3uH6i2MN0qOKOdZYzx-yw1y-nT5Yir2P8C2K7MSka_kyfptEIQcW-4L0UVijt7ZUjCYpwTTtd6Ec2_-S_itA_m4FLECA", "width": 1280, "html_attributions": ["<a href=\"https://maps.google.com/maps/contrib/103352417827654510711\">Samsidh Mount Litera Zee School</a>"], "height": 720}], "scope": "GOOGLE", "business_status": "CLOSED_TEMPORARILY", "types": ["school", "point_of_interest", "establishment"], "icon": "https://maps.gstatic.com/mapfiles/place_api/icons/v1/png_71/school-71.png"}, {"rating": 4.7, "user_ratings_total": 201, "name": "SAM'S Montessori Teacher Training - Vidyaranyapura(HO)", "reference": "ChIJM3Q3zKUirjsR4P6gfMciJJ4", "geometry": {"location": {"lat": 13.0725932, "lng": 77.5566352}, "viewport": {"northeast": {"lat": 13.0739503802915, "lng": 77.5579877802915}, "southwest": {"lat": 13.0712524197085, "lng": 77.55528981970849}}}, "opening_hours": {"open_now": false}, "place_id": "ChIJM3Q3zKUirjsR4P6gfMciJJ4", "plus_code": {"global_code": "7J5V3HF4+2M", "compound_code": "3HF4+2M Bengaluru, Karnataka, India"}, "vicinity": "960, 2nd Cross Road, BEL Layout 2nd Block, BEL Layout, Vidyaranyapura, Bengaluru", "photos": [{"photo_reference": "ATtYBwIGdxth7se-D-_0POLO45qt_l7VHBthD9yM-zWr5oS83nvnS95WeGFK5sjkdzU-Bj0Z6RWD3cX9ggl4tYLm9k065mmlVI9VN-miHN9I8Q2HMNE-FCGPfEgj_IYg5OGpxPPT9bK5Xn6XYdoeWiaVkzjMcJ63nDAS0rF_MlJTduPCMw8", "width": 3120, "html_attributions": ["<a href=\"https://maps.google.com/maps/contrib/103184098437799913454\">SAM&#39;S Montessori Teacher Training - Vidyaranyapura(HO)</a>"], "height": 4160}], "scope": "GOOGLE", "business_status": "OPERATIONAL", "types": ["school", "point_of_interest", "establishment"], "icon": "https://maps.gstatic.com/mapfiles/place_api/icons/v1/png_71/school-71.png"}, {"rating": 3.4, "user_ratings_total": 44, "permanently_closed": true, "name": "Sri Chaitanya school", "reference": "ChIJMUpftqEirjsRSDFttWIuKNI", "geometry": {"location": {"lat": 13.0619535, "lng": 77.5522797}, "viewport": {"northeast": {"lat": 13.0634341302915, "lng": 77.55366223029151}, "southwest": {"lat": 13.0607361697085, "lng": 77.5509642697085}}}, "place_id": "ChIJMUpftqEirjsRSDFttWIuKNI", "plus_code": {"global_code": "7J5V3H62+QW", "compound_code": "3H62+QW Bengaluru, Karnataka, India"}, "vicinity": "Plot No:21/3,Chamundeswari Layout, Jalahalli East, Devappa Layout Main Road, Ramachandrapura, Vidyaranyapura, Bengaluru", "photos": [{"photo_reference": "ATtYBwLG671psolAz-IkLGA8XjmOs-bkYKR3LrEQRgiTzUIfqrtoWEKxz4xRvUQqvkzmcKQ7saqXC2Hu1gKsTLnXWqRCxXg3_o-4qYNXs4mUIcTCZxKULIkW8Bcd8KSyovQiPYzlqYlPXScmGKtbGa1LbJRCd9flEXmqZiOHNilhhal1BUaE", "width": 1072, "html_attributions": ["<a href=\"https://maps.google.com/maps/contrib/104895337229070723728\">Sri Chaitanya school</a>"], "height": 712}], "scope": "GOOGLE", "business_status": "CLOSED_TEMPORARILY", "types": ["school", "point_of_interest", "establishment"], "icon": "https://maps.gstatic.com/mapfiles/place_api/icons/v1/png_71/school-71.png"}, {"rating": 4.2, "user_ratings_total": 25, "name": "Rajarajeshwari High School", "reference": "ChIJI0yCKawirjsRzwuAlY2CuhA", "geometry": {"location": {"lat": 13.0610487, "lng": 77.5541015}, "viewport": {"northeast": {"lat": 13.0623899302915, "lng": 77.55547478029152}, "southwest": {"lat": 13.0596919697085, "lng": 77.5527768197085}}}, "place_id": "ChIJI0yCKawirjsRzwuAlY2CuhA", "plus_code": {"global_code": "7J5V3H63+CJ", "compound_code": "3H63+CJ Bengaluru, Karnataka, India"}, "vicinity": "Dodda Bommasandra, Vidyaranyapura, Bengaluru", "photos": [{"photo_reference": "ATtYBwL7mAND_Z-s4MYARzr1odLZGi0icg7xAZewVnf_4RypjrpVaqesoti7XeImolKpfNiw_j97hjN_nWY4WLoGc4DMlyJyYRpuwaA60ohreIV4nJDkxJT_Xf69R7zh6478RWSPc4FZCt1HQ22gMahfTI1YpmuuweUeYo2nEU0JFjaFZfVQ", "width": 3216, "html_attributions": ["<a href=\"https://maps.google.com/maps/contrib/100876163183312929634\">GuruPrasad Manur</a>"], "height": 2136}], "scope": "GOOGLE", "business_status": "OPERATIONAL", "types": ["secondary_school", "school", "point_of_interest", "establishment"], "icon": "https://maps.gstatic.com/mapfiles/place_api/icons/v1/png_71/school-71.png"}, {"rating": 4.8, "user_ratings_total": 12, "name": "Mahesh Memorial Kendriya Vidyashala", "reference": "ChIJxxCwKqwirjsRmE9C0ISO_Ok", "geometry": {"location": {"lat": 13.0612467, "lng": 77.5533848}, "viewport": {"northeast": {"lat": 13.0626184302915, "lng": 77.55462613029151}, "southwest": {"lat": 13.0599204697085, "lng": 77.55192816970849}}}, "opening_hours": {"open_now": false}, "place_id": "ChIJxxCwKqwirjsRmE9C0ISO_Ok", "plus_code": {"global_code": "7J5V3H63+F9", "compound_code": "3H63+F9 Bengaluru, Karnataka, India"}, "vicinity": "#33,, Rajarajeshwari School Road, Doddabommasandra, Bengaluru", "photos": [{"photo_reference": "ATtYBwL1_imBmEmswMkbbjzbRW7ZzwsKSivpRikGzRaw5NFi4Cdezla3GRehS_ZsUZ8qTisry3mmxQa07HvHVwFJ1f9SPrQfCkWGtMLcNz7oEqcKqRIk1OpCM1nOMoJwVk9ONgeSjZNF7vFtTR9nf-Db6f-s4kkaIodAmKjPvW5swHeiCpTg", "width": 5184, "html_attributions": ["<a href=\"https://maps.google.com/maps/contrib/117615386887577830735\">shanmukhappa g manur</a>"], "height": 3456}], "scope": "GOOGLE", "business_status": "OPERATIONAL", "types": ["school", "point_of_interest", "establishment"], "icon": "https://maps.gstatic.com/mapfiles/place_api/icons/v1/png_71/school-71.png"}, {"name": "Wise i pens", "reference": "ChIJAxdKqaEirjsRL_YCGKrPWr0", "geometry": {"location": {"lat": 13.076021, "lng": 77.558633}, "viewport": {"northeast": {"lat": 13.0772161802915, "lng": 77.55993863029151}, "southwest": {"lat": 13.0745182197085, "lng": 77.55724066970849}}}, "place_id": "ChIJAxdKqaEirjsRL_YCGKrPWr0", "plus_code": {"global_code": "7J5V3HG5+CF", "compound_code": "3HG5+CF Bengaluru, Karnataka, India"}, "vicinity": "Apoorva Mansion, Dodda Bomma Sandra, Vidyaranyapura post, Bengaluru", "scope": "GOOGLE", "business_status": "OPERATIONAL", "types": ["school", "point_of_interest", "establishment"], "icon": "https://maps.gstatic.com/mapfiles/place_api/icons/v1/png_71/school-71.png"}, {"rating": 4, "user_ratings_total": 66, "name": "Air Force School", "reference": "ChIJNXdnyKQirjsRpelx-jTBhT8", "geometry": {"location": {"lat": 13.0705567, "lng": 77.5516085}, "viewport": {"northeast": {"lat": 13.0719056802915, "lng": 77.5529574802915}, "southwest": {"lat": 13.0692077197085, "lng": 77.55025951970849}}}, "place_id": "ChIJNXdnyKQirjsRpelx-jTBhT8", "plus_code": {"global_code": "7J5V3HC2+6J", "compound_code": "3HC2+6J Bengaluru, Karnataka, India"}, "vicinity": "Air Force Station Road, Renaissance HVV Villas, Jalahalli East, Bengaluru", "photos": [{"photo_reference": "ATtYBwKhyr37Y89ZPMKsovLP0L7YNeNcuEW5r2S64MDP-L5Vma6vgcSmDVciSrN6x6KQZ4wsAZ7D0u1S7gmibOB0NmeauAm2e61HGOTX1F58R23XH7XdUsx2yq4uD1-kNRS0b0_pz_fEWIUVXDDPU0zAUwegMogkVoYuZ1InavjPAn9l6mp4", "width": 4160, "html_attributions": ["<a href=\"https://maps.google.com/maps/contrib/116896656077233027686\">Srikar Siddarth</a>"], "height": 3120}], "scope": "GOOGLE", "business_status": "OPERATIONAL", "types": ["school", "point_of_interest", "establishment"], "icon": "https://maps.gstatic.com/mapfiles/place_api/icons/v1/png_71/school-71.png"}, {"rating": 5, "user_ratings_total": 1, "name": "Urdu School", "reference": "ChIJ_45lNZgirjsRD3JC2DWHZWE", "geometry": {"location": {"lat": 13.0808944, "lng": 77.5518682}, "viewport": {"northeast": {"lat": 13.0822047802915, "lng": 77.55320188029151}, "southwest": {"lat": 13.0795068197085, "lng": 77.55050391970849}}}, "place_id": "ChIJ_45lNZgirjsRD3JC2DWHZWE", "plus_code": {"global_code": "7J5V3HJ2+9P", "compound_code": "3HJ2+9P Bengaluru, Karnataka, India"}, "vicinity": "No 21, Jamia Masjid Road, Srinidhi Layout, Mohammed Sab Palya, Vidyaranyapura, Bengaluru", "scope": "GOOGLE", "business_status": "OPERATIONAL", "types": ["school", "point_of_interest", "establishment"], "icon": "https://maps.gstatic.com/mapfiles/place_api/icons/v1/png_71/school-71.png"}, {"rating": 4.7, "user_ratings_total": 47, "name": "Kidzee Vidyaranyapura", "reference": "ChIJtwEAkLsXrjsRdrrbZHXvmhA", "geometry": {"location": {"lat": 13.0757944, "lng": 77.5600953}, "viewport": {"northeast": {"lat": 13.0771261802915, "lng": 77.5614880302915}, "southwest": {"lat": 13.0744282197085, "lng": 77.5587900697085}}}, "opening_hours": {"open_now": false}, "place_id": "ChIJtwEAkLsXrjsRdrrbZHXvmhA", "plus_code": {"global_code": "7J5V3HG6+82", "compound_code": "3HG6+82 Bengaluru, Karnataka, India"}, "vicinity": "No.1, 11th Main, Near BESCOM bill pay center, HMT Layout 1st Block, Vidyaranyapura, Bengaluru", "photos": [{"photo_reference": "ATtYBwI4xqyOj2lu40SkX4EgdLQHnAzyfICVxXMDopt7TlyAeErvMJhzPYEtTEux0S0I8f-O_qBNSTGfo8Ouo_Hqs3NG_bYVrp8WnTLXy3moovZ4CR12uXZLcQs_sQ5qsCI_4FRMKGE6rA4RITojfDiUpE4YYmCj2Sel4N5i4M2ZLu_mbE5V", "width": 3264, "html_attributions": ["<a href=\"https://maps.google.com/maps/contrib/101457391082058502265\">Kidzee Vidyaranyapura</a>"], "height": 1836}], "scope": "GOOGLE", "business_status": "OPERATIONAL", "types": ["school", "point_of_interest", "establishment"], "icon": "https://maps.gstatic.com/mapfiles/place_api/icons/v1/png_71/school-71.png"}, {"rating": 4.2, "user_ratings_total": 48, "name": "Navodaya Kishore Kendra", "reference": "ChIJST1cg5UirjsR9BygITDLCLw", "geometry": {"location": {"lat": 13.0783463, "lng": 77.5422289}, "viewport": {"northeast": {"lat": 13.0796956302915, "lng": 77.5435827302915}, "southwest": {"lat": 13.0769976697085, "lng": 77.54088476970848}}}, "opening_hours": {"open_now": false}, "place_id": "ChIJST1cg5UirjsR9BygITDLCLw", "plus_code": {"global_code": "7J5V3GHR+8V", "compound_code": "3GHR+8V Bengaluru, Karnataka, India"}, "vicinity": "Singapura Village, Varadharaja Nagar, Bengaluru", "photos": [{"photo_reference": "ATtYBwL5B7TCeK08sT6IvbcaTC7gdCIYJouxGC8hZ347thRswnTC0hjK7TTIUjwiRPQmwmpXGnSwKFvRdg2y3W8bs5BUJ_5aM2uECiOd4yKYFUqjugzbkWsKmoqofAyAgLDa0u613K17IKt7xnplZkfETL-pK3YrSjCrIjK8W5LppatxRfN7", "width": 4128, "html_attributions": ["<a href=\"https://maps.google.com/maps/contrib/111993082941737039125\">Abdul Khadar Shaikh</a>"], "height": 2322}], "scope": "GOOGLE", "business_status": "OPERATIONAL", "types": ["school", "point_of_interest", "establishment"], "icon": "https://maps.gstatic.com/mapfiles/place_api/icons/v1/png_71/school-71.png"}, {"rating": 3.9, "user_ratings_total": 49, "name": "St Philomena's English School", "reference": "ChIJHdy8fqkirjsRzu_8dDUCq-o", "geometry": {"location": {"lat": 13.0618977, "lng": 77.55874779999999}, "viewport": {"northeast": {"lat": 13.0632374302915, "lng": 77.56020713029149}, "southwest": {"lat": 13.0605394697085, "lng": 77.55750916970848}}}, "place_id": "ChIJHdy8fqkirjsRzu_8dDUCq-o", "plus_code": {"global_code": "7J5V3H65+QF", "compound_code": "3H65+QF Bengaluru, Karnataka, India"}, "vicinity": "Vidyaranyapura Main Road, Near-Petrol Bank, Doddabommasandra, Bengaluru", "photos": [{"photo_reference": "ATtYBwJiMPBCF-funX0W-Sx3AGjOYtNFvkoEyJGsCFO7kMokoFA_EbjSWp_gl4oghyAwbYcV9QpncTmo4zqtRKGJmvcmr2Xs7JxsSV3qfAM9FFxkfLiPNxDpts83pGBodYONdxki45oYKLWxNhAsKqTgcm1iu3RR2C8ofy0IkQdQScIKrU1A", "width": 4608, "html_attributions": ["<a href=\"https://maps.google.com/maps/contrib/114116421265376994918\">Kiran Kalal</a>"], "height": 2592}], "scope": "GOOGLE", "business_status": "OPERATIONAL", "types": ["school", "point_of_interest", "establishment"], "icon": "https://maps.gstatic.com/mapfiles/place_api/icons/v1/png_71/school-71.png"}, {"permanently_closed": true, "name": "Sri Siddeshwara industrial training institute", "reference": "ChIJtxBSM6AirjsRAFcw2TGjXAY", "geometry": {"location": {"lat": 13.0775202, "lng": 77.55908029999999}, "viewport": {"northeast": {"lat": 13.0788694302915, "lng": 77.56042973029152}, "southwest": {"lat": 13.0761714697085, "lng": 77.5577317697085}}}, "place_id": "ChIJtxBSM6AirjsRAFcw2TGjXAY", "plus_code": {"global_code": "7J5V3HH5+2J", "compound_code": "3HH5+2J Bengaluru, Karnataka, India"}, "vicinity": "12\u00b099'62.0\"N 76\u00b008'22, 0th Cross, Vidyaranyapura, Bengaluru", "photos": [{"photo_reference": "ATtYBwJIgQhfZi2Cb3OyXk6k4xFJIYwL-R2mRNHR23FdQHG8EUni2tRo5S4GAiZ-ZELJS-VqVT2cu2BrnXq_VZnJx_dMkYZSxGhnsCkhGrQ_Cbul1UY8QP6SDecxWDVPcRJqwtEOi_bmH-4CdpT3Tb0yRFh-uZzWF0R1MoX8hcsIhf-c5atE", "width": 1032, "html_attributions": ["<a href=\"https://maps.google.com/maps/contrib/101642043181302086168\">Sri Siddeshwara industrial training institute</a>"], "height": 774}], "scope": "GOOGLE", "business_status": "CLOSED_TEMPORARILY", "types": ["school", "point_of_interest", "establishment"], "icon": "https://maps.gstatic.com/mapfiles/place_api/icons/v1/png_71/school-71.png"}, {"rating": 4.5, "user_ratings_total": 153, "name": "Kendriya Vidyalaya No. 2 Jalahalli East", "reference": "ChIJjelIPbcirjsRDr42hUSbQhs", "geometry": {"location": {"lat": 13.0643808, "lng": 77.54347489999999}, "viewport": {"northeast": {"lat": 13.0658372302915, "lng": 77.5447773802915}, "southwest": {"lat": 13.0631392697085, "lng": 77.54207941970849}}}, "place_id": "ChIJjelIPbcirjsRDr42hUSbQhs", "plus_code": {"global_code": "7J5V3G7V+Q9", "compound_code": "3G7V+Q9 Bengaluru, Karnataka, India"}, "vicinity": "AFS Jalahalli East, Bangalore Jalahalli East, Jalahalli East, Bengaluru", "photos": [{"photo_reference": "ATtYBwLMu5d8NlSQHXWw3AAg1MJXpCU3RJzTLHu6H_Mku36rAGY5nuJCSZohmSXdAB888ay-1R7eq2kAQ987LjfbNLRky6pHHuzZSC5kAIw11wSHYOwL22XiNJ1VTtair61CLVmVJGwhmh-h8slvUzT6q-5KBX1lqSjxgx168VN3LYxujY-3", "width": 4160, "html_attributions": ["<a href=\"https://maps.google.com/maps/contrib/103741988444343714673\">Leslie Michael</a>"], "height": 3120}], "scope": "GOOGLE", "business_status": "OPERATIONAL", "types": ["school", "point_of_interest", "establishment"], "icon": "https://maps.gstatic.com/mapfiles/place_api/icons/v1/png_71/school-71.png"}, {"rating": 4.8, "user_ratings_total": 5, "permanently_closed": true, "name": "Smartkidz play school", "reference": "ChIJrw6ar7MirjsRfMSh6uA06Bs", "geometry": {"location": {"lat": 13.057719, "lng": 77.54933659999999}, "viewport": {"northeast": {"lat": 13.0589818302915, "lng": 77.55069008029149}, "southwest": {"lat": 13.0562838697085, "lng": 77.54799211970848}}}, "place_id": "ChIJrw6ar7MirjsRfMSh6uA06Bs", "plus_code": {"global_code": "7J5V3G5X+3P", "compound_code": "3G5X+3P Bengaluru, Karnataka, India"}, "vicinity": "No. 19, Ashwini Villa, Opp. Gangamma temple Gangamma CircleJalahalli, Bengaluru", "photos": [{"photo_reference": "ATtYBwLIXy2xk1Vlt1CT3iSv-VDluUvouzOFhwJtTRte7TsmUR8Zhvnbfaon7_HTjW6aiI5bsTJYUdlzgCb_NUWXV_JA5Cy57zVH5MP4gv8AgHyb3ClZIFdJ7VaCcq5tIESME4CejiBuLUv_sexjGQCDupgsEu8xfWNToW1RaIfEWBDLOKrO", "width": 2576, "html_attributions": ["<a href=\"https://maps.google.com/maps/contrib/116753287294855214924\">rekha sundar</a>"], "height": 1188}], "scope": "GOOGLE", "business_status": "CLOSED_TEMPORARILY", "types": ["school", "point_of_interest", "establishment"], "icon": "https://maps.gstatic.com/mapfiles/place_api/icons/v1/png_71/school-71.png"}, {"name": "Chrysalis Kids, Vidyaranyapura", "reference": "ChIJO0lPfp8irjsRktFbWwStPiU", "geometry": {"location": {"lat": 13.0786766, "lng": 77.5588587}, "viewport": {"northeast": {"lat": 13.0800157802915, "lng": 77.5602453802915}, "southwest": {"lat": 13.0773178197085, "lng": 77.5575474197085}}}, "opening_hours": {"open_now": false}, "place_id": "ChIJO0lPfp8irjsRktFbWwStPiU", "plus_code": {"global_code": "7J5V3HH5+FG", "compound_code": "3HH5+FG Bengaluru, Karnataka, India"}, "vicinity": "# 711, Rashtrakavi Kuvempu Road, Vidyaranyapura Main Road, Bengaluru", "scope": "GOOGLE", "business_status": "OPERATIONAL", "types": ["school", "point_of_interest", "establishment"], "icon": "https://maps.gstatic.com/mapfiles/place_api/icons/v1/png_71/school-71.png"}, {"rating": 4, "user_ratings_total": 59, "name": "MES Kishore Kendra Public School", "reference": "ChIJ4_FvmHUYrjsR90dSCDkr3QM", "geometry": {"location": {"lat": 13.0730108, "lng": 77.5532989}, "viewport": {"northeast": {"lat": 13.0742980302915, "lng": 77.5547967302915}, "southwest": {"lat": 13.0716000697085, "lng": 77.5520987697085}}}, "opening_hours": {"open_now": false}, "place_id": "ChIJ4_FvmHUYrjsR90dSCDkr3QM", "plus_code": {"global_code": "7J5V3HF3+68", "compound_code": "3HF3+68 Bengaluru, Karnataka, India"}, "vicinity": "Site No.5, 3rd Stage, 4th Main, 11th B Cross Road, BEL Layout 1st Block, Vidyaranyapura, Bengaluru", "photos": [{"photo_reference": "ATtYBwI_PXVdt3csMfspd9PJaHhGNTkBOXz6Qk_WL4WH6xwVWjuGcdhnYNoy8XrT86ZcJ4yC2XKzvDqvDbpRV4p-XkS7d3PzGBGt-gEutzZp0jStWvP0VY9bNtSOQJVmNaHuSAGt6P_Fca4ZcCIiSwuF2fUrtkeiHl8JKe412TtZhCFZOdmE", "width": 4160, "html_attributions": ["<a href=\"https://maps.google.com/maps/contrib/107652947969442307080\">Sudheendra BM</a>"], "height": 3120}], "scope": "GOOGLE", "business_status": "OPERATIONAL", "types": ["school", "point_of_interest", "establishment"], "icon": "https://maps.gstatic.com/mapfiles/place_api/icons/v1/png_71/school-71.png"}]}