{"status": "OK", "next_page_token": "ATtYBwIRGHe1HyWQBEXSNlaEHgK0mFZeJfl9RU_z2_PuTYNAIryx7niTzt_M_cba8aUQrWt93htVPfC8k0262dj5IX6nNSTTX9ptow0bR1HyJti8V3y0cbR_BMCewWQknoVM3oNPGBNIn75Pd8wq19CU0ng-6QC74LIQbpnLgC4EJUJzyLRgQruw06YPlj3Bwc_o5W01jaZAKoReAvkr9vziRvanQ6qsCtOUBpuUvE2eBKb6HYvg68_xhVQuUNqkdC4ndvtMOYf-6dyrYhvD03FNSyvT75dehqsjDgSPck_3RVMVW8SJm7kSmeCQxg6Bxh_VGCClAbumb1Ox1V2D0GaadUId-GxjtSyWMSxQ7iv0tZz-w5vF2DAJZED7TYYLrUJbgByadmPys4tL6NkzapY-eDr1M-UQ0NtyScH3kJoLmV2iPcH__UM", "html_attributions": [], "results": [{"rating": 3.4, "user_ratings_total": 14, "name": "AMC School", "reference": "ChIJd8P9KV9qrjsRiOb5EyXwTho", "geometry": {"location": {"lat": 12.8283172, "lng": 77.5880565}, "viewport": {"northeast": {"lat": 12.8294117302915, "lng": 77.5893531802915}, "southwest": {"lat": 12.8267137697085, "lng": 77.58665521970848}}}, "place_id": "ChIJd8P9KV9qrjsRiOb5EyXwTho", "plus_code": {"global_code": "7J4VRHHQ+86", "compound_code": "RHHQ+86 Bengaluru, Karnataka, India"}, "vicinity": "18th K.M, Bannerghatta Main Road, Bengaluru", "photos": [{"photo_reference": "ATtYBwJo2wJ_8dCADaB3aZVrv80iX8educqWp64Bi7CHlcD_LVCHNmN-k9C8yNiPSbzBzh7mHRk-OQLKMbxJZxYyH4FPujBO_to8uMErPq2qnIvtueRdGKbjkloK9TMw7CmpQ7nvRc5fDhItkLnZnygHCAEnTZ58dIPfhA5fiuxpjIUEgSGd", "width": 2048, "html_attributions": ["<a href=\"https://maps.google.com/maps/contrib/102805323989948118541\">Anilkumar Kolar Ramesh</a>"], "height": 1536}], "scope": "GOOGLE", "business_status": "OPERATIONAL", "types": ["school", "point_of_interest", "establishment"], "icon": "https://maps.gstatic.com/mapfiles/place_api/icons/v1/png_71/school-71.png"}, {"rating": 5, "user_ratings_total": 2, "name": "Government High School", "reference": "ChIJq6qqal5qrjsRSFWjMZcCMDQ", "geometry": {"location": {"lat": 12.8270269, "lng": 77.5862992}, "viewport": {"northeast": {"lat": 12.8283296802915, "lng": 77.5878042302915}, "southwest": {"lat": 12.8256317197085, "lng": 77.58510626970849}}}, "opening_hours": {"open_now": true}, "place_id": "ChIJq6qqal5qrjsRSFWjMZcCMDQ", "plus_code": {"global_code": "7J4VRHGP+RG", "compound_code": "RHGP+RG Bengaluru, Karnataka, India"}, "vicinity": "Kalkere, Bengaluru", "photos": [{"photo_reference": "ATtYBwKzVIlioRTME_WB0w8YKCBM8_uFlKGthMHaYXYGRCQnqgKx2msYUJF7bzXzZgQeaGX7t0uN7GaLHnCoh2Bh1Dem91BmzxSCdAkmQzqcKYbBCD7X4IU4OFpe3QAnBLTv8CGzPejYVvigi5zphxYi78iwupeXoxMeh9tBIJk9QQJ1vYuM", "width": 720, "html_attributions": ["<a href=\"https://maps.google.com/maps/contrib/109160205615600460209\">Government High School</a>"], "height": 849}], "scope": "GOOGLE", "business_status": "OPERATIONAL", "types": ["secondary_school", "school", "point_of_interest", "establishment"], "icon": "https://maps.gstatic.com/mapfiles/place_api/icons/v1/png_71/school-71.png"}, {"rating": 4.7, "user_ratings_total": 3, "name": "NMIMS Library", "reference": "ChIJZQ0UFFxqrjsRN9c1t6SN5kc", "geometry": {"location": {"lat": 12.8241353, "lng": 77.5890768}, "viewport": {"northeast": {"lat": 12.8253792302915, "lng": 77.59041813029151}, "southwest": {"lat": 12.8226812697085, "lng": 77.58772016970849}}}, "place_id": "ChIJZQ0UFFxqrjsRN9c1t6SN5kc", "plus_code": {"global_code": "7J4VRHFQ+MJ", "compound_code": "RHFQ+MJ Kalkere, Karnataka, India"}, "vicinity": "Kalkere", "scope": "GOOGLE", "business_status": "OPERATIONAL", "types": ["school", "point_of_interest", "establishment"], "icon": "https://maps.gstatic.com/mapfiles/place_api/icons/v1/png_71/school-71.png"}, {"rating": 4.2, "user_ratings_total": 50, "name": "Sudarshan Vidya Mandir Institutions campus 3", "reference": "ChIJB6u_hFBqrjsRVrd80HPbJto", "geometry": {"location": {"lat": 12.8240036, "lng": 77.5965331}, "viewport": {"northeast": {"lat": 12.8253347302915, "lng": 77.59769258029151}, "southwest": {"lat": 12.8226367697085, "lng": 77.5949946197085}}}, "opening_hours": {"open_now": false}, "place_id": "ChIJB6u_hFBqrjsRVrd80HPbJto", "plus_code": {"global_code": "7J4VRHFW+JJ", "compound_code": "RHFW+JJ Vaderahalli, Karnataka, India"}, "vicinity": "no.43/1,43/2,sakalavara road near tulips resort,laxmipura banargatta road", "photos": [{"photo_reference": "ATtYBwJa7PLFhBOhSI1tke5Zv8oysMZbZOuBk4_XimJrFoS8J7ZQcA-abChrEdDgY-T43nlwoVFwnAET45lnIQKdEZIjCUMCdjmk6HGhsCEeqUatjS0ucVHA2i4yy29mDX9amF00O8WnxoxJdmFmZZW66Llibd3WDhQWG_yeZyT7BmJ9Vz3j", "width": 4000, "html_attributions": ["<a href=\"https://maps.google.com/maps/contrib/103663996120509530690\">Kushal D R</a>"], "height": 3000}], "scope": "GOOGLE", "business_status": "OPERATIONAL", "types": ["school", "point_of_interest", "establishment"], "icon": "https://maps.gstatic.com/mapfiles/place_api/icons/v1/png_71/school-71.png"}, {"rating": 4, "user_ratings_total": 49, "permanently_closed": true, "name": "Chrysalis High Bannerghatta Road", "reference": "ChIJkaNDLWdqrjsR4YT4CnEzLx4", "geometry": {"location": {"lat": 12.8243197, "lng": 77.5819811}, "viewport": {"northeast": {"lat": 12.8256557802915, "lng": 77.5834641802915}, "southwest": {"lat": 12.8229578197085, "lng": 77.5807662197085}}}, "place_id": "ChIJkaNDLWdqrjsR4YT4CnEzLx4", "plus_code": {"global_code": "7J4VRHFJ+PQ", "compound_code": "RHFJ+PQ Bengaluru, Karnataka, India"}, "vicinity": "36-37, State Highway 87, Gottigere, Bengaluru", "photos": [{"photo_reference": "ATtYBwIYs0uWOSe9IZJK5CSTDBXGrkzKJ6UgkR6VARYwmHca3D0QqfdqcXIK6Bk-5_WlvLznnQotTnctJPB9549DGIPh4pW3zOUk_fLLvUfK6sKrSt6n3naAQlGyRRxnjh7QrXiUoAf-aqcA0CpkoqjAgefOxa7grKwqTcOr5g_xKxQb12jL", "width": 4160, "html_attributions": ["<a href=\"https://maps.google.com/maps/contrib/113094386745753569220\">Arul Sekar</a>"], "height": 3120}], "scope": "GOOGLE", "business_status": "CLOSED_TEMPORARILY", "types": ["secondary_school", "school", "point_of_interest", "establishment"], "icon": "https://maps.gstatic.com/mapfiles/place_api/icons/v1/png_71/school-71.png"}, {"rating": 3.9, "user_ratings_total": 89, "name": "Ryan International School", "reference": "ChIJ4fmHCmhqrjsRxM07sbgr9Qc", "geometry": {"location": {"lat": 12.8200267, "lng": 77.58362029999999}, "viewport": {"northeast": {"lat": 12.8213732802915, "lng": 77.58507943029151}, "southwest": {"lat": 12.8186753197085, "lng": 77.5823814697085}}}, "place_id": "ChIJ4fmHCmhqrjsRxM07sbgr9Qc", "plus_code": {"global_code": "7J4VRHCM+2C", "compound_code": "RHCM+2C Bengaluru, Karnataka, India"}, "vicinity": "Survey No.13, Opp. Confident Cascade, Bannerghatta Main Road, Bengaluru", "photos": [{"photo_reference": "ATtYBwJQGd4MYA9F9rnvZDDOsKgQryjhy7qI-zIrMel_oEXavRjL5amU8-_t0F3BWfmlURlmpjVVkrVRwr8vSsFUVbLmeg_o61aHBJy0lx-n_zdWBjPYiiM5oineORJuTCS1RwUuejaFrJs4M1fFf_tILu32Hd0bGW-MfhVfr_of4AQgeN-v", "width": 5184, "html_attributions": ["<a href=\"https://maps.google.com/maps/contrib/101605660265985372124\">Daniel Wesley</a>"], "height": 3456}], "scope": "GOOGLE", "business_status": "OPERATIONAL", "types": ["school", "point_of_interest", "establishment"], "icon": "https://maps.gstatic.com/mapfiles/place_api/icons/v1/png_71/school-71.png"}, {"name": "G L P S. Kalkere", "reference": "ChIJe9fntFhqrjsRfYiwVLD8GSM", "geometry": {"location": {"lat": 12.830278, "lng": 77.590695}, "viewport": {"northeast": {"lat": 12.8316871802915, "lng": 77.5920617802915}, "southwest": {"lat": 12.8289892197085, "lng": 77.5893638197085}}}, "place_id": "ChIJe9fntFhqrjsRfYiwVLD8GSM", "plus_code": {"global_code": "7J4VRHJR+47", "compound_code": "RHJR+47 Kalkere, Karnataka, India"}, "vicinity": "Kalkere", "scope": "GOOGLE", "business_status": "OPERATIONAL", "types": ["school", "point_of_interest", "establishment"], "icon": "https://maps.gstatic.com/mapfiles/place_api/icons/v1/png_71/school-71.png"}, {"name": "School", "reference": "ChIJe9fntFhqrjsRWAO_3KEVLy0", "geometry": {"location": {"lat": 12.830278, "lng": 77.590695}, "viewport": {"northeast": {"lat": 12.8316871802915, "lng": 77.5920617802915}, "southwest": {"lat": 12.8289892197085, "lng": 77.5893638197085}}}, "opening_hours": {"open_now": true}, "place_id": "ChIJe9fntFhqrjsRWAO_3KEVLy0", "plus_code": {"global_code": "7J4VRHJR+47", "compound_code": "RHJR+47 Kalkere, Karnataka, India"}, "vicinity": "Kalkere", "scope": "GOOGLE", "business_status": "OPERATIONAL", "types": ["school", "point_of_interest", "establishment"], "icon": "https://maps.gstatic.com/mapfiles/place_api/icons/v1/png_71/school-71.png"}, {"name": "AMC Engineering College Playgroud (Cricket)", "reference": "ChIJn-Ui0c9rrjsRGbk7udignEk", "geometry": {"location": {"lat": 12.8286484, "lng": 77.58943359999999}, "viewport": {"northeast": {"lat": 12.8299961302915, "lng": 77.5910732302915}, "southwest": {"lat": 12.8272981697085, "lng": 77.5883752697085}}}, "place_id": "ChIJn-Ui0c9rrjsRGbk7udignEk", "plus_code": {"global_code": "7J4VRHHQ+FQ", "compound_code": "RHHQ+FQ Kalkere, Karnataka, India"}, "vicinity": "Kalkere", "scope": "GOOGLE", "business_status": "OPERATIONAL", "types": ["school", "point_of_interest", "establishment"], "icon": "https://maps.gstatic.com/mapfiles/place_api/icons/v1/png_71/school-71.png"}, {"rating": 1, "user_ratings_total": 1, "name": "Gov L.Primary School", "reference": "ChIJo-KdK1lqrjsRsq23mIqlFig", "geometry": {"location": {"lat": 12.8283646, "lng": 77.59077909999999}, "viewport": {"northeast": {"lat": 12.8297081302915, "lng": 77.5921974302915}, "southwest": {"lat": 12.8270101697085, "lng": 77.5894994697085}}}, "opening_hours": {"open_now": true}, "place_id": "ChIJo-KdK1lqrjsRsq23mIqlFig", "plus_code": {"global_code": "7J4VRHHR+88", "compound_code": "RHHR+88 Kalkere, Karnataka, India"}, "vicinity": "Kalkere", "scope": "GOOGLE", "business_status": "OPERATIONAL", "types": ["school", "point_of_interest", "establishment"], "icon": "https://maps.gstatic.com/mapfiles/place_api/icons/v1/png_71/school-71.png"}, {"rating": 5, "user_ratings_total": 6, "name": "AMC PU COLLEGE", "reference": "ChIJt_SBehxrrjsRWnwposrotIc", "geometry": {"location": {"lat": 12.8294238, "lng": 77.5879309}, "viewport": {"northeast": {"lat": 12.8306573802915, "lng": 77.58926198029152}, "southwest": {"lat": 12.8279594197085, "lng": 77.5865640197085}}}, "opening_hours": {"open_now": false}, "place_id": "ChIJt_SBehxrrjsRWnwposrotIc", "plus_code": {"global_code": "7J4VRHHQ+Q5", "compound_code": "RHHQ+Q5 Kalkere, Karnataka, India"}, "vicinity": "18th KM, BANNERGHATTA ROAD AMC GROUP OF INSTITUTIONS OPP: UNION BANK OF INDIA & KALKERE POST OFFICE, Kalkere", "photos": [{"photo_reference": "ATtYBwK3ActheUnfDOY1Z9vxL8lISs70IjSdsmTt4Ko4qi4r1ZyqiMYChGJkI149Y1Dh9FC-dg0FUfAjUSKX8axg9Ubn_CF8CE-ufE4PUyHvEWdvL3gAlU7T3FrBjyxsEaLP6QKxW4I56tODYaTxdhLYU86PQO7XIT2Z7iybr62RzzZSjRtr", "width": 749, "html_attributions": ["<a href=\"https://maps.google.com/maps/contrib/114188745608436136271\">AMC PU COLLEGE</a>"], "height": 627}], "scope": "GOOGLE", "business_status": "OPERATIONAL", "types": ["university", "school", "point_of_interest", "establishment"], "icon": "https://maps.gstatic.com/mapfiles/place_api/icons/v1/png_71/school-71.png"}, {"rating": 4, "user_ratings_total": 1, "name": "Amc Campus", "reference": "ChIJz0qE_l5qrjsRxRLUm-JNUV4", "geometry": {"location": {"lat": 12.8283172, "lng": 77.5880565}, "viewport": {"northeast": {"lat": 12.8294117302915, "lng": 77.5893531802915}, "southwest": {"lat": 12.8267137697085, "lng": 77.58665521970848}}}, "place_id": "ChIJz0qE_l5qrjsRxRLUm-JNUV4", "plus_code": {"global_code": "7J4VRHHQ+86", "compound_code": "RHHQ+86 Bengaluru, Karnataka, India"}, "vicinity": "Ambedkar Medical College Road, Kalkere, Bengaluru", "scope": "GOOGLE", "business_status": "OPERATIONAL", "types": ["school", "point_of_interest", "establishment"], "icon": "https://maps.gstatic.com/mapfiles/place_api/icons/v1/png_71/school-71.png"}, {"rating": 4.7, "user_ratings_total": 3, "name": "Union bank STC bangalor Executive hostel", "reference": "ChIJQTUy7V9qrjsR7M9-ivrsNiY", "geometry": {"location": {"lat": 12.830432, "lng": 77.586282}, "viewport": {"northeast": {"lat": 12.8321331302915, "lng": 77.58745508029149}, "southwest": {"lat": 12.8294351697085, "lng": 77.58475711970848}}}, "place_id": "ChIJQTUy7V9qrjsR7M9-ivrsNiY", "plus_code": {"global_code": "7J4VRHJP+5G", "compound_code": "RHJP+5G Kalkere, Karnataka, India"}, "vicinity": "Kalkere", "photos": [{"photo_reference": "ATtYBwIYt9wwe4C6T8qzFqg9gsk5jz5dmtbC8RDwtusyYUZTH_IuYiBJbva7f0KtCLv6orpDF-ySOD_qxMJuhYNHnCeHg3fKc8QHdJ4sQZc3rtt2vqmRbj6S0WCDJs499k0Vx0Zm_hPVt3j87XVbUVgFEwpvXzEruf0M3vbwf7tb5gsBMDX6", "width": 4128, "html_attributions": ["<a href=\"https://maps.google.com/maps/contrib/107980637076175227567\">Joydeep Talukdar</a>"], "height": 3096}], "scope": "GOOGLE", "business_status": "OPERATIONAL", "types": ["school", "point_of_interest", "establishment"], "icon": "https://maps.gstatic.com/mapfiles/place_api/icons/v1/png_71/school-71.png"}, {"rating": 5, "user_ratings_total": 1, "name": "Euro School Bannerugatta main Road", "reference": "ChIJrcYM9SJrrjsR1dP853vO8H4", "geometry": {"location": {"lat": 12.8276386, "lng": 77.58663849999999}, "viewport": {"northeast": {"lat": 12.8289602802915, "lng": 77.58807523029151}, "southwest": {"lat": 12.8262623197085, "lng": 77.58537726970849}}}, "place_id": "ChIJrcYM9SJrrjsR1dP853vO8H4", "plus_code": {"global_code": "7J4VRHHP+3M", "compound_code": "RHHP+3M Kalkere, Karnataka, India"}, "vicinity": "Kalkere", "scope": "GOOGLE", "business_status": "OPERATIONAL", "types": ["school", "point_of_interest", "establishment"], "icon": "https://maps.gstatic.com/mapfiles/place_api/icons/v1/png_71/school-71.png"}, {"rating": 5, "user_ratings_total": 1, "name": "EuroSchool Bannerugatta", "reference": "ChIJn7vPv5NrrjsRx90pdSqj0X8", "geometry": {"location": {"lat": 12.8275369, "lng": 77.5865687}, "viewport": {"northeast": {"lat": 12.8288546802915, "lng": 77.58802303029151}, "southwest": {"lat": 12.8261567197085, "lng": 77.58532506970849}}}, "place_id": "ChIJn7vPv5NrrjsRx90pdSqj0X8", "plus_code": {"global_code": "7J4VRHHP+2J", "compound_code": "RHHP+2J Kalkere, Karnataka, India"}, "vicinity": "Kalkere", "scope": "GOOGLE", "business_status": "OPERATIONAL", "types": ["school", "point_of_interest", "establishment"], "icon": "https://maps.gstatic.com/mapfiles/place_api/icons/v1/png_71/school-71.png"}, {"name": "Govt School Kalkere", "reference": "ChIJK0aPY7VrrjsRi1XIrw-p2zQ", "geometry": {"location": {"lat": 12.8270269, "lng": 77.5862992}, "viewport": {"northeast": {"lat": 12.8283296802915, "lng": 77.5878042302915}, "southwest": {"lat": 12.8256317197085, "lng": 77.58510626970849}}}, "place_id": "ChIJK0aPY7VrrjsRi1XIrw-p2zQ", "plus_code": {"global_code": "7J4VRHGP+RG", "compound_code": "RHGP+RG Kalkere, Karnataka, India"}, "vicinity": "near GLPS, Kalkere", "scope": "GOOGLE", "business_status": "OPERATIONAL", "types": ["school", "point_of_interest", "establishment"], "icon": "https://maps.gstatic.com/mapfiles/place_api/icons/v1/png_71/school-71.png"}, {"name": "Global Indian International School", "reference": "ChIJ8ftCXc9rrjsRql8HRIcoOs4", "geometry": {"location": {"lat": 12.8395271, "lng": 77.58886129999999}, "viewport": {"northeast": {"lat": 12.8408760802915, "lng": 77.5902102802915}, "southwest": {"lat": 12.8381781197085, "lng": 77.58751231970848}}}, "place_id": "ChIJ8ftCXc9rrjsRql8HRIcoOs4", "plus_code": {"global_code": "7J4VRHQQ+RG", "compound_code": "RHQQ+RG Bengaluru, Karnataka, India"}, "vicinity": "Bannerghatta Main Road, Bengaluru", "scope": "GOOGLE", "business_status": "OPERATIONAL", "types": ["school", "point_of_interest", "establishment"], "icon": "https://maps.gstatic.com/mapfiles/place_api/icons/v1/png_71/school-71.png"}, {"permanently_closed": true, "name": "Base Tution", "reference": "ChIJTSLt3FZqrjsRAUvKRu-XKCk", "geometry": {"location": {"lat": 12.8274094, "lng": 77.5997833}, "viewport": {"northeast": {"lat": 12.8289982802915, "lng": 77.60116148029151}, "southwest": {"lat": 12.8263003197085, "lng": 77.5984635197085}}}, "place_id": "ChIJTSLt3FZqrjsRAUvKRu-XKCk", "plus_code": {"global_code": "7J4VRHGX+XW", "compound_code": "RHGX+XW Bengaluru, Karnataka, India"}, "vicinity": "Hennur 5th Cross, Bengaluru", "scope": "GOOGLE", "business_status": "CLOSED_TEMPORARILY", "types": ["school", "point_of_interest", "establishment"], "icon": "https://maps.gstatic.com/mapfiles/place_api/icons/v1/png_71/school-71.png"}, {"name": "Rockwood Green Public School", "reference": "ChIJKzINL8drrjsR2tL8pu82yJY", "geometry": {"location": {"lat": 12.8399859, "lng": 77.5942546}, "viewport": {"northeast": {"lat": 12.8413291302915, "lng": 77.5956209802915}, "southwest": {"lat": 12.8386311697085, "lng": 77.5929230197085}}}, "place_id": "ChIJKzINL8drrjsR2tL8pu82yJY", "plus_code": {"global_code": "7J4VRHQV+XP", "compound_code": "RHQV+XP Bengaluru, Karnataka, India"}, "vicinity": "Bengaluru", "scope": "GOOGLE", "business_status": "OPERATIONAL", "types": ["school", "point_of_interest", "establishment"], "icon": "https://maps.gstatic.com/mapfiles/place_api/icons/v1/png_71/school-71.png"}, {"name": "Orchids School", "reference": "ChIJ6Wkv229rrjsR-Bq9wi6CDPQ", "geometry": {"location": {"lat": 12.8400768, "lng": 77.5943759}, "viewport": {"northeast": {"lat": 12.8414263302915, "lng": 77.59572328029151}, "southwest": {"lat": 12.8387283697085, "lng": 77.5930253197085}}}, "place_id": "ChIJ6Wkv229rrjsR-Bq9wi6CDPQ", "plus_code": {"global_code": "7J4VRHRV+2Q", "compound_code": "RHRV+2Q Bengaluru, Karnataka, India"}, "vicinity": "C K Palya Road, Hommadevanahalli, Bengaluru", "scope": "GOOGLE", "business_status": "OPERATIONAL", "types": ["school", "point_of_interest", "establishment"], "icon": "https://maps.gstatic.com/mapfiles/place_api/icons/v1/png_71/school-71.png"}]}