{"status": "OK", "html_attributions": [], "results": [{"name": "Government Upper Primary School, Gantiganahalli", "reference": "ChIJf93xuMsYrjsR1cikWkLE4Iw", "geometry": {"location": {"lat": 13.1437352, "lng": 77.58866979999999}, "viewport": {"northeast": {"lat": 13.1450760302915, "lng": 77.58995613029151}, "southwest": {"lat": 13.1423780697085, "lng": 77.5872581697085}}}, "place_id": "ChIJf93xuMsYrjsR1cikWkLE4Iw", "plus_code": {"global_code": "7J5V4HVQ+FF", "compound_code": "4HVQ+FF Gantiganahalli, Bengaluru, Karnataka, India"}, "vicinity": "Doddaballapura, Bangalore, Gantiganahalli", "scope": "GOOGLE", "business_status": "OPERATIONAL", "types": ["primary_school", "school", "point_of_interest", "establishment"], "icon": "https://maps.gstatic.com/mapfiles/place_api/icons/v1/png_71/school-71.png"}, {"rating": 5, "user_ratings_total": 4, "name": "Nalanda Vidyalaya", "reference": "ChIJcQh09b4ZrjsRuc0acykdICM", "geometry": {"location": {"lat": 13.1461804, "lng": 77.5907463}, "viewport": {"northeast": {"lat": 13.1475302802915, "lng": 77.5921098802915}, "southwest": {"lat": 13.1448323197085, "lng": 77.5894119197085}}}, "opening_hours": {"open_now": false}, "place_id": "ChIJcQh09b4ZrjsRuc0acykdICM", "plus_code": {"global_code": "7J5V4HWR+F7", "compound_code": "4HWR+F7 Bengaluru, Karnataka, India"}, "vicinity": "Doddapayana layout, Gantiganahalli, Bengaluru", "photos": [{"photo_reference": "ATtYBwLiE35iPZ-zo7Cs4hu9_DT2k895xkWBdZyjdQjm3uth8mwSTGh_363lrIrS2AuvbO9nwpmhQpp-85vX4YqzElOLXGinnbhda9HGNLl-chlBFRG_OaC6-rqUwI4SG6h5f9J2rH0XLIWbEXGvm1sFsFEVicePH7LsjtF_W1Xgd6C8Oldd", "width": 540, "html_attributions": ["<a href=\"https://maps.google.com/maps/contrib/100228238972648860169\">Nalanda Vidyalaya</a>"], "height": 303}], "scope": "GOOGLE", "business_status": "OPERATIONAL", "types": ["school", "point_of_interest", "establishment"], "icon": "https://maps.gstatic.com/mapfiles/place_api/icons/v1/png_71/school-71.png"}, {"rating": 5, "user_ratings_total": 1, "name": "Vidyashilp Community Trust adopted School", "reference": "ChIJ7a6CoUEZrjsR34bcMUZORI0", "geometry": {"location": {"lat": 13.1437096, "lng": 77.5886967}, "viewport": {"northeast": {"lat": 13.1450489302915, "lng": 77.5899715802915}, "southwest": {"lat": 13.1423509697085, "lng": 77.5872736197085}}}, "place_id": "ChIJ7a6CoUEZrjsR34bcMUZORI0", "plus_code": {"global_code": "7J5V4HVQ+FF", "compound_code": "4HVQ+FF Bengaluru, Karnataka, India"}, "vicinity": "Gantiganahalli, Bengaluru", "scope": "GOOGLE", "business_status": "OPERATIONAL", "types": ["school", "point_of_interest", "establishment"], "icon": "https://maps.gstatic.com/mapfiles/place_api/icons/v1/png_71/school-71.png"}, {"rating": 5, "user_ratings_total": 1, "name": "SRI SAI TAEKWONDO ACADEMY", "reference": "ChIJt5scuZAZrjsRV9u9z0P6Qy8", "geometry": {"location": {"lat": 13.1426436, "lng": 77.58331280000002}, "viewport": {"northeast": {"lat": 13.1441796802915, "lng": 77.5846224302915}, "southwest": {"lat": 13.1414817197085, "lng": 77.5819244697085}}}, "opening_hours": {"open_now": false}, "place_id": "ChIJt5scuZAZrjsRV9u9z0P6Qy8", "plus_code": {"global_code": "7J5V4HVM+38", "compound_code": "4HVM+38 Bengaluru, Karnataka, India"}, "vicinity": "Gantiganahalli, Bengaluru", "photos": [{"photo_reference": "ATtYBwKI4MhaihWV64goWaXqlaymbkNKDbyZjGV6MYXyJNHdVlCxA78mv1MC-Qj2DzdgMmzKspihJ_y4Sg22fCAPStMJtuZ6wRX2nIbQyIjPJKBGyI_PI2cPabJCWHO72tYz41ni72AAMhd8HJ9vzxwJTgLeoC8wURA-KDirsguxgpxhKDOH", "width": 720, "html_attributions": ["<a href=\"https://maps.google.com/maps/contrib/103834919843972616137\">ambi uppi</a>"], "height": 960}], "scope": "GOOGLE", "business_status": "OPERATIONAL", "types": ["school", "point_of_interest", "establishment"], "icon": "https://maps.gstatic.com/mapfiles/place_api/icons/v1/png_71/school-71.png"}, {"name": "Jain university ?", "reference": "ChIJSwsHTSIZrjsRqxbSsiA3EaY", "geometry": {"location": {"lat": 13.1428259, "lng": 77.59916539999999}, "viewport": {"northeast": {"lat": 13.1441748802915, "lng": 77.6005143802915}, "southwest": {"lat": 13.1414769197085, "lng": 77.5978164197085}}}, "place_id": "ChIJSwsHTSIZrjsRqxbSsiA3EaY", "plus_code": {"global_code": "7J5V4HVX+4M", "compound_code": "4HVX+4M Bengaluru, Karnataka, India"}, "vicinity": "6th Cross, Swami Vivekananda Nagar, Ganganahalli, Bengaluru", "scope": "GOOGLE", "business_status": "OPERATIONAL", "types": ["school", "point_of_interest", "establishment"], "icon": "https://maps.gstatic.com/mapfiles/place_api/icons/v1/png_71/school-71.png"}]}