{"status": "OK", "next_page_token": "ATtYBwIeisehg38-VULSD92niF6YF8IYsAvFPYgGMAdGLto7ABdwt1SEndxRGALC8sPwjI612VcND2A6N1kd5SD-_iz-9Bd731HUdN8fAeHixtd7HeaNwXdDq0KVwxMyJL6QQKzcuqhAe-ATcYGVrdu9Tap-34EdR5dGIqlp7hYbLUdcp9qY3UhZVA-0be7gk7PeclXjHooKbPiCuxHbF8_YfmvZUplDEkWwnPrpRpd4as2fR1mDCAzw00J2WMgphSn4LNB4dsJ0W4L5AjGQ7PoyBSqnAsDdE_i_zuJRAU1pA0qFE9ucfWiNKV7qVzWYD6bpyRNkYtXmxRxsll04n0i6R7SJA4v_CS-s3uHHevwOIJqGTwvJpGlA2aY14hKBM3r8Gq0C-5MpctrfL5n7JP6Zh71FUMppvmWgkP7zDjzvJgYlnMvrq-oIM57GRTZRUrxWXjIlkEmiEXofBQaLXvn9U_IawjuiZbFnkWMHxM5RixnibKlnvaF6lFU7Y9UQO9OJlxM_VfDD3C7gDCGCwgfga8-U7WNAKkzTry8aMCuhfVCxI0O3BDJccQeV--OfwB9pI7mzxLB30xSNujOtn3u3VgRSN0rSt_3wee177W1XAogkK_qotmNPk9qPucXc_ahy5xnFa-jJ", "html_attributions": [], "results": [{"rating": 4.1, "user_ratings_total": 77, "name": "VIBGYOR High School, BTM Layout, Bengaluru", "reference": "ChIJoQCv_DsUrjsR3cSBsCBJArY", "geometry": {"location": {"lat": 12.9103844, "lng": 77.6038093}, "viewport": {"northeast": {"lat": 12.9117758802915, "lng": 77.6051600802915}, "southwest": {"lat": 12.9090779197085, "lng": 77.60246211970849}}}, "place_id": "ChIJoQCv_DsUrjsR3cSBsCBJArY", "plus_code": {"global_code": "7J4VWJ63+5G", "compound_code": "WJ63+5G Bengaluru, Karnataka, India"}, "vicinity": "behind Shoppers Stop, P.M Building, No 41, 4th Main, behind Shoppers Stop, Bannerghatta Main Road, NS Palya, Stage 2, Bengaluru", "photos": [{"photo_reference": "ATtYBwIHheNqAaTDGbJU8oPTsLi0cRR13BaX9O8ojXgDi9GBhqaZC50G7_ohncoFqwU27iCmhcFiflVU7cIzpkBn-UguKT37RCL-_PPbVgfHTI3fKRnwSOxTaXWcxvNQBLDd3DchBwZYGr43fpqt5pj9ljL-RMidEMKNi52dHWNu8Bfdw9Jg", "width": 800, "html_attributions": ["<a href=\"https://maps.google.com/maps/contrib/116250306937634915156\">VIBGYOR High School, BTM Layout, Bengaluru</a>"], "height": 534}], "scope": "GOOGLE", "business_status": "OPERATIONAL", "types": ["school", "point_of_interest", "establishment"], "icon": "https://maps.gstatic.com/mapfiles/place_api/icons/v1/png_71/school-71.png"}, {"rating": 1, "user_ratings_total": 1, "permanently_closed": true, "name": "Planet Kids Preschool", "reference": "ChIJ6eol3uEUrjsRuthZsYe6hC0", "geometry": {"location": {"lat": 12.9042549, "lng": 77.6080154}, "viewport": {"northeast": {"lat": 12.9056038802915, "lng": 77.60936438029151}, "southwest": {"lat": 12.9029059197085, "lng": 77.60666641970849}}}, "place_id": "ChIJ6eol3uEUrjsRuthZsYe6hC0", "plus_code": {"global_code": "7J4VWJ35+P6", "compound_code": "WJ35+P6 Bengaluru, Karnataka, India"}, "vicinity": "No. 175, 'Santhosha', 2nd Cross, 9th Main Road, 2nd Stage, B.T. M Layout,, Bengaluru", "scope": "GOOGLE", "business_status": "CLOSED_TEMPORARILY", "types": ["school", "point_of_interest", "establishment"], "icon": "https://maps.gstatic.com/mapfiles/place_api/icons/v1/png_71/school-71.png"}, {"rating": 4.8, "user_ratings_total": 22, "name": "Sambhavam Center for Autism", "reference": "ChIJI0qTAgMVrjsRqIFcEjeCOus", "geometry": {"location": {"lat": 12.9134351, "lng": 77.6048376}, "viewport": {"northeast": {"lat": 12.9148489802915, "lng": 77.6061818802915}, "southwest": {"lat": 12.9121510197085, "lng": 77.6034839197085}}}, "opening_hours": {"open_now": false}, "place_id": "ChIJI0qTAgMVrjsRqIFcEjeCOus", "plus_code": {"global_code": "7J4VWJ73+9W", "compound_code": "WJ73+9W Bengaluru, Karnataka, India"}, "vicinity": "452, 7th Cross Road, Mico Layout, Stage 2, BTM Layout, Bengaluru", "photos": [{"photo_reference": "ATtYBwIrRlTlDOPkfrF1R8j0GXASaqC_gUtrzE8-hd5TMiBw6rfT1EfY2aafzWv1uW_DxXhFpnzLcdpOLjpZSW-6ZObgG57EeEhVsDvW3I9clhK09V079NiVKd7yorYVoSBW8X-drcPiHXPLTsNc017i0FkIPiizIe1pfUnPp0sfyQ5QKayh", "width": 4048, "html_attributions": ["<a href=\"https://maps.google.com/maps/contrib/110299546888445332614\">Prabhat Raju</a>"], "height": 3036}], "scope": "GOOGLE", "business_status": "OPERATIONAL", "types": ["school", "point_of_interest", "establishment"], "icon": "https://maps.gstatic.com/mapfiles/place_api/icons/v1/png_71/school-71.png"}, {"rating": 4.7, "user_ratings_total": 3, "name": "D.S. Preschool And Daycare D.S.Educational Trust BTM Layout", "reference": "ChIJV6L0OwMVrjsRGnL9y-b7QP4", "geometry": {"location": {"lat": 12.912156, "lng": 77.6040022}, "viewport": {"northeast": {"lat": 12.9135008802915, "lng": 77.60527358029151}, "southwest": {"lat": 12.9108029197085, "lng": 77.6025756197085}}}, "opening_hours": {"open_now": false}, "place_id": "ChIJV6L0OwMVrjsRGnL9y-b7QP4", "plus_code": {"global_code": "7J4VWJ63+VJ", "compound_code": "WJ63+VJ Bengaluru, Karnataka, India"}, "vicinity": "590, 1st Main Road, Mico Layout, Stage 2, BTM Layout, Bengaluru", "photos": [{"photo_reference": "ATtYBwKqPMMyuER6fSec_MsOCmVfAdJ-4Pkq4v_OZp9tqVDADEJlVIc6ojT-7rJTrmFJHyBvk9B-4UsYlCa87IXfo0heRey71-GeCRG0tPCL51KVW9d7Zj-iHFzJ6fukRKNufXyQOS1QDvoRBgkf7VdI8C148zfS11cDCyChxnhIzcagXdA", "width": 2448, "html_attributions": ["<a href=\"https://maps.google.com/maps/contrib/113585463486009665278\">Ghan Shyam</a>"], "height": 3264}], "scope": "GOOGLE", "business_status": "OPERATIONAL", "types": ["school", "point_of_interest", "establishment"], "icon": "https://maps.gstatic.com/mapfiles/place_api/icons/v1/png_71/school-71.png"}, {"name": "Leap Years", "reference": "ChIJI9ZmNwIVrjsRIICcQki0jrs", "geometry": {"location": {"lat": 12.915717, "lng": 77.6056138}, "viewport": {"northeast": {"lat": 12.9170667302915, "lng": 77.60697503029151}, "southwest": {"lat": 12.9143687697085, "lng": 77.6042770697085}}}, "place_id": "ChIJI9ZmNwIVrjsRIICcQki0jrs", "plus_code": {"global_code": "7J4VWJ84+76", "compound_code": "WJ84+76 Bengaluru, Karnataka, India"}, "vicinity": "272,, 6th Main Road, Mico Layout, Stage 2, Bengaluru", "scope": "GOOGLE", "business_status": "OPERATIONAL", "types": ["school", "point_of_interest", "establishment"], "icon": "https://maps.gstatic.com/mapfiles/place_api/icons/v1/png_71/school-71.png"}, {"rating": 3.7, "user_ratings_total": 227, "name": "Orchids The International School, BTM", "reference": "ChIJ6w0yRCEVrjsRJDn9zIIPtbE", "geometry": {"location": {"lat": 12.9043266, "lng": 77.605289}, "viewport": {"northeast": {"lat": 12.9055334302915, "lng": 77.60660998029151}, "southwest": {"lat": 12.9028354697085, "lng": 77.6039120197085}}}, "opening_hours": {"open_now": false}, "place_id": "ChIJ6w0yRCEVrjsRJDn9zIIPtbE", "plus_code": {"global_code": "7J4VWJ34+P4", "compound_code": "WJ34+P4 Bengaluru, Karnataka, India"}, "vicinity": "near caf\u00e9 coffee day, 3rd main, 6th cross, near caf\u00e9 coffee day, main road, NS Palya, Munivenkatppa Layout, Bilekahalli, Bengaluru", "photos": [{"photo_reference": "ATtYBwL7aTOaZQJnp8nP3lltKW2bmsC9O-PJBhoHl29-MT4ejs0HLB0VQ815TTpCwWJFz6AXztkEfBHlgUaPyVSqqEh0bscyAsnTluUgifUKiImFRUrT7JJqdiCnXUwICPUomVBFeirDw564MBxdq_GtoyzTBSh35bsUTnRxCig_flncoUrv", "width": 5184, "html_attributions": ["<a href=\"https://maps.google.com/maps/contrib/111231996573278953358\">Orchids The International School, BTM</a>"], "height": 3456}], "scope": "GOOGLE", "business_status": "OPERATIONAL", "types": ["school", "point_of_interest", "establishment"], "icon": "https://maps.gstatic.com/mapfiles/place_api/icons/v1/png_71/school-71.png"}, {"rating": 5, "user_ratings_total": 2, "name": "Katalyst", "reference": "ChIJM3lImR4VrjsRHEUJ1c1r2o4", "geometry": {"location": {"lat": 12.9050946, "lng": 77.60376769999999}, "viewport": {"northeast": {"lat": 12.9064471802915, "lng": 77.6051512802915}, "southwest": {"lat": 12.9037492197085, "lng": 77.60245331970847}}}, "opening_hours": {"open_now": false}, "place_id": "ChIJM3lImR4VrjsRHEUJ1c1r2o4", "plus_code": {"global_code": "7J4VWJ43+2G", "compound_code": "WJ43+2G Bengaluru, Karnataka, India"}, "vicinity": "142 & 143, 4th Main Road, Stage 2, BTM Layout, Bengaluru", "scope": "GOOGLE", "business_status": "OPERATIONAL", "types": ["school", "point_of_interest", "establishment"], "icon": "https://maps.gstatic.com/mapfiles/place_api/icons/v1/png_71/school-71.png"}, {"name": "Government Primary School", "reference": "ChIJfar3WAMVrjsRAWHaI8wmIF8", "geometry": {"location": {"lat": 12.9119717, "lng": 77.602153}, "viewport": {"northeast": {"lat": 12.9133201802915, "lng": 77.6035663302915}, "southwest": {"lat": 12.9106222197085, "lng": 77.6008683697085}}}, "place_id": "ChIJfar3WAMVrjsRAWHaI8wmIF8", "plus_code": {"global_code": "7J4VWJ62+QV", "compound_code": "WJ62+QV Bengaluru, Karnataka, India"}, "vicinity": "Stage 2, BTM 2nd Stage, Bengaluru", "scope": "GOOGLE", "business_status": "OPERATIONAL", "types": ["primary_school", "school", "point_of_interest", "establishment"], "icon": "https://maps.gstatic.com/mapfiles/place_api/icons/v1/png_71/school-71.png"}, {"rating": 5, "user_ratings_total": 5, "name": "The Landmark Pre School", "reference": "ChIJ72Z6lQEVrjsRt8mg9NVW89c", "geometry": {"location": {"lat": 12.918277, "lng": 77.606207}, "viewport": {"northeast": {"lat": 12.9196445302915, "lng": 77.60755838029151}, "southwest": {"lat": 12.9169465697085, "lng": 77.60486041970849}}}, "opening_hours": {"open_now": false}, "place_id": "ChIJ72Z6lQEVrjsRt8mg9NVW89c", "plus_code": {"global_code": "7J4VWJ94+8F", "compound_code": "WJ94+8F Bengaluru, Karnataka, India"}, "vicinity": "KEB Colony, 1st Stage, BTM Layout 1, Bengaluru", "photos": [{"photo_reference": "ATtYBwKpY-_0GU_K8_UPU79rCCiAazf5SOiTzELnCiHlFq8M7itpct2xPsqTi3k5dyMqzhA3dy39YKkUHjYaaYZhyzmsMqpZ5RAmc4nJvOubLhbwCcYgH-duDHl3c2N7SRmdzEYyXGiYobzaleFCWmyupgMEbLod2umVls5L45NdccBkFi3o", "width": 3456, "html_attributions": ["<a href=\"https://maps.google.com/maps/contrib/104441177898099040736\">Mohammed Hayath</a>"], "height": 4608}], "scope": "GOOGLE", "business_status": "OPERATIONAL", "types": ["school", "point_of_interest", "establishment"], "icon": "https://maps.gstatic.com/mapfiles/place_api/icons/v1/png_71/school-71.png"}, {"permanently_closed": true, "name": "Kids Concepts - BTM Layout", "reference": "ChIJxXxqXv4UrjsR6ILwfA-UFh4", "geometry": {"location": {"lat": 12.918616, "lng": 77.61037999999999}, "viewport": {"northeast": {"lat": 12.9199664802915, "lng": 77.6116789302915}, "southwest": {"lat": 12.9172685197085, "lng": 77.6089809697085}}}, "place_id": "ChIJxXxqXv4UrjsR6ILwfA-UFh4", "plus_code": {"global_code": "7J4VWJ96+C5", "compound_code": "WJ96+C5 Bengaluru, Karnataka, India"}, "vicinity": "Aicobo Nagar, 1st Stage, BTM Layout, Bengaluru", "photos": [{"photo_reference": "ATtYBwLy0BzbW2icq0EzOXe7G58HnaD-CZyt1IP5xt354siEKw99__oGjkGJ3Z5fsRqsVOoZCD8w3k2jSJmG6vVDtSwN45X8jETE0IGqMbrq-Z54YRTydJRp3mIGLPsGTGugA5ylxQzkuJvwEPhdxniRYNJKbZ_zGCekhliVSq1IdDEsXbz5", "width": 2727, "html_attributions": ["<a href=\"https://maps.google.com/maps/contrib/107316961152942071682\">madhuranthakam kishorekumar</a>"], "height": 1948}], "scope": "GOOGLE", "business_status": "CLOSED_TEMPORARILY", "types": ["school", "point_of_interest", "establishment"], "icon": "https://maps.gstatic.com/mapfiles/place_api/icons/v1/png_71/school-71.png"}, {"name": "John Play School", "reference": "ChIJD08KH-AUrjsRsjFGVHF-Yeg", "geometry": {"location": {"lat": 12.9013534, "lng": 77.6079744}, "viewport": {"northeast": {"lat": 12.9027103802915, "lng": 77.60932483029151}, "southwest": {"lat": 12.9000124197085, "lng": 77.6066268697085}}}, "place_id": "ChIJD08KH-AUrjsRsjFGVHF-Yeg", "plus_code": {"global_code": "7J4VWJ25+G5", "compound_code": "WJ25+G5 Bengaluru, Karnataka, India"}, "vicinity": "Kodichikkanahalli Main Road, Anugraha Layout, Ramanashree Enclave, Bilekahalli, Bengaluru", "scope": "GOOGLE", "business_status": "OPERATIONAL", "types": ["school", "point_of_interest", "establishment"], "icon": "https://maps.gstatic.com/mapfiles/place_api/icons/v1/png_71/school-71.png"}, {"rating": 3.9, "user_ratings_total": 15, "name": "Urban Raga (South)", "reference": "ChIJlb3dRkgVrjsRjH99atCZPc8", "geometry": {"location": {"lat": 12.903473, "lng": 77.60349099999999}, "viewport": {"northeast": {"lat": 12.9047347802915, "lng": 77.60483128029149}, "southwest": {"lat": 12.9020368197085, "lng": 77.60213331970849}}}, "opening_hours": {"open_now": false}, "place_id": "ChIJlb3dRkgVrjsRjH99atCZPc8", "plus_code": {"global_code": "7J4VWJ33+99", "compound_code": "WJ33+99 Bengaluru, Karnataka, India"}, "vicinity": "563/2, Ambuja Tower Building, Near Eden Fresh, Ranka colony road, Bilekahalli, Banerghatta Road, Bengaluru", "photos": [{"photo_reference": "ATtYBwLtjxukTLqqFTwYbnR_YjDMbpr0gEFoTJ97e6RRzXIyvC2Ug3AZn3R4wxwJcAWmzi94oJ7GuEQGE5enhtAv8CixDgFRujni2hC7a2uhnoQ_O3tD8876py7TPp02NEQsyfLrZeMoOjWXNcBXLdIG0wkFcHp0x5Nbf5NzOY5nn5lUdjOq", "width": 1280, "html_attributions": ["<a href=\"https://maps.google.com/maps/contrib/105369734665375314860\">Urban Raga (South)</a>"], "height": 720}], "scope": "GOOGLE", "business_status": "OPERATIONAL", "types": ["electronics_store", "home_goods_store", "school", "point_of_interest", "store", "establishment"], "icon": "https://maps.gstatic.com/mapfiles/place_api/icons/v1/png_71/school-71.png"}, {"rating": 4.1, "user_ratings_total": 188, "name": "Snap Fitness", "reference": "ChIJq5nZXv4UrjsRkwiemHfxe1k", "geometry": {"location": {"lat": 12.918781, "lng": 77.6104096}, "viewport": {"northeast": {"lat": 12.9201624802915, "lng": 77.61169733029149}, "southwest": {"lat": 12.9174645197085, "lng": 77.60899936970849}}}, "opening_hours": {"open_now": true}, "place_id": "ChIJq5nZXv4UrjsRkwiemHfxe1k", "plus_code": {"global_code": "7J4VWJ96+G5", "compound_code": "WJ96+G5 Bengaluru, Karnataka, India"}, "vicinity": "phase 1, 1021, 16th Main Road, 1st Stage, BTM Layout, Bengaluru", "photos": [{"photo_reference": "ATtYBwKR48NOLCh5hWwMvO7B0Txn6SOmgtSwTw37oThfL4Jkum8NgGGCRo1dZmRfnpkCmFz5q-jSXF0uaRiNxa40gksin5hJoogklofwKUaKmV9acSpDFsHpSQYj93nanNLphdNNYX4PI9AhHZXAmfwVgQGjikF41wsYTUAaOfO7ksD9jK0G", "width": 715, "html_attributions": ["<a href=\"https://maps.google.com/maps/contrib/109743110718124609648\">Snap Fitness</a>"], "height": 475}], "scope": "GOOGLE", "business_status": "OPERATIONAL", "types": ["gym", "school", "health", "point_of_interest", "establishment"], "icon": "https://maps.gstatic.com/mapfiles/place_api/icons/v1/png_71/generic_business-71.png"}, {"rating": 1, "user_ratings_total": 1, "name": "\u0cb8\u0cb0\u0ccd\u0c95\u0cbe\u0cb0\u0cbf \u0cb9\u0cbf\u0cb0\u0cbf\u0caf \u0caa\u0ccd\u0cb0\u0cbe\u0ca5\u0cae\u0cbf\u0c95 \u0cb6\u0cbe\u0cb2\u0cc6 \u0c9c\u0ca8\u0cbe\u0cb0\u0ccd\u0ca7\u0ca8 Government Primary School", "reference": "ChIJr7KNZQEVrjsREJjQcNDb0yM", "geometry": {"location": {"lat": 12.9174959, "lng": 77.6039462}, "viewport": {"northeast": {"lat": 12.9189152302915, "lng": 77.6052844302915}, "southwest": {"lat": 12.9162172697085, "lng": 77.6025864697085}}}, "place_id": "ChIJr7KNZQEVrjsREJjQcNDb0yM", "plus_code": {"global_code": "7J4VWJ83+XH", "compound_code": "WJ83+XH Bengaluru, Karnataka, India"}, "vicinity": "9th Ma, 9th A Main Road, KEB Colony, New Gurappana Palya, BTM Layout 1, Bengaluru", "photos": [{"photo_reference": "ATtYBwJsM1VK5wfyDRdaQf2CPSd-izWRDz82RLlfPphvWgU6iWklY7xJow8gPw470CGcgONCiZPaOAbKsZLlaQozH3Z7aCJSe5dnCCgOr_FdwVw-v8z3f1CrMDXapE0GhI8jkaltBl1gtf7R8NmnmHdNczTMgjYA4gUjVI1TY6WN_U5pu-yO", "width": 1080, "html_attributions": ["<a href=\"https://maps.google.com/maps/contrib/111163674238180612570\">STEPHEN FERNANDES</a>"], "height": 1920}], "scope": "GOOGLE", "business_status": "OPERATIONAL", "types": ["primary_school", "school", "point_of_interest", "establishment"], "icon": "https://maps.gstatic.com/mapfiles/place_api/icons/v1/png_71/school-71.png"}, {"rating": 5, "user_ratings_total": 19, "name": "Tiny Kingdom PreSchool & NIECCE Nursery Teacher Training Institute", "reference": "ChIJIdvUSP4UrjsRezm4DTFdpXs", "geometry": {"location": {"lat": 12.919333, "lng": 77.609582}, "viewport": {"northeast": {"lat": 12.9206781802915, "lng": 77.61099283029151}, "southwest": {"lat": 12.9179802197085, "lng": 77.6082948697085}}}, "opening_hours": {"open_now": false}, "place_id": "ChIJIdvUSP4UrjsRezm4DTFdpXs", "plus_code": {"global_code": "7J4VWJ95+PR", "compound_code": "WJ95+PR Bengaluru, Karnataka, India"}, "vicinity": "1031, 15th Main Road, Aicobo Nagar, 1st Stage, BTM Layout 1, Bengaluru", "photos": [{"photo_reference": "ATtYBwIanXOoW5o9bT_lA0VUd5Q8C6PA2l3oDhWDbvFaPx-jhqFWoH_RL57VoH1EhuBA76Nl3SM1lHAP7zRlZ2ZjA3ldIEiREBncNLWwnFlu4Z73qlysCqa_8rq9I-pz2yYbxXvwVNw6pfAzK9keEIdi6NdAjmQOOv3ipQWvnF5asCuUajcd", "width": 4000, "html_attributions": ["<a href=\"https://maps.google.com/maps/contrib/115914035458683415765\">kruba srini</a>"], "height": 3000}], "scope": "GOOGLE", "business_status": "OPERATIONAL", "types": ["school", "point_of_interest", "establishment"], "icon": "https://maps.gstatic.com/mapfiles/place_api/icons/v1/png_71/school-71.png"}, {"rating": 3.9, "user_ratings_total": 98, "name": "Shantiniketan Educational Institutions - Bilekahalli Branch (STATE ICSE PU DEGREE B.Ed)", "reference": "ChIJjY1qBeAUrjsRBQ1_Z9tWWmA", "geometry": {"location": {"lat": 12.9007511, "lng": 77.6084659}, "viewport": {"northeast": {"lat": 12.9020179802915, "lng": 77.6097712302915}, "southwest": {"lat": 12.8993200197085, "lng": 77.6070732697085}}}, "place_id": "ChIJjY1qBeAUrjsRBQ1_Z9tWWmA", "plus_code": {"global_code": "7J4VWJ25+89", "compound_code": "WJ25+89 Bengaluru, Karnataka, India"}, "vicinity": "#70,Bilekahalli, Bannerghatta Main Road, Bengaluru", "photos": [{"photo_reference": "ATtYBwLy5rhD51ud9IceK47zBF8pK3oZ7c-GVdNPeR0j2bjCZz4ZqbIa06t36PVnuIpbUUPTmWDMO5acu0qJLUyp2jj-Sc8jOO_jDNXwGKoeJ3w7ru35Vd1PdQYuQFYiJH__Dpd5_l8EwmC-x7VV_QLYWcyjHj3VVZpBKmItr5ad5V6l_dEZ", "width": 3264, "html_attributions": ["<a href=\"https://maps.google.com/maps/contrib/111065485765580856342\">Javed Khan</a>"], "height": 2448}], "scope": "GOOGLE", "business_status": "OPERATIONAL", "types": ["school", "point_of_interest", "establishment"], "icon": "https://maps.gstatic.com/mapfiles/place_api/icons/v1/png_71/school-71.png"}, {"rating": 4, "user_ratings_total": 1, "permanently_closed": true, "name": "Little Millennium - Bilekahalli - Bangalore", "reference": "ChIJ_____yAVrjsRNub2eUZ-OEU", "geometry": {"location": {"lat": 12.9034195, "lng": 77.6029731}, "viewport": {"northeast": {"lat": 12.9047321302915, "lng": 77.6043184302915}, "southwest": {"lat": 12.9020341697085, "lng": 77.6016204697085}}}, "place_id": "ChIJ_____yAVrjsRNub2eUZ-OEU", "plus_code": {"global_code": "7J4VWJ33+95", "compound_code": "WJ33+95 Bengaluru, Karnataka, India"}, "vicinity": "next to Mast Kalandar Restaurant, A-5, Ranka Villa, next to Mast Kalandar Restaurant, Stage 2, Bilekahalli, Bengaluru", "scope": "GOOGLE", "business_status": "CLOSED_TEMPORARILY", "types": ["school", "point_of_interest", "establishment"], "icon": "https://maps.gstatic.com/mapfiles/place_api/icons/v1/png_71/school-71.png"}, {"rating": 4.6, "user_ratings_total": 20, "permanently_closed": true, "name": "Brooklands Preschool", "reference": "ChIJExxbVSYVrjsRAY_b_XKxtMk", "geometry": {"location": {"lat": 12.9034616, "lng": 77.6027885}, "viewport": {"northeast": {"lat": 12.9047601802915, "lng": 77.6041348802915}, "southwest": {"lat": 12.9020622197085, "lng": 77.60143691970849}}}, "place_id": "ChIJExxbVSYVrjsRAY_b_XKxtMk", "plus_code": {"global_code": "7J4VWJ33+94", "compound_code": "WJ33+94 Bengaluru, Karnataka, India"}, "vicinity": "Villa A/4, Opposite Ranka Colony Bilekahali, Bannerghatta Road, Bengaluru", "photos": [{"photo_reference": "ATtYBwKfL9QEnEFOd70mkeDc43-9aO99YILNlnmElGQ9-_wdR8pAsjMsWKUAtfnOPFcVdO9hWsx9pInQ-WyAKkbXkFxfNDawKwYpxjedcidpzBpzwI2PqHv1pxr6MIKCOSUo4HgVz2GI80Du0mnZE5jUZ_gQO_EYYEIy3Q87Qf6J3o-aWstV", "width": 1231, "html_attributions": ["<a href=\"https://maps.google.com/maps/contrib/111631257586079630911\">Brooklands Preschool</a>"], "height": 739}], "scope": "GOOGLE", "business_status": "CLOSED_TEMPORARILY", "types": ["school", "point_of_interest", "establishment"], "icon": "https://maps.gstatic.com/mapfiles/place_api/icons/v1/png_71/school-71.png"}, {"rating": 4.7, "user_ratings_total": 47, "name": "The Art of Living Happiness Yoga Center", "reference": "ChIJZZOsSv4UrjsR-sTJ48GhRgc", "geometry": {"location": {"lat": 12.919754, "lng": 77.609066}, "viewport": {"northeast": {"lat": 12.9211513302915, "lng": 77.61041893029152}, "southwest": {"lat": 12.9184533697085, "lng": 77.6077209697085}}}, "opening_hours": {"open_now": true}, "place_id": "ChIJZZOsSv4UrjsR-sTJ48GhRgc", "plus_code": {"global_code": "7J4VWJ95+WJ", "compound_code": "WJ95+WJ Bengaluru, Karnataka, India"}, "vicinity": "1086, 8th Cross Rd, Aicobo Nagar, Stage 1, BTM Layout, Bengaluru, Karnataka, 5600, Bengaluru", "photos": [{"photo_reference": "ATtYBwIhCBmYyB0dm1w87YGYp4aSnlRS3TRZYtkYFQMazEDvlbTd0Uy6FKg6MBhnUaD9KJqE41EjKrjZzIwj8FL9CwCWYeu65MmHI9DwqYKnJOymaBIgTDyzXUjiqQpv3JS5ZHymQYrT8Z4svFY2mH0mVni4inVPn5w4iy64zBERCei5s0Oo", "width": 2048, "html_attributions": ["<a href=\"https://maps.google.com/maps/contrib/110321566558715933357\">The Art of Living Happiness Yoga Center</a>"], "height": 1152}], "scope": "GOOGLE", "business_status": "OPERATIONAL", "types": ["school", "gym", "health", "point_of_interest", "establishment"], "icon": "https://maps.gstatic.com/mapfiles/place_api/icons/v1/png_71/school-71.png"}, {"rating": 2.7, "user_ratings_total": 3, "name": "Shikshana Foundation", "reference": "ChIJ02jr4P4UrjsR7paTPWfLJXU", "geometry": {"location": {"lat": 12.9197589, "lng": 77.611987}, "viewport": {"northeast": {"lat": 12.9210644302915, "lng": 77.61333398029151}, "southwest": {"lat": 12.9183664697085, "lng": 77.6106360197085}}}, "opening_hours": {"open_now": false}, "place_id": "ChIJ02jr4P4UrjsR7paTPWfLJXU", "plus_code": {"global_code": "7J4VWJ96+WQ", "compound_code": "WJ96+WQ Bengaluru, Karnataka, India"}, "vicinity": "8th Cross Road, Narayan Gowda Layout, 1st Stage, BTM Layout 1, Bengaluru", "photos": [{"photo_reference": "ATtYBwKPQZPHQyNTMtdyFWjPjb583TiZMiQS2-C8nVuPSx7iIT6OOUZoRCQfrDxYiPvxPQ4kSTV8WCrE3FkC7a0NpnaMF03sYnX46E9q5EDfmFUCZx9zyfV0Ty7A82fadxoL8JKu9P9wMaH16dfdtUxXPPGDVdjo_FCD_wug4ZaFq0TPGPUO", "width": 5184, "html_attributions": ["<a href=\"https://maps.google.com/maps/contrib/118239209894219975837\">Shikshana Foundation</a>"], "height": 3456}], "scope": "GOOGLE", "business_status": "OPERATIONAL", "types": ["school", "point_of_interest", "establishment"], "icon": "https://maps.gstatic.com/mapfiles/place_api/icons/v1/png_71/school-71.png"}]}