{"status": "OK", "next_page_token": "ATtYBwKy1qCNvkaSeMLgo1w2G48ctm81fQGsDo1BkVOwwivQeDAnW65CkNLHKBIfxZ2lWndRcd6c86Aul2MbHr_DwM2Zi9bNZ-6wbQMAeXy_NUL4naPLStUwO6czkYH-Vc43vpMUxv2m3-2v3SRWMKSlH7fUcBazBaOmq_5h00scE3lnwfbC98NZyXUjU-5JBRtpEsuO7FSlHttB0EfoIG2FS0tZEQC_988UlfUPg_O_SGRXjcaNNAwoMCSk29oO41ECi9IPY-EfOmDB2aigtMf_8aGoqm2DPgq_0YGq7JkVBnQxgyAdcIeG0gq--FuY-2kQq-PflRFs7SimT_OC1mmcHqjYv5K_xfEhcsPxx2r518KA6fFFelXOT4t8XCUGAiqHI2YSp7f8hDgVCJBEHHfp18vE7QAXGXIYEWHF_FGz2Z8L3kcyhGo", "html_attributions": [], "results": [{"rating": 4.5, "user_ratings_total": 6, "name": "RBANM's High School", "reference": "ChIJ7_Efz4gWrjsREnT6zcN3vsE", "geometry": {"location": {"lat": 12.9812647, "lng": 77.61287709999999}, "viewport": {"northeast": {"lat": 12.9827560802915, "lng": 77.6143065802915}, "southwest": {"lat": 12.9800581197085, "lng": 77.61160861970849}}}, "place_id": "ChIJ7_Efz4gWrjsREnT6zcN3vsE", "plus_code": {"global_code": "7J4VXJJ7+G5", "compound_code": "XJJ7+G5 Bengaluru, Karnataka, India"}, "vicinity": "23/1, Gangadhara Chetty Road, Opposite-Rbanms College Grounds, Rukmani Colony, Sivanchetti Gardens, Bengaluru", "photos": [{"photo_reference": "ATtYBwJ0JjKE0gqqPaWZul-bqH6SqEtf07IjCj4CFR9Sk1HPDIhMnlX1aV29pe1P1coGz-wPhZIqMNY4j6E-tnSDKJCtODHxQrfgs8p7xOStMtjltpZMwVHvs3NV2InbOhBlSlTgrUu5OLdKlQt1HUsaAepWq20kaGh1cH2l0EKJqOSLsglR", "width": 3120, "html_attributions": ["<a href=\"https://maps.google.com/maps/contrib/109327232117358800898\">Sheen N</a>"], "height": 4160}], "scope": "GOOGLE", "business_status": "OPERATIONAL", "types": ["secondary_school", "school", "point_of_interest", "establishment"], "icon": "https://maps.gstatic.com/mapfiles/place_api/icons/v1/png_71/school-71.png"}, {"rating": 4.8, "user_ratings_total": 189, "name": "IFLAC - ULSOOR Bangalore's Best Multi- Lingual Academy", "reference": "ChIJsWlbREcWrjsRWojsuQAbfts", "geometry": {"location": {"lat": 12.9885893, "lng": 77.6178181}, "viewport": {"northeast": {"lat": 12.9900348302915, "lng": 77.6192346802915}, "southwest": {"lat": 12.9873368697085, "lng": 77.61653671970848}}}, "opening_hours": {"open_now": true}, "place_id": "ChIJsWlbREcWrjsRWojsuQAbfts", "plus_code": {"global_code": "7J4VXJQ9+C4", "compound_code": "XJQ9+C4 Bengaluru, Karnataka, India"}, "vicinity": "Salon, Gold Coin Building - 3rd Floor 34 Meanee Avenue Tank Road, Sivan Shetty Garden Near Meg (Military Sports Ground) Above GlamsJo, Bengaluru", "photos": [{"photo_reference": "ATtYBwKeUg9NHZYNXCL38ufMuTseSEIBMCF2OV68OpmwjPzECXH8Uw18bW3Vczrc0p9QHITSPlyA30Hc6IEyFQc22Ej-V9xZmRVzrcMh6NBWs6h6N2ZLiITCSL-KXN8elDmrVLBxorkMQbHjo1HgYEHMdji4ItC5fGVOXxxHJMtnAbBREs1q", "width": 2592, "html_attributions": ["<a href=\"https://maps.google.com/maps/contrib/112746928496071360157\">IFLAC - ULSOOR Bangalore&#39;s Best Multi- Lingual Academy</a>"], "height": 1944}], "scope": "GOOGLE", "business_status": "OPERATIONAL", "types": ["secondary_school", "school", "point_of_interest", "establishment"], "icon": "https://maps.gstatic.com/mapfiles/place_api/icons/v1/png_71/school-71.png"}, {"rating": 4.2, "user_ratings_total": 39, "name": "HOLY ANGELS\u2019 HIGHER PRIMARY SCHOOL", "reference": "ChIJ_UVonPMWrjsRy9f-iw2dfpY", "geometry": {"location": {"lat": 12.9942066, "lng": 77.6127996}, "viewport": {"northeast": {"lat": 12.9956666302915, "lng": 77.6142165802915}, "southwest": {"lat": 12.9929686697085, "lng": 77.61151861970849}}}, "place_id": "ChIJ_UVonPMWrjsRy9f-iw2dfpY", "plus_code": {"global_code": "7J4VXJV7+M4", "compound_code": "XJV7+M4 Bengaluru, Karnataka, India"}, "vicinity": "Ware Road, Pulikeshi Nagar, Bengaluru", "scope": "GOOGLE", "business_status": "OPERATIONAL", "types": ["school", "point_of_interest", "establishment"], "icon": "https://maps.gstatic.com/mapfiles/place_api/icons/v1/png_71/school-71.png"}, {"rating": 5, "user_ratings_total": 1, "name": "Prism Pre School", "reference": "ChIJXQLjso4WrjsRRrP1W3FHQb0", "geometry": {"location": {"lat": 12.9846072, "lng": 77.6128353}, "viewport": {"northeast": {"lat": 12.9859146802915, "lng": 77.6141554802915}, "southwest": {"lat": 12.9832167197085, "lng": 77.6114575197085}}}, "opening_hours": {"open_now": false}, "place_id": "ChIJXQLjso4WrjsRRrP1W3FHQb0", "plus_code": {"global_code": "7J4VXJM7+R4", "compound_code": "XJM7+R4 Bengaluru, Karnataka, India"}, "vicinity": "St Johns Rd, Sivanchetti Gardens, Bengaluru", "photos": [{"photo_reference": "ATtYBwJaf9G27qtvt0I1leevm1fULOrpLv21lAh4m0BNuHkQfMQWyy3kTBnppYlFF0l_RKpqrdj6P79uQadk_qTrVckdkssblIIQs16s_1xSe6u_hbBAlUPnQAf8sOotNGKqtomdp5vORVTU8gJy0AXBxVgq5yWxfmsxDR1yFw1wsT2GNMJ7", "width": 1280, "html_attributions": ["<a href=\"https://maps.google.com/maps/contrib/100380611757858005100\">Prism Pre School</a>"], "height": 720}], "scope": "GOOGLE", "business_status": "OPERATIONAL", "types": ["school", "point_of_interest", "establishment"], "icon": "https://maps.gstatic.com/mapfiles/place_api/icons/v1/png_71/school-71.png"}, {"rating": 4.4, "user_ratings_total": 36, "name": "MQI Degree College", "reference": "ChIJ24uhpFgWrjsR1xYthsfJGUQ", "geometry": {"location": {"lat": 12.9970361, "lng": 77.6066149}, "viewport": {"northeast": {"lat": 12.9982482302915, "lng": 77.6081842802915}, "southwest": {"lat": 12.9955502697085, "lng": 77.60548631970849}}}, "place_id": "ChIJ24uhpFgWrjsR1xYthsfJGUQ", "plus_code": {"global_code": "7J4VXJW4+RJ", "compound_code": "XJW4+RJ Bengaluru, Karnataka, India"}, "vicinity": "8, Bore Bank Road, Byadarahalli, Benson Town, Bengaluru", "photos": [{"photo_reference": "ATtYBwK1Ai8PVGDa8Z1mQRiZRlsqCCXmtpOSmXY1COy8AjIG5hO-VAUGjACzyZn-gDdLsrnQWwQ7OtaZycWSIJn2EBczunFQK_i3l05GOUZxoKJhiW_aZNGpg3MEjTyejy1v8zPtSpbWh0rZwh55VuAYXF2LtWoKJqNHiTBrSkJ4SNOBUwMs", "width": 4416, "html_attributions": ["<a href=\"https://maps.google.com/maps/contrib/103480017605593399052\">Sahal Artist</a>"], "height": 1856}], "scope": "GOOGLE", "business_status": "OPERATIONAL", "types": ["university", "school", "point_of_interest", "establishment"], "icon": "https://maps.gstatic.com/mapfiles/place_api/icons/v1/png_71/school-71.png"}, {"rating": 5, "user_ratings_total": 1, "name": "Corporation Girls Higher Secondary School", "reference": "ChIJ-XWmJ4sWrjsR3nDIg6BYez4", "geometry": {"location": {"lat": 12.9897156, "lng": 77.6107786}, "viewport": {"northeast": {"lat": 12.9910671302915, "lng": 77.6121280302915}, "southwest": {"lat": 12.9883691697085, "lng": 77.6094300697085}}}, "place_id": "ChIJ-XWmJ4sWrjsR3nDIg6BYez4", "plus_code": {"global_code": "7J4VXJQ6+V8", "compound_code": "XJQ6+V8 Bengaluru, Karnataka, India"}, "vicinity": "Jayamahal, Thimmaiah Road, Bengaluru", "scope": "GOOGLE", "business_status": "OPERATIONAL", "types": ["secondary_school", "school", "point_of_interest", "establishment"], "icon": "https://maps.gstatic.com/mapfiles/place_api/icons/v1/png_71/school-71.png"}, {"rating": 4.4, "user_ratings_total": 194, "name": "Kendriya Vidyalaya, MEG And Centre", "reference": "ChIJZy9s3dcWrjsRiUfZTlw7PA4", "geometry": {"location": {"lat": 12.9892435, "lng": 77.6138224}, "viewport": {"northeast": {"lat": 12.9907015302915, "lng": 77.6149387302915}, "southwest": {"lat": 12.9880035697085, "lng": 77.61224076970849}}}, "opening_hours": {"open_now": false}, "place_id": "ChIJZy9s3dcWrjsRiUfZTlw7PA4", "plus_code": {"global_code": "7J4VXJQ7+MG", "compound_code": "XJQ7+MG Bengaluru, Karnataka, India"}, "vicinity": "Kamaraj Rd, Saint Johns Church Road, Sivanchetti Gardens, Bengaluru", "photos": [{"photo_reference": "ATtYBwI_Bu29e6tJADWvpd_cshzKwttNv7KyNHOZ6eSYAnIHbGv7-_udVCnQ812Rt-Nv96Jwo1nMhcHHJC4ySDRn6rhUoartuLuL4ucLkMeneNnB59Zqn6EJwLCK4o3LYmepDvKwguWg-e8xI1zE9f2YyjrlD5UW2LO3muNC2L0FnQ4_pi_8", "width": 4160, "html_attributions": ["<a href=\"https://maps.google.com/maps/contrib/104401314856072459089\">Shashi Kumar</a>"], "height": 3120}], "scope": "GOOGLE", "business_status": "OPERATIONAL", "types": ["school", "point_of_interest", "establishment"], "icon": "https://maps.gstatic.com/mapfiles/place_api/icons/v1/png_71/school-71.png"}, {"name": "MADRAS E ARABIA ZIYAUL QUR'AN", "reference": "ChIJ4cr0SGAWrjsRtOhgkOCLRP0", "geometry": {"location": {"lat": 12.9881462, "lng": 77.60615899999999}, "viewport": {"northeast": {"lat": 12.9894682802915, "lng": 77.6074990802915}, "southwest": {"lat": 12.9867703197085, "lng": 77.6048011197085}}}, "place_id": "ChIJ4cr0SGAWrjsRtOhgkOCLRP0", "plus_code": {"global_code": "7J4VXJQ4+7F", "compound_code": "XJQ4+7F Bengaluru, Karnataka, India"}, "vicinity": "No.42/2, & No.13, 2nd & 3rd Floor, Lal Masjid 'C' Street, Charminar Masjid Road, Shivaji Nagar, Bengaluru", "scope": "GOOGLE", "business_status": "OPERATIONAL", "types": ["school", "point_of_interest", "establishment"], "icon": "https://maps.gstatic.com/mapfiles/place_api/icons/v1/png_71/school-71.png"}, {"rating": 4.2, "user_ratings_total": 74, "name": "St. Joseph's Convent Girls High School", "reference": "ChIJ61zXZfMWrjsRX24rjgxjDIo", "geometry": {"location": {"lat": 12.9925201, "lng": 77.6140952}, "viewport": {"northeast": {"lat": 12.9936520802915, "lng": 77.61530518029151}, "southwest": {"lat": 12.9909541197085, "lng": 77.61260721970851}}}, "opening_hours": {"open_now": false}, "place_id": "ChIJ61zXZfMWrjsRX24rjgxjDIo", "plus_code": {"global_code": "7J4VXJV7+2J", "compound_code": "XJV7+2J Bengaluru, Karnataka, India"}, "vicinity": "N0, 49, Promenade Road, Pulikeshi Nagar, Bengaluru", "photos": [{"photo_reference": "ATtYBwLwSkc1p4YnSg1Iv5Yjr5_JMpzi_UwGfcDmhkAAVxJ_YubXZhHY9uuTXKRml3iNyfJmxZC-TQJIyXGBAyGQb-cxAOfnc0x4Gj9iocyPq0EeyXbtFSXnhna0oYh_TlQ8BOmms2AWX61Jz1tNX4KGa8HMQ0DoPscDf680Rdx5kaomzYdG", "width": 1040, "html_attributions": ["<a href=\"https://maps.google.com/maps/contrib/116143937457972329092\">Sumaiya siddique</a>"], "height": 585}], "scope": "GOOGLE", "business_status": "OPERATIONAL", "types": ["secondary_school", "school", "point_of_interest", "establishment"], "icon": "https://maps.gstatic.com/mapfiles/place_api/icons/v1/png_71/school-71.png"}, {"rating": 3.7, "user_ratings_total": 3, "permanently_closed": true, "name": "St. Aloysius English Higher Primary School", "reference": "ChIJAQAAcPQWrjsRlBWvYeS6alE", "geometry": {"location": {"lat": 12.9942066, "lng": 77.6127997}, "viewport": {"northeast": {"lat": 12.9956666302915, "lng": 77.61421668029149}, "southwest": {"lat": 12.9929686697085, "lng": 77.61151871970849}}}, "place_id": "ChIJAQAAcPQWrjsRlBWvYeS6alE", "plus_code": {"global_code": "7J4VXJV7+M4", "compound_code": "XJV7+M4 Bengaluru, Karnataka, India"}, "vicinity": "Cleveland Town, Pulikeshi Nagar, Bengaluru", "photos": [{"photo_reference": "ATtYBwJLhlV00_X7h45DXNB_5ocOUTmplicPNYKFbKcURukAY_mI0-q0GlBM0mx47uzM26XE8xeQ5GQ5flNr84bP2tF7tZn-LuAO82etIM5jvWtY9sT8b4shmB37G9Ydtc8FXr8srKJX90YmTc3f9ZhcMAhPPV-3B7Dqyy26VPGySPSX7sEJ", "width": 482, "html_attributions": ["<a href=\"https://maps.google.com/maps/contrib/107605888233354200995\">Sri Ram</a>"], "height": 305}], "scope": "GOOGLE", "business_status": "CLOSED_TEMPORARILY", "types": ["primary_school", "school", "point_of_interest", "establishment"], "icon": "https://maps.gstatic.com/mapfiles/place_api/icons/v1/png_71/school-71.png"}, {"rating": 4.3, "user_ratings_total": 40, "name": "Zenith Academy", "reference": "ChIJt4YGy_UWrjsRcR57z3782v8", "geometry": {"location": {"lat": 12.9950108, "lng": 77.61049299999999}, "viewport": {"northeast": {"lat": 12.9963196802915, "lng": 77.6119069802915}, "southwest": {"lat": 12.9936217197085, "lng": 77.60920901970849}}}, "place_id": "ChIJt4YGy_UWrjsRcR57z3782v8", "plus_code": {"global_code": "7J4VXJW6+25", "compound_code": "XJW6+25 Bengaluru, Karnataka, India"}, "vicinity": "# 16, Saunders Road, Pulkeshi Nagar, Pulikeshi Nagar, Bengaluru", "photos": [{"photo_reference": "ATtYBwLU42Gqqlj0ILr2cr0XQmolgrkM9wAcyQ-_GQ0eQMsZAP4z0ZJLsSJqiSE1Yu2ZEDf3eNKWg3xKx__JcmCZMN0GZat2zT7-m_8fANx5osRRVO3Aammgj2PC1KYB7CLeaqn5BofCn5vAkHJSLgnB4cQtStl_pfP6LEDo7vH5J2uEXWl3", "width": 4128, "html_attributions": ["<a href=\"https://maps.google.com/maps/contrib/107617731047148563458\">Farheen Aisha</a>"], "height": 3096}], "scope": "GOOGLE", "business_status": "OPERATIONAL", "types": ["school", "point_of_interest", "establishment"], "icon": "https://maps.gstatic.com/mapfiles/place_api/icons/v1/png_71/school-71.png"}, {"rating": 4.4, "user_ratings_total": 24, "name": "Holy Angels Higher Primary School", "reference": "ChIJ--D8efMWrjsRIVnvK9VX3Aw", "geometry": {"location": {"lat": 12.9938282, "lng": 77.6146383}, "viewport": {"northeast": {"lat": 12.9952233802915, "lng": 77.6160219802915}, "southwest": {"lat": 12.9925254197085, "lng": 77.6133240197085}}}, "place_id": "ChIJ--D8efMWrjsRIVnvK9VX3Aw", "plus_code": {"global_code": "7J4VXJV7+GV", "compound_code": "XJV7+GV Bengaluru, Karnataka, India"}, "vicinity": "Cleveland Town, Pulikeshi Nagar, Bengaluru", "photos": [{"photo_reference": "ATtYBwJKLGhzTWiADQC-b3tO8Bh8I9hpClga42V4jiuliEZX3nhyXMGu6pA55cgh6XaSCSGyhWUN7RMYQ4PXXK31r1YiYJHHpirkAR5UdlutVDzBW3gBYcfISBa1rdO0k7vW7OJ7jk-sXK0qAl5GJSecouZa6ODClBcVhXLDhp3UeoyxeiV-", "width": 1920, "html_attributions": ["<a href=\"https://maps.google.com/maps/contrib/107406493921034131668\">Hanamant Shelake</a>"], "height": 1080}], "scope": "GOOGLE", "business_status": "OPERATIONAL", "types": ["school", "point_of_interest", "establishment"], "icon": "https://maps.gstatic.com/mapfiles/place_api/icons/v1/png_71/school-71.png"}, {"rating": 4.6, "user_ratings_total": 14, "name": "KIDZEE", "reference": "ChIJr__jLPQWrjsR-E0Gk-9n-1g", "geometry": {"location": {"lat": 12.9960357, "lng": 77.60971459999999}, "viewport": {"northeast": {"lat": 12.9972011302915, "lng": 77.61158878029151}, "southwest": {"lat": 12.9945031697085, "lng": 77.6088908197085}}}, "opening_hours": {"open_now": false}, "place_id": "ChIJr__jLPQWrjsR-E0Gk-9n-1g", "plus_code": {"global_code": "7J4VXJW5+CV", "compound_code": "XJW5+CV Bengaluru, Karnataka, India"}, "vicinity": "4th t block, 32, Spencer Road, Pulkeshi Nagar, Pulikeshi Nagar, Bengaluru", "photos": [{"photo_reference": "ATtYBwImw8QxyhPGTTJSgOlbt6DuKdixhrO6aUGku6YivLadqRbakoEnzZ9QoFtEpWr9tx7zuYkv0hdTsqRSGSrXI_-ZWFR7UJ3XmJ0T43WJ8xoQ3j0PUr6E8sps6Wge11S4I1u1_mb7P0o_wzpkGemQYgvSSBUxdOntYlViQIDIRIyqKYg5", "width": 1040, "html_attributions": ["<a href=\"https://maps.google.com/maps/contrib/105795054558889787085\">Kidzee Spencer RD</a>"], "height": 780}], "scope": "GOOGLE", "business_status": "OPERATIONAL", "types": ["school", "point_of_interest", "establishment"], "icon": "https://maps.gstatic.com/mapfiles/place_api/icons/v1/png_71/school-71.png"}, {"rating": 2, "user_ratings_total": 1, "name": "Bright Horizon", "reference": "ChIJ8UEcBPQWrjsRUY8e905Uv-M", "geometry": {"location": {"lat": 12.9959299, "lng": 77.61314109999999}, "viewport": {"northeast": {"lat": 12.9972934302915, "lng": 77.6144961302915}, "southwest": {"lat": 12.9945954697085, "lng": 77.61179816970849}}}, "place_id": "ChIJ8UEcBPQWrjsRUY8e905Uv-M", "plus_code": {"global_code": "7J4VXJW7+97", "compound_code": "XJW7+97 Bengaluru, Karnataka, India"}, "vicinity": "Crystal Downs, Pyramid Lane, Embassy Golf Links Business Park, Challaghatta, Bengaluru", "scope": "GOOGLE", "business_status": "OPERATIONAL", "types": ["school", "point_of_interest", "establishment"], "icon": "https://maps.gstatic.com/mapfiles/place_api/icons/v1/png_71/school-71.png"}, {"name": "new millennium school", "reference": "ChIJI3K5pI4WrjsRGqs1kCYa9yk", "geometry": {"location": {"lat": 12.984396, "lng": 77.61450769999999}, "viewport": {"northeast": {"lat": 12.9857797302915, "lng": 77.6158145302915}, "southwest": {"lat": 12.9830817697085, "lng": 77.61311656970848}}}, "place_id": "ChIJI3K5pI4WrjsRGqs1kCYa9yk", "plus_code": {"global_code": "7J4VXJM7+QR", "compound_code": "XJM7+QR Bengaluru, Karnataka, India"}, "vicinity": "78, Saint Johns Road, DasappaColony, Rukmani Colony, Sivanchetti Gardens, Bengaluru", "scope": "GOOGLE", "business_status": "OPERATIONAL", "types": ["school", "point_of_interest", "establishment"], "icon": "https://maps.gstatic.com/mapfiles/place_api/icons/v1/png_71/school-71.png"}, {"permanently_closed": true, "name": "Kidz Target", "reference": "ChIJL6Go7fMWrjsRq-L2aPLm_oU", "price_level": 2, "geometry": {"location": {"lat": 12.9971503, "lng": 77.6142559}, "viewport": {"northeast": {"lat": 12.9985002802915, "lng": 77.6156057302915}, "southwest": {"lat": 12.99580231970849, "lng": 77.6129077697085}}}, "place_id": "ChIJL6Go7fMWrjsRq-L2aPLm_oU", "vicinity": "N0.44, Soles Road Near Reebok Showroom, Frazer Town, Bengaluru", "scope": "GOOGLE", "business_status": "CLOSED_TEMPORARILY", "types": ["school", "point_of_interest", "establishment"], "icon": "https://maps.gstatic.com/mapfiles/place_api/icons/v1/png_71/school-71.png"}, {"name": "ATR Educational Devices Private Limited", "reference": "ChIJ4f__P_EWrjsRnm1y5oV3B1Y", "geometry": {"location": {"lat": 12.997843, "lng": 77.614948}, "viewport": {"northeast": {"lat": 12.9991870302915, "lng": 77.6163049802915}, "southwest": {"lat": 12.9964890697085, "lng": 77.6136070197085}}}, "place_id": "ChIJ4f__P_EWrjsRnm1y5oV3B1Y", "plus_code": {"global_code": "7J4VXJX7+4X", "compound_code": "XJX7+4X Bengaluru, Karnataka, India"}, "vicinity": "5C, Fernsbury , No. 18 Mosque Road, Frazer Town, Bengaluru", "scope": "GOOGLE", "business_status": "OPERATIONAL", "types": ["school", "point_of_interest", "establishment"], "icon": "https://maps.gstatic.com/mapfiles/place_api/icons/v1/png_71/school-71.png"}, {"name": "R T C Girls' Higher Primary School", "reference": "ChIJK4BuE40WrjsRNn-EWT5tbEI", "geometry": {"location": {"lat": 12.9890767, "lng": 77.61769009999999}, "viewport": {"northeast": {"lat": 12.9904377802915, "lng": 77.61902093029151}, "southwest": {"lat": 12.9877398197085, "lng": 77.61632296970849}}}, "place_id": "ChIJK4BuE40WrjsRNn-EWT5tbEI", "plus_code": {"global_code": "7J4VXJQ9+J3", "compound_code": "XJQ9+J3 Bengaluru, Karnataka, India"}, "vicinity": "#49, Promenade Road, Pulikeshi Nagar, Bengaluru", "scope": "GOOGLE", "business_status": "OPERATIONAL", "types": ["school", "point_of_interest", "establishment"], "icon": "https://maps.gstatic.com/mapfiles/place_api/icons/v1/png_71/school-71.png"}, {"rating": 5, "user_ratings_total": 1, "name": "Government Urdu Higher Primary School", "reference": "ChIJcRtaRfEWrjsRINzHiShQBFo", "geometry": {"location": {"lat": 12.9971503, "lng": 77.6142559}, "viewport": {"northeast": {"lat": 12.9985002802915, "lng": 77.6156057302915}, "southwest": {"lat": 12.99580231970849, "lng": 77.6129077697085}}}, "place_id": "ChIJcRtaRfEWrjsRINzHiShQBFo", "vicinity": "Frazer Town, Bangalore District, Bengaluru", "scope": "GOOGLE", "business_status": "OPERATIONAL", "types": ["primary_school", "school", "point_of_interest", "establishment"], "icon": "https://maps.gstatic.com/mapfiles/place_api/icons/v1/png_71/school-71.png"}, {"rating": 4.6, "user_ratings_total": 21, "permanently_closed": true, "name": "Little Millennium, Frazer town", "reference": "ChIJ83UZiY0WrjsRB3lT9a46wzo", "geometry": {"location": {"lat": 12.9900734, "lng": 77.6185698}, "viewport": {"northeast": {"lat": 12.9913919302915, "lng": 77.6199527802915}, "southwest": {"lat": 12.9886939697085, "lng": 77.61725481970849}}}, "place_id": "ChIJ83UZiY0WrjsRB3lT9a46wzo", "plus_code": {"global_code": "7J4VXJR9+2C", "compound_code": "XJR9+2C Bengaluru, Karnataka, India"}, "vicinity": "Gurukrupa No.43, 7, 1st Cross Promenade Road, Pulikeshi Nagar, Bengaluru", "photos": [{"photo_reference": "ATtYBwKIlih3MccPG4YFz5EOhCNivvjlOGUv11o7NYOJxt2QzerLlNPMOtFKcK6jMWR9UC25dr4-8LQgwoK-v0HIq1WGoumnOOL9bam6nR117jeW_zyI80WWBM8xWcmoniDO9gQST2XgCGlPdWQ8hKkQaMYl8jsF1w11kKOzRy0DhQ3E0Jkr", "width": 3264, "html_attributions": ["<a href=\"https://maps.google.com/maps/contrib/114635433590536265710\">Dunsten Rego</a>"], "height": 2448}], "scope": "GOOGLE", "business_status": "CLOSED_TEMPORARILY", "types": ["school", "point_of_interest", "establishment"], "icon": "https://maps.gstatic.com/mapfiles/place_api/icons/v1/png_71/school-71.png"}]}