{"status": "OK", "next_page_token": "ATtYBwKdw0tAEJCI7PID_L8txHsVHtEdnT18NYcCejRurIq1MIropCtSNvKWHVmaPaz-alI_b6et5EGpIhRWO_gHsbGle2cSwmqkda5MPNY452nenZifCQv_xtgl-PsXa0y-twDadsyCH6y1pWOjVGOkuyxS3aDG2c9tp77rp5-p43yTQahVvTAfQv2PkP-7uYzn93242zpCEwNg3Y6BEDUfoLKTpX9KgCO0Ixn40bSdNJ2oS4HaX-BRiE7lyLCUyHT5KPdhQkEhSmLrDor4Ecx22z7IRhWmRzmM6m5d_ZFrhxiyjioMdo0km17G21pNucs7bt6Cd7-VKnD3Z0MHEq-S5FFhbG2US4I6Q_A2o4zCr7b1Mmg3ntkWRTBVe05i-qK8_v_ej5Vs78wR22Qwli-2Krep0mzAP07jyDkKbBvyW6SuoJkQ72g", "html_attributions": [], "results": [{"rating": 4.9, "user_ratings_total": 51, "name": "Anuhya Summer Camp", "reference": "ChIJWdpOv4VsrjsR3o8tIE2KlPI", "geometry": {"location": {"lat": 12.8542662, "lng": 77.667017}, "viewport": {"northeast": {"lat": 12.8555802302915, "lng": 77.6683652302915}, "southwest": {"lat": 12.8528822697085, "lng": 77.66566726970849}}}, "opening_hours": {"open_now": false}, "place_id": "ChIJWdpOv4VsrjsR3o8tIE2KlPI", "plus_code": {"global_code": "7J4VVM38+PR", "compound_code": "VM38+PR Bengaluru, Karnataka, India"}, "vicinity": "Behind Udupi palace hotel, Post, Konappana Agrahara, Electronic City, Bengaluru", "photos": [{"photo_reference": "ATtYBwIcwmRceniPPGlG4Gd7wwMVq8J0RbbfGNPl8mDY2_TP6n1Cge9XI6IlBBASt_b4LyahRfgZkxMMamMwhS6FfB5TdXu9hoZXheoH-sXrSny380fe3I_IL1363ZGGpl-UJh8qm5YGxJOVE91PUXXvvbqqZCXdO2-_0bL-_V9ff4epS5mz", "width": 720, "html_attributions": ["<a href=\"https://maps.google.com/maps/contrib/108647327598984646299\">Anuhya Summer Camp</a>"], "height": 1280}], "scope": "GOOGLE", "business_status": "OPERATIONAL", "types": ["school", "point_of_interest", "establishment"], "icon": "https://maps.gstatic.com/mapfiles/place_api/icons/v1/png_71/school-71.png"}, {"rating": 4, "user_ratings_total": 5, "permanently_closed": true, "name": "Feathertouch International", "reference": "ChIJeyShoZFsrjsRGQUVi4QO9Hg", "geometry": {"location": {"lat": 12.8490451, "lng": 77.669262}, "viewport": {"northeast": {"lat": 12.8503483802915, "lng": 77.67061323029151}, "southwest": {"lat": 12.8476504197085, "lng": 77.6679152697085}}}, "place_id": "ChIJeyShoZFsrjsRGQUVi4QO9Hg", "plus_code": {"global_code": "7J4VRMX9+JP", "compound_code": "RMX9+JP Bengaluru, Karnataka, India"}, "vicinity": "7, Infosys Internal Road, Konappana Agrahara, Electronic City, Bengaluru", "photos": [{"photo_reference": "ATtYBwIwrNZ70SJigLCmvviTumV8OCSqO2xzmNKlfEbSpaIJ9haJrh4rJ78FIdjby7HRhKc0xNJCqW3SlrhklA-jRLnSuirnBlSYqAIEmYQFc_QDg_TQOpKiwefwnVw_Zek1GIPaX5Zpf2klKQ4JQQzQTpFRjJvnBZYetRx6JZhYoFY4PZ3H", "width": 937, "html_attributions": ["<a href=\"https://maps.google.com/maps/contrib/100910171675769547889\">Feathertouch International</a>"], "height": 629}], "scope": "GOOGLE", "business_status": "CLOSED_TEMPORARILY", "types": ["school", "point_of_interest", "establishment"], "icon": "https://maps.gstatic.com/mapfiles/place_api/icons/v1/png_71/school-71.png"}, {"name": "Feathertouch International Playschool", "reference": "ChIJJyRw1ZZsrjsRn651SLfF8U0", "geometry": {"location": {"lat": 12.852212, "lng": 77.6679814}, "viewport": {"northeast": {"lat": 12.8536434802915, "lng": 77.66940778029151}, "southwest": {"lat": 12.8509455197085, "lng": 77.6667098197085}}}, "opening_hours": {"open_now": false}, "place_id": "ChIJJyRw1ZZsrjsRn651SLfF8U0", "plus_code": {"global_code": "7J4VVM29+V5", "compound_code": "VM29+V5 Bengaluru, Karnataka, India"}, "vicinity": "Ananda Reddy, Konappana Agrahara, Electronic City, Bengaluru", "scope": "GOOGLE", "business_status": "OPERATIONAL", "types": ["school", "point_of_interest", "establishment"], "icon": "https://maps.gstatic.com/mapfiles/place_api/icons/v1/png_71/school-71.png"}, {"rating": 5, "user_ratings_total": 1, "permanently_closed": true, "name": "Feathertouch International", "reference": "ChIJo1epS5dsrjsR4iawo4x4PXU", "geometry": {"location": {"lat": 12.8521046, "lng": 77.6661439}, "viewport": {"northeast": {"lat": 12.8534020302915, "lng": 77.66747848029149}, "southwest": {"lat": 12.8507040697085, "lng": 77.66478051970849}}}, "place_id": "ChIJo1epS5dsrjsR4iawo4x4PXU", "plus_code": {"global_code": "7J4VVM28+RF", "compound_code": "VM28+RF Bengaluru, Karnataka, India"}, "vicinity": "Gayatri Building, Next to Infosys Gate 7, Konappana Agrahara, Electronic City, Bengaluru", "scope": "GOOGLE", "business_status": "CLOSED_TEMPORARILY", "types": ["school", "point_of_interest", "establishment"], "icon": "https://maps.gstatic.com/mapfiles/place_api/icons/v1/png_71/school-71.png"}, {"rating": 4.7, "user_ratings_total": 69, "permanently_closed": true, "name": "Feathertouch International", "reference": "ChIJs9I2BJpsrjsRzp9tnm6Wc_s", "geometry": {"location": {"lat": 12.851189, "lng": 77.663585}, "viewport": {"northeast": {"lat": 12.8526179802915, "lng": 77.6655679302915}, "southwest": {"lat": 12.8499200197085, "lng": 77.6628699697085}}}, "place_id": "ChIJs9I2BJpsrjsRzp9tnm6Wc_s", "plus_code": {"global_code": "7J4VVM27+FC", "compound_code": "VM27+FC Bengaluru, Karnataka, India"}, "vicinity": "Mahesh reddy buildings, Near Gate, 6, Electronic City Phase I, Bengaluru", "photos": [{"photo_reference": "ATtYBwLpxGEYjFY8fkf3-aodzGaBhhRbDGRkT0vmVbwCA4qv20xpJ93WDDOwiGRR8GaqRxe1y4uvZKOcVtfxRtCHEI6UFN43LgJdr2PTynqSer_b7j1FrgkHAKwwYqDyIQCaAPlCDhzwsij3TPASnebW_OgXvg-yE4BC1pwPQk-HvA4BUr3d", "width": 686, "html_attributions": ["<a href=\"https://maps.google.com/maps/contrib/104821126002160422800\">Feathertouch International</a>"], "height": 413}], "scope": "GOOGLE", "business_status": "CLOSED_TEMPORARILY", "types": ["school", "point_of_interest", "establishment"], "icon": "https://maps.gstatic.com/mapfiles/place_api/icons/v1/png_71/school-71.png"}, {"rating": 4.9, "user_ratings_total": 15, "name": "Biocon Academy", "reference": "ChIJ98cSWY1srjsRrKx8YZpuaUU", "geometry": {"location": {"lat": 12.84653, "lng": 77.67557339999999}, "viewport": {"northeast": {"lat": 12.8477725802915, "lng": 77.6769196302915}, "southwest": {"lat": 12.8450746197085, "lng": 77.67422166970849}}}, "opening_hours": {"open_now": false}, "place_id": "ChIJ98cSWY1srjsRrKx8YZpuaUU", "plus_code": {"global_code": "7J4VRMWG+J6", "compound_code": "RMWG+J6 Bengaluru, Karnataka, India"}, "vicinity": "Biocon House, Semicon Park, Hosur Road, Electronic City Phase II, Bengaluru", "photos": [{"photo_reference": "ATtYBwI-CuxrDezIoMOAY9nSSfaLqudkGJWKpZu46BdaiXkNp8rPOTFHP5zUnAVgBClUGXbAM_E4c1hnvzQnBGuW3vRiCCyJ3TY7upNAyVeV6jmS8jo2S-ytz3_zKSNrXCHvhUFUc2qWvg8ACniZy0CeE6M4wPc3dV6ITDupMnxRSd8oCVdz", "width": 2400, "html_attributions": ["<a href=\"https://maps.google.com/maps/contrib/116528348905740132596\">Mahira Khan</a>"], "height": 1600}], "scope": "GOOGLE", "business_status": "OPERATIONAL", "types": ["school", "point_of_interest", "establishment"], "icon": "https://maps.gstatic.com/mapfiles/place_api/icons/v1/png_71/school-71.png"}, {"rating": 5, "user_ratings_total": 1, "name": "Pollination Preschool & Child Care", "reference": "ChIJ537UL49srjsReeBwnenCeJI", "geometry": {"location": {"lat": 12.841292, "lng": 77.66723499999999}, "viewport": {"northeast": {"lat": 12.8427446802915, "lng": 77.6685692302915}, "southwest": {"lat": 12.8400467197085, "lng": 77.66587126970848}}}, "place_id": "ChIJ537UL49srjsReeBwnenCeJI", "plus_code": {"global_code": "7J4VRMR8+GV", "compound_code": "RMR8+GV Bengaluru, Karnataka, India"}, "vicinity": "Plot No. 110, 0 / 1, Electronics City Phase 1, Bengaluru", "scope": "GOOGLE", "business_status": "OPERATIONAL", "types": ["school", "point_of_interest", "establishment"], "icon": "https://maps.gstatic.com/mapfiles/place_api/icons/v1/png_71/school-71.png"}, {"rating": 3.3, "user_ratings_total": 37, "name": "New Cambridge Public School", "reference": "ChIJkWMXY75srjsRXCFVg4a38E8", "geometry": {"location": {"lat": 12.8605352, "lng": 77.6716179}, "viewport": {"northeast": {"lat": 12.8619886802915, "lng": 77.6729990302915}, "southwest": {"lat": 12.8592907197085, "lng": 77.6703010697085}}}, "opening_hours": {"open_now": false}, "place_id": "ChIJkWMXY75srjsRXCFVg4a38E8", "plus_code": {"global_code": "7J4VVM6C+6J", "compound_code": "VM6C+6J Doddanagamangala Village, Karnataka, India"}, "vicinity": "Veerabadraswamy Temple Road, First Main Road, Electronic City Phase II, Veerabadraswam Layout, Doddanagamangala Village", "photos": [{"photo_reference": "ATtYBwL5Vf97j5Riw0gF8LNP8ZprtedM9nY8jT3kB0kAjB995khgT08SLUr08UW58Y3SN2UOjL6JC1q6iBXKk8FC8W---HFzWDrpVEdor6Zgd5HdgmPJySg3qCtg8jhNUvG0mhjUSTRYmo_tYHVya7L4v2CDk2Jn6dHRoWUbtjJ-lqD603il", "width": 1200, "html_attributions": ["<a href=\"https://maps.google.com/maps/contrib/116486892465877817083\">New Cambridge Public School</a>"], "height": 672}], "scope": "GOOGLE", "business_status": "OPERATIONAL", "types": ["school", "point_of_interest", "establishment"], "icon": "https://maps.gstatic.com/mapfiles/place_api/icons/v1/png_71/school-71.png"}, {"rating": 3.9, "user_ratings_total": 48, "name": "MM English High School", "reference": "ChIJVZXoUJhsrjsR91U5lJ11Bs0", "geometry": {"location": {"lat": 12.8547156, "lng": 77.65929679999999}, "viewport": {"northeast": {"lat": 12.8560041802915, "lng": 77.6606455302915}, "southwest": {"lat": 12.8533062197085, "lng": 77.65794756970848}}}, "opening_hours": {"open_now": false}, "place_id": "ChIJVZXoUJhsrjsR91U5lJ11Bs0", "plus_code": {"global_code": "7J4VVM35+VP", "compound_code": "VM35+VP Bengaluru, Karnataka, India"}, "vicinity": "Doddathogur Main Road, Konappana Agrahara, Electronic City, Bengaluru", "photos": [{"photo_reference": "ATtYBwJ87LMaHg19friSSkMuLZe0z9bxJ80XMgRDFKEzAtEG0LDIqErETnISbJ-TBXSRlEvltHj9vjZPBU-ytW2vElCvkglVhGsv_-I2tsR4GXpEhRWNO47h7zxOUUB88sQK17Mxys2e3mF7EcgyQ3ORWTp_T_Ndf2_Pf7On_TtP3uVS_5gz", "width": 3771, "html_attributions": ["<a href=\"https://maps.google.com/maps/contrib/106910855564669890473\">Suresh Gurushav</a>"], "height": 2121}], "scope": "GOOGLE", "business_status": "OPERATIONAL", "types": ["secondary_school", "school", "point_of_interest", "establishment"], "icon": "https://maps.gstatic.com/mapfiles/place_api/icons/v1/png_71/school-71.png"}, {"rating": 4.8, "user_ratings_total": 323, "name": "KLAY Preschool and DayCare", "reference": "ChIJ_fyNuIVsrjsRrCA8n9jyvuY", "geometry": {"location": {"lat": 12.8405937, "lng": 77.6627944}, "viewport": {"northeast": {"lat": 12.8419263802915, "lng": 77.6640945302915}, "southwest": {"lat": 12.8392284197085, "lng": 77.66139656970849}}}, "opening_hours": {"open_now": false}, "place_id": "ChIJ_fyNuIVsrjsRrCA8n9jyvuY", "plus_code": {"global_code": "7J4VRMR7+64", "compound_code": "RMR7+64 Bengaluru, Karnataka, India"}, "vicinity": "Police Station, Majestic Terrace, Plot 62- B, Opp E City Phase 1, Electronic City, Bengaluru", "photos": [{"photo_reference": "ATtYBwKQpEs-8c7CZU-a_jrA4861VwY17xGB-hMeSyRcrCAKeOn6l0mdbZLM50W8ppLLRstR1kC9rEe8ZqQ3r26oEX6i85nlXBhEEHcSmhPToFoebXNTudYwjqy9d9XxfBxaQJGP2QMdm8niESZkMQgmhhJMpdHd6afqP7IBxT9wq1LeeO-y", "width": 3450, "html_attributions": ["<a href=\"https://maps.google.com/maps/contrib/102176849570082231570\">Sankar S</a>"], "height": 2300}], "scope": "GOOGLE", "business_status": "OPERATIONAL", "types": ["school", "point_of_interest", "establishment"], "icon": "https://maps.gstatic.com/mapfiles/place_api/icons/v1/png_71/school-71.png"}, {"rating": 4.3, "user_ratings_total": 310, "name": "Sorsfort International School", "reference": "ChIJzaIPuJlsrjsRJuzjOXC242Y", "geometry": {"location": {"lat": 12.8544902, "lng": 77.66342569999999}, "viewport": {"northeast": {"lat": 12.8557655802915, "lng": 77.6647698802915}, "southwest": {"lat": 12.8530676197085, "lng": 77.6620719197085}}}, "opening_hours": {"open_now": false}, "place_id": "ChIJzaIPuJlsrjsRJuzjOXC242Y", "plus_code": {"global_code": "7J4VVM37+Q9", "compound_code": "VM37+Q9 Bengaluru, Karnataka, India"}, "vicinity": "near HP Office, 90, Hewlett Packard Avenue, Konappana Agrahara, Electronics City, Phase I, near HP Office, Bengaluru", "photos": [{"photo_reference": "ATtYBwIC98jhOQz0tLSd41FJFEB6qpTqvF7hNg7hrMWvpWzIXED39V1BoQgHyC5guLVkzTFhVps6yzk8UAAq7LirenH4X10hKn8d-6mx2XNEUmC0RBCstLZT0DzFQAqaR3zbiwxM5_u4LE7RKhrT3BktWMKK-wBCwEbqZZeMDrNPe8jqcJIk", "width": 2199, "html_attributions": ["<a href=\"https://maps.google.com/maps/contrib/106910855564669890473\">Suresh Gurushav</a>"], "height": 1060}], "scope": "GOOGLE", "business_status": "OPERATIONAL", "types": ["school", "primary_school", "secondary_school", "point_of_interest", "establishment"], "icon": "https://maps.gstatic.com/mapfiles/place_api/icons/v1/png_71/school-71.png"}, {"name": "Maharishi Global School", "reference": "ChIJtcNatvRsrjsRKevcwJzE5xc", "geometry": {"location": {"lat": 12.8399389, "lng": 77.6770031}, "viewport": {"northeast": {"lat": 12.8412864302915, "lng": 77.6783506302915}, "southwest": {"lat": 12.8385884697085, "lng": 77.6756526697085}}}, "place_id": "ChIJtcNatvRsrjsRKevcwJzE5xc", "vicinity": "near BHEL Signal, NDR Campus, Plot No.63/9, Behind 3M Birla Factory, Electronic City, near BHEL Signal, Bengaluru", "scope": "GOOGLE", "business_status": "OPERATIONAL", "types": ["school", "point_of_interest", "establishment"], "icon": "https://maps.gstatic.com/mapfiles/place_api/icons/v1/png_71/school-71.png"}, {"rating": 4, "user_ratings_total": 57, "name": "XIME Boys Hostel", "reference": "ChIJbXrsTu1srjsRvG31yPO_yWA", "geometry": {"location": {"lat": 12.8477063, "lng": 77.6771894}, "viewport": {"northeast": {"lat": 12.8490812302915, "lng": 77.67858248029151}, "southwest": {"lat": 12.8463832697085, "lng": 77.6758845197085}}}, "opening_hours": {"open_now": false}, "place_id": "ChIJbXrsTu1srjsRvG31yPO_yWA", "plus_code": {"global_code": "7J4VRMXG+3V", "compound_code": "RMXG+3V Bengaluru, Karnataka, India"}, "vicinity": "17-B, Hosur Road, Electronic City Phase II, Electronic City, Bengaluru", "photos": [{"photo_reference": "ATtYBwJTMAnLgeIM516VN32CgdemBktvH9aYQ5hw0HUB0qr1N1EjFe0B6zZHoAmZKKaj8E7EC4e9XmxwYHuEjmmliBcKADGoT5ZMJ89PsIA-Z_vttRwkMWplw_XFYLmmD9opZpPsyuSt5d8eamyFadS4A8vMmp3lnqQiuJqRHaEAnsPIUlDc", "width": 3840, "html_attributions": ["<a href=\"https://maps.google.com/maps/contrib/101804907947639352421\">Muthu kumaran</a>"], "height": 2160}], "scope": "GOOGLE", "business_status": "OPERATIONAL", "types": ["school", "point_of_interest", "establishment"], "icon": "https://maps.gstatic.com/mapfiles/place_api/icons/v1/png_71/school-71.png"}, {"rating": 1, "user_ratings_total": 1, "name": "Silicon Valley High School", "reference": "ChIJpdr0vyVtrjsRoiy_BT5K7-Q", "geometry": {"location": {"lat": 12.8506542, "lng": 77.67097509999999}, "viewport": {"northeast": {"lat": 12.8520000802915, "lng": 77.67236743029149}, "southwest": {"lat": 12.8493021197085, "lng": 77.66966946970848}}}, "place_id": "ChIJpdr0vyVtrjsRoiy_BT5K7-Q", "plus_code": {"global_code": "7J4VVM2C+79", "compound_code": "VM2C+79 Bengaluru, Karnataka, India"}, "vicinity": "opp. Silicon Valley High School, #11, shop 2, opp. Silicon Valley High School, 2nd Cross Road, Rajeshwari Nagar, Electronic City, Bengaluru", "photos": [{"photo_reference": "ATtYBwKSQy0GhaM49Tt7h4kogT_n8vSAGzxZZotFhZjLcikH9tA02XxrxjbhoMAIOjUVlFcT_YJ4NDXX77uKUGs7IkuLLWfVb0lcv0Nh5FTUrFCqHXqDMOJgIeSraxzpLxNnyCRQ1MFhi_5si3D-LvQEbzsxSD0V5cC4CAxxmZSEF08D_eVi", "width": 1796, "html_attributions": ["<a href=\"https://maps.google.com/maps/contrib/109083476056531382992\">Sajal Das</a>"], "height": 1624}], "scope": "GOOGLE", "business_status": "OPERATIONAL", "types": ["school", "point_of_interest", "establishment"], "icon": "https://maps.gstatic.com/mapfiles/place_api/icons/v1/png_71/school-71.png"}, {"rating": 4.2, "user_ratings_total": 35, "name": "Silicon Valley High School", "reference": "ChIJ1dix35NsrjsRCfnv1FCvDBE", "geometry": {"location": {"lat": 12.8507456, "lng": 77.6710086}, "viewport": {"northeast": {"lat": 12.85542485, "lng": 77.6725703802915}, "southwest": {"lat": 12.84918585, "lng": 77.6698724197085}}}, "opening_hours": {"open_now": false}, "place_id": "ChIJ1dix35NsrjsRCfnv1FCvDBE", "plus_code": {"global_code": "7J4VVM2C+7C", "compound_code": "VM2C+7C Bengaluru, Karnataka, India"}, "vicinity": "behind Syndicate Bank, No: 30, 2nd Cross Road, Electronic City Phase II, Bengaluru", "photos": [{"photo_reference": "ATtYBwK3eZpe25d3V7y8iRez_pUHLl-IxbreeUHIpbogpCwpZwwCHTj0hYH1slRcRYxngR-3EIcpyo02cNn5JtgykKeggcqdRTtsBL0gL8HX8MjmgRlMr6VYOPEQvAsuQ2EbMMNxjXzM3DPC-m7O0CWJku8YD2YFwWiBGL51AhPUeg8Yb9Iu", "width": 864, "html_attributions": ["<a href=\"https://maps.google.com/maps/contrib/114587924107898748923\">Thilak S</a>"], "height": 1152}], "scope": "GOOGLE", "business_status": "OPERATIONAL", "types": ["school", "point_of_interest", "establishment"], "icon": "https://maps.gstatic.com/mapfiles/place_api/icons/v1/png_71/school-71.png"}, {"rating": 5, "user_ratings_total": 37, "name": "Maruti Driving School (Surakshaa car care pvt ltd)", "reference": "ChIJZ7M2TXJtrjsRooQavENbXE4", "geometry": {"location": {"lat": 12.8508376, "lng": 77.6689665}, "viewport": {"northeast": {"lat": 12.8521865802915, "lng": 77.6703154802915}, "southwest": {"lat": 12.8494886197085, "lng": 77.6676175197085}}}, "opening_hours": {"open_now": false}, "place_id": "ChIJZ7M2TXJtrjsRooQavENbXE4", "plus_code": {"global_code": "7J4VVM29+8H", "compound_code": "VM29+8H Bengaluru, Karnataka, India"}, "vicinity": "30, 3, Hosur Road, Konappana Agrahara, Electronic City, Bengaluru", "photos": [{"photo_reference": "ATtYBwLh_mdj-QehRPikmRF8lxLM8hHEj7dOzd6OeywwndqKDrvlBXxMxBkFO_nx1wT_VylKInMVECkKigVui7ldwFDTmDkGpG4vgOpjwYmA8IMWnyMrKwOPsLlgVmbj4XOqdjoYFiMFZEl9YmZheyMNAttboFZHkAEThpebtltOLwpbVEdE", "width": 1280, "html_attributions": ["<a href=\"https://maps.google.com/maps/contrib/115232839118311612367\">Jaga Suriya</a>"], "height": 1066}], "scope": "GOOGLE", "business_status": "OPERATIONAL", "types": ["school", "point_of_interest", "establishment"], "icon": "https://maps.gstatic.com/mapfiles/place_api/icons/v1/png_71/school-71.png"}, {"name": "Shobha", "reference": "ChIJXQV0WS1trjsR5JBU1UNC3X8", "geometry": {"location": {"lat": 12.8505367, "lng": 77.67131429999999}, "viewport": {"northeast": {"lat": 12.8518975802915, "lng": 77.6726335802915}, "southwest": {"lat": 12.8491996197085, "lng": 77.66993561970848}}}, "place_id": "ChIJXQV0WS1trjsR5JBU1UNC3X8", "plus_code": {"global_code": "7J4VVM2C+6G", "compound_code": "VM2C+6G Bengaluru, Karnataka, India"}, "vicinity": "Govinda Shetty Palya Road, Kamadhenu Layout, Konappana Agrahara, Electronic City, Bengaluru", "scope": "GOOGLE", "business_status": "OPERATIONAL", "types": ["school", "point_of_interest", "establishment"], "icon": "https://maps.gstatic.com/mapfiles/place_api/icons/v1/png_71/school-71.png"}, {"name": "sri sai preschool", "reference": "ChIJHQkl0JNsrjsRH-iiHiMQmWA", "geometry": {"location": {"lat": 12.8500016, "lng": 77.67147369999999}, "viewport": {"northeast": {"lat": 12.8514210302915, "lng": 77.6728405302915}, "southwest": {"lat": 12.8487230697085, "lng": 77.67014256970849}}}, "place_id": "ChIJHQkl0JNsrjsRH-iiHiMQmWA", "plus_code": {"global_code": "7J4VVM2C+2H", "compound_code": "VM2C+2H Bengaluru, Karnataka, India"}, "vicinity": "G Ramesh, Narayana Reddy Layout, Mylasandra, Bengaluru", "photos": [{"photo_reference": "ATtYBwLqgl2Lpn48tA3SdFr-cUI1YaKheSXB9lIKATZEKw6tGXhGhlY76GmxhyzcuRGf0Ea2FeOUOIAQfcUArOqMgWLqq8zMSaLxyYDWYPUAabMguXRKh1uSFhuCqF20xM1gvBZd3dmymZTFsIqKRTGP5ymJWjE_9bSmXBOyvV8Vg7xeM2Ua", "width": 4160, "html_attributions": ["<a href=\"https://maps.google.com/maps/contrib/108854028292012539388\">Dr Nagendrappa Shiroor</a>"], "height": 3120}], "scope": "GOOGLE", "business_status": "OPERATIONAL", "types": ["school", "point_of_interest", "establishment"], "icon": "https://maps.gstatic.com/mapfiles/place_api/icons/v1/png_71/school-71.png"}, {"name": "Govind Raj Building", "reference": "ChIJ5QcAmuptrjsR-tkcTtKVWd8", "geometry": {"location": {"lat": 12.851508, "lng": 77.66998939999999}, "viewport": {"northeast": {"lat": 12.8528698302915, "lng": 77.6712708802915}, "southwest": {"lat": 12.8501718697085, "lng": 77.66857291970848}}}, "place_id": "ChIJ5QcAmuptrjsR-tkcTtKVWd8", "plus_code": {"global_code": "7J4VVM29+JX", "compound_code": "VM29+JX Bengaluru, Karnataka, India"}, "vicinity": "Konappana Agrahara, Electronic City, Bengaluru", "scope": "GOOGLE", "business_status": "OPERATIONAL", "types": ["school", "point_of_interest", "establishment"], "icon": "https://maps.gstatic.com/mapfiles/place_api/icons/v1/png_71/school-71.png"}, {"name": "Maths Tuition Classes - Cuemath", "reference": "ChIJwbjPRnRtrjsRhoOR4H6MDEk", "geometry": {"location": {"lat": 12.84914, "lng": 77.67142}, "viewport": {"northeast": {"lat": 12.8504493302915, "lng": 77.6726561802915}, "southwest": {"lat": 12.8477513697085, "lng": 77.66995821970848}}}, "opening_hours": {"open_now": true}, "place_id": "ChIJwbjPRnRtrjsRhoOR4H6MDEk", "plus_code": {"global_code": "7J4VRMXC+MH", "compound_code": "RMXC+MH Bengaluru, Karnataka, India"}, "vicinity": "near SYNDICATE BANK, Konappana Agrahara, Electronic City, Bengaluru", "photos": [{"photo_reference": "ATtYBwIJOGI_i9CrMrp2fMXvfBtiT3307vlFcupouVCiE-53tOZNmJ6nIoDepdYuKXqDF2H_wWlp3QJWDlaS324cDvYrauzPeLPkmbVMQ9c9t2QVKr6PV_mqQYidpvSySCbgqPcB29GEd_mL2vTix7Xl9yLGhIBibZoiCocmRrJa9QzbGfoH", "width": 3000, "html_attributions": ["<a href=\"https://maps.google.com/maps/contrib/118082028946277632718\">Maths Tuition Classes - Cuemath</a>"], "height": 2000}], "scope": "GOOGLE", "business_status": "OPERATIONAL", "types": ["secondary_school", "university", "school", "point_of_interest", "establishment"], "icon": "https://maps.gstatic.com/mapfiles/place_api/icons/v1/png_71/school-71.png"}]}