{"status": "OK", "html_attributions": [], "results": [{"rating": 4.2, "user_ratings_total": 161, "name": "Jawahar Navodaya Vidyalaya, Bangalore Urban", "reference": "ChIJS17nAfUbrjsR02LAVLkoocU", "geometry": {"location": {"lat": 13.1492246, "lng": 77.67385840000001}, "viewport": {"northeast": {"lat": 13.1504175302915, "lng": 77.67518308029152}, "southwest": {"lat": 13.1477195697085, "lng": 77.6724851197085}}}, "opening_hours": {"open_now": false}, "place_id": "ChIJS17nAfUbrjsR02LAVLkoocU", "plus_code": {"global_code": "7J5V4MXF+MG", "compound_code": "4MXF+MG Bagalur, Bengaluru, Karnataka, India"}, "vicinity": "State Highway 104, Yelahanka North, Bangalore Urban District, Bagalur", "photos": [{"photo_reference": "ATtYBwI5gcyyzKk28x7UWJq3Dsn8X9IeJvwQNuO10s1GGrM708jIECP7KBHcp42Qoys1OBdSFoRp829Vj0Hf8-7ytA7WiDe0v8uIDmR98Tvqg8rvgEXzX3h2CYbBz5tD2jJG0OQBzpNWNG2M9m3xQ5pbBpFD7eWpwVNg1MZ9oYgnF_X8tNqQ", "width": 4000, "html_attributions": ["<a href=\"https://maps.google.com/maps/contrib/110453525494731727030\">Pradeep Gouda</a>"], "height": 2250}], "scope": "GOOGLE", "business_status": "OPERATIONAL", "types": ["school", "point_of_interest", "establishment"], "icon": "https://maps.gstatic.com/mapfiles/place_api/icons/v1/png_71/school-71.png"}, {"name": "Charles T Munger Hall", "reference": "ChIJyai4t_UbrjsR5u_uO5iXEoQ", "geometry": {"location": {"lat": 13.1496914, "lng": 77.67231459999999}, "viewport": {"northeast": {"lat": 13.1511029802915, "lng": 77.6736733302915}, "southwest": {"lat": 13.1484050197085, "lng": 77.6709753697085}}}, "place_id": "ChIJyai4t_UbrjsR5u_uO5iXEoQ", "plus_code": {"global_code": "7J5V4MXC+VW", "compound_code": "4MXC+VW Bengaluru, Karnataka, India"}, "vicinity": "BEML Layout, Bagalur, Bengaluru", "scope": "GOOGLE", "business_status": "OPERATIONAL", "types": ["school", "point_of_interest", "establishment"], "icon": "https://maps.gstatic.com/mapfiles/place_api/icons/v1/png_71/school-71.png"}, {"rating": 5, "user_ratings_total": 1, "name": "CTM Hall, Dakshana Foundation, JNV Bangalore Urban", "reference": "ChIJUecRO1obrjsRPFP7P2KKDwk", "geometry": {"location": {"lat": 13.1495312, "lng": 77.6723228}, "viewport": {"northeast": {"lat": 13.1510203802915, "lng": 77.67369348029152}, "southwest": {"lat": 13.1483224197085, "lng": 77.67099551970851}}}, "place_id": "ChIJUecRO1obrjsRPFP7P2KKDwk", "plus_code": {"global_code": "7J5V4MXC+RW", "compound_code": "4MXC+RW Bengaluru, Karnataka, India"}, "vicinity": "JNV Bagalur, North, Yelahanka, Bengaluru", "scope": "GOOGLE", "business_status": "OPERATIONAL", "types": ["school", "point_of_interest", "establishment"], "icon": "https://maps.gstatic.com/mapfiles/place_api/icons/v1/png_71/school-71.png"}, {"name": "Gravity orienting intelligence", "reference": "ChIJsz5ltvUbrjsRDr8twxateuA", "geometry": {"location": {"lat": 13.1495014, "lng": 77.67236489999999}, "viewport": {"northeast": {"lat": 13.1510019302915, "lng": 77.6737372802915}, "southwest": {"lat": 13.1483039697085, "lng": 77.6710393197085}}}, "place_id": "ChIJsz5ltvUbrjsRDr8twxateuA", "plus_code": {"global_code": "7J5V4MXC+RW", "compound_code": "4MXC+RW Bengaluru, Karnataka, India"}, "vicinity": "BEML Layout, Bagalur, Bengaluru", "scope": "GOOGLE", "business_status": "OPERATIONAL", "types": ["school", "point_of_interest", "establishment"], "icon": "https://maps.gstatic.com/mapfiles/place_api/icons/v1/png_71/school-71.png"}, {"rating": 4.6, "user_ratings_total": 23, "name": "Dakshana Foundation J N V Bagalur", "reference": "ChIJl4hpu_UbrjsRWqDzR7CxeB8", "geometry": {"location": {"lat": 13.1501184, "lng": 77.672842}, "viewport": {"northeast": {"lat": 13.1515860802915, "lng": 77.6742601802915}, "southwest": {"lat": 13.1488881197085, "lng": 77.67156221970849}}}, "opening_hours": {"open_now": false}, "place_id": "ChIJl4hpu_UbrjsRWqDzR7CxeB8", "plus_code": {"global_code": "7J5V5M2F+24", "compound_code": "5M2F+24 Bengaluru, Karnataka, India"}, "vicinity": "BEML Layout, Bagalur, Bengaluru", "photos": [{"photo_reference": "ATtYBwLxeu-GHpMWtZaYAqoVX4NdEqpUT-aHBL00nYIfHBc7HaN0nXn4Dmhy0y9MthZREQL7ousAUpVkDNQHDeB7xoGmPhFjENzk016iD_EHzI3zxwzNENVnMuFS6jUxre0_qlsqUjgJBeDGaCJX5aq1HgYTAhSbT48TdwddWiW7S_Kph-iz", "width": 4096, "html_attributions": ["<a href=\"https://maps.google.com/maps/contrib/102874536572349246010\">Pradip Sarmah</a>"], "height": 2304}], "scope": "GOOGLE", "business_status": "OPERATIONAL", "types": ["school", "point_of_interest", "establishment"], "icon": "https://maps.gstatic.com/mapfiles/place_api/icons/v1/png_71/school-71.png"}, {"rating": 3.3, "user_ratings_total": 7, "name": "Govt High School Bagalur", "reference": "ChIJ8bA7CfQbrjsR_M6dvlW2CsU", "geometry": {"location": {"lat": 13.1465352, "lng": 77.67174659999999}, "viewport": {"northeast": {"lat": 13.1476751302915, "lng": 77.67432255000001}, "southwest": {"lat": 13.1449771697085, "lng": 77.67088795000001}}}, "place_id": "ChIJ8bA7CfQbrjsR_M6dvlW2CsU", "plus_code": {"global_code": "7J5V4MWC+JM", "compound_code": "4MWC+JM Bengaluru, Karnataka, India"}, "vicinity": "State Highway 104, BEML Layout, Bagalur, Bengaluru", "photos": [{"photo_reference": "ATtYBwI4CXb_aX0xK47WU9PdlXEaaKpOVLSCxHwl0JoMZAbUjcUgWsMeEki1FGlsYuLe0gSaGkvVEHgG3S2gtBdR1hLy5jzoL3v7qrosD-HbABsrzvZnKHNu-0556mF9v-qB8wIw49Pu-jAXkvE3cf5opOX7WREchYm5BawOHOfgBMOnRuZK", "width": 4160, "html_attributions": ["<a href=\"https://maps.google.com/maps/contrib/101552905475653454622\">Syed syedsuleman</a>"], "height": 3120}], "scope": "GOOGLE", "business_status": "OPERATIONAL", "types": ["school", "point_of_interest", "establishment"], "icon": "https://maps.gstatic.com/mapfiles/place_api/icons/v1/png_71/school-71.png"}, {"name": "Academic Block", "reference": "ChIJ0faNAfUbrjsRxlL7fcr2N7Y", "geometry": {"location": {"lat": 13.1492839, "lng": 77.6739698}, "viewport": {"northeast": {"lat": 13.1507809302915, "lng": 77.6753341802915}, "southwest": {"lat": 13.1480829697085, "lng": 77.6726362197085}}}, "opening_hours": {"open_now": false}, "place_id": "ChIJ0faNAfUbrjsRxlL7fcr2N7Y", "plus_code": {"global_code": "7J5V4MXF+PH", "compound_code": "4MXF+PH Bengaluru, Karnataka, India"}, "vicinity": "Jawahar navodaya vidyalaya, Bagalur, Bengaluru", "photos": [{"photo_reference": "ATtYBwIJlVCS_JVWdLtgsXIJvikXLrkr2_lQzIX5HuFx93sa8RyA8ITRZOTt-4AiF9EHqn3TCGv4uOWJn7_dum5Q-f-qTlFO-rX2bKJ8ivgBT395k6HhNTX2WH7_Skm7GEVsjNhvRAObxWJmuyeBJXp7WLOJtHx0mRE6FtOHjrd35aKynFPv", "width": 1080, "html_attributions": ["<a href=\"https://maps.google.com/maps/contrib/107343820492418527120\">Naveen Gugal</a>"], "height": 1920}], "scope": "GOOGLE", "business_status": "OPERATIONAL", "types": ["school", "point_of_interest", "establishment"], "icon": "https://maps.gstatic.com/mapfiles/place_api/icons/v1/png_71/school-71.png"}, {"rating": 5, "user_ratings_total": 1, "name": "Govt Primary School Bagalur", "reference": "ChIJz15qHaobrjsRyDgLPJTNGQk", "geometry": {"location": {"lat": 13.1445208, "lng": 77.67182869999999}, "viewport": {"northeast": {"lat": 13.1459382302915, "lng": 77.67328308029151}, "southwest": {"lat": 13.1432402697085, "lng": 77.67058511970849}}}, "place_id": "ChIJz15qHaobrjsRyDgLPJTNGQk", "plus_code": {"global_code": "7J5V4MVC+RP", "compound_code": "4MVC+RP Bengaluru, Karnataka, India"}, "vicinity": "Bagalur Colony, BEML Layout, Bengaluru", "scope": "GOOGLE", "business_status": "OPERATIONAL", "types": ["school", "point_of_interest", "establishment"], "icon": "https://maps.gstatic.com/mapfiles/place_api/icons/v1/png_71/school-71.png"}, {"name": "Azeezkhan", "reference": "ChIJ6XW-g1EbrjsRi63viPQjnMs", "geometry": {"location": {"lat": 13.1481561, "lng": 77.66361390000002}, "viewport": {"northeast": {"lat": 13.1495237302915, "lng": 77.6648886302915}, "southwest": {"lat": 13.1468257697085, "lng": 77.6621906697085}}}, "place_id": "ChIJ6XW-g1EbrjsRi63viPQjnMs", "plus_code": {"global_code": "7J5V4MX7+7C", "compound_code": "4MX7+7C Bengaluru, Karnataka, India"}, "vicinity": "Razak Palaya Road, Razack Palya, Bengaluru", "scope": "GOOGLE", "business_status": "OPERATIONAL", "types": ["school", "point_of_interest", "establishment"], "icon": "https://maps.gstatic.com/mapfiles/place_api/icons/v1/png_71/school-71.png"}, {"name": "Kgf", "reference": "ChIJsTXvSpAbrjsRNEkaNOIQNGY", "geometry": {"location": {"lat": 13.1430902, "lng": 77.6703912}, "viewport": {"northeast": {"lat": 13.1443825802915, "lng": 77.6717188802915}, "southwest": {"lat": 13.1416846197085, "lng": 77.66902091970849}}}, "place_id": "ChIJsTXvSpAbrjsRNEkaNOIQNGY", "plus_code": {"global_code": "7J5V4MVC+65", "compound_code": "4MVC+65 Bengaluru, Karnataka, India"}, "vicinity": "Unnamed Road, Bagalur Colony, BEML Layout, Bagalur, Bengaluru", "scope": "GOOGLE", "business_status": "OPERATIONAL", "types": ["school", "point_of_interest", "establishment"], "icon": "https://maps.gstatic.com/mapfiles/place_api/icons/v1/png_71/school-71.png"}, {"rating": 4.3, "user_ratings_total": 10, "name": "Astana e Rabbani Peer", "reference": "ChIJ8wtuxOsbrjsRXwXF16UP-YM", "geometry": {"location": {"lat": 13.1437405, "lng": 77.6630137}, "viewport": {"northeast": {"lat": 13.1450844802915, "lng": 77.66441438029149}, "southwest": {"lat": 13.1423865197085, "lng": 77.66171641970848}}}, "opening_hours": {"open_now": true}, "place_id": "ChIJ8wtuxOsbrjsRXwXF16UP-YM", "plus_code": {"global_code": "7J5V4MV7+F6", "compound_code": "4MV7+F6 Bengaluru, Karnataka, India"}, "vicinity": "Razack Palya, Bengaluru", "photos": [{"photo_reference": "ATtYBwLy5w6pa9qPjRo-MsbVhO7OpReAdgOy8HpP3Q0cXEhXUG6Ukxrxjb_lMx2zWNP2fyaUdGTFUZMUwKYVW9g4bMVSZSD8wmDXmFIx69vlkv6HNGlFkTl2M0DrnZdLsk0xgCYdy7ilKsjYIGPDBZQOLVHPbYU85Z38jli7MRpLB29_wFU1", "width": 2448, "html_attributions": ["<a href=\"https://maps.google.com/maps/contrib/100756757296070815650\">sarkarpeer rabbani</a>"], "height": 3264}], "scope": "GOOGLE", "business_status": "OPERATIONAL", "types": ["school", "health", "point_of_interest", "establishment"], "icon": "https://maps.gstatic.com/mapfiles/place_api/icons/v1/png_71/school-71.png"}, {"name": "NATIONAL PUBLIC SCHOOL RAZACK SAB PALYA", "reference": "ChIJj55i_rwbrjsRSfI1AuAXpNs", "geometry": {"location": {"lat": 13.1480646, "lng": 77.65899759999999}, "viewport": {"northeast": {"lat": 13.1493755302915, "lng": 77.66034003029151}, "southwest": {"lat": 13.1466775697085, "lng": 77.65764206970849}}}, "place_id": "ChIJj55i_rwbrjsRSfI1AuAXpNs", "plus_code": {"global_code": "7J5V4MX5+6H", "compound_code": "4MX5+6H Bengaluru, Karnataka, India"}, "vicinity": "Razack Palya, Bengaluru", "scope": "GOOGLE", "business_status": "OPERATIONAL", "types": ["school", "point_of_interest", "establishment"], "icon": "https://maps.gstatic.com/mapfiles/place_api/icons/v1/png_71/school-71.png"}, {"name": "M.nawaz.pasha", "reference": "ChIJ9XSQDfwbrjsRU2l34PhHuUE", "geometry": {"location": {"lat": 13.1444136, "lng": 77.6586234}, "viewport": {"northeast": {"lat": 13.1457080302915, "lng": 77.65997553029149}, "southwest": {"lat": 13.1430100697085, "lng": 77.65727756970848}}}, "place_id": "ChIJ9XSQDfwbrjsRU2l34PhHuUE", "plus_code": {"global_code": "7J5V4MV5+QC", "compound_code": "4MV5+QC Bengaluru, Karnataka, India"}, "vicinity": "Razack Palya, Bengaluru", "scope": "GOOGLE", "business_status": "OPERATIONAL", "types": ["school", "point_of_interest", "establishment"], "icon": "https://maps.gstatic.com/mapfiles/place_api/icons/v1/png_71/school-71.png"}]}