{"status": "OK", "next_page_token": "ATtYBwJmI9neD9YdQgnq6TGNJSL8xki9L9Tzfds2uNVynUn9RUnH9AjYKuw3MYngyakUiDf_FL3SkaQ2Rz1IGFcAHF01z7rLXo9RtkaffCA9CFPnrysNaM2tikyk9klIg1aCbo_kPLnguA-h_2lKrbcEiuJN2dDyX2pDpW_VKMlgO9W6kMth3DKY_uk8u2BysxMHZ_fOnmxn4hQTBn7pKUDQRCiM1C-X8sDr3l40mH9CgHF3zl22Ic8YZjyX4ej8Abe1BpZAROkLb6tEvPnt-eOvmBR5JOvtzORsJJAZLiQYF_SMZTf4ns4Pd-eJnFC84CzeZdpL7OtdwAJ-btI4s3K3rF_mnAocDbdomMlaEPdFlr4AwItFO4QIWM5cji9-fiEjHc2cl_Yvpq6WgqLq5ER7-y9zWkVkhot-_KbfblXDN2Jd4bo1lPw1qTQdH6MN9ardKhUJJrXQH-0zusIW4jBQgJXUjup_g5xwdORJvcXSGHU2M3nbE7WAYye3E4bQ1YXFDzYjX9u7bkHqfmZ2m7zNPeCm4yFPlojTZxvD5eZAtQf8XSeXffS2ShYQ--gfoAvlpGqEdmdw4vh02q9eamck2_UK7c8_I4d3qqsOC_NOUfofgBesS3VipydKIZMgSVswcUQdM_yR", "html_attributions": [], "results": [{"name": "SMV Oprhan Children School", "reference": "ChIJZ2YRIy5srjsRqqGBTlNkf_Y", "geometry": {"location": {"lat": 12.8018177, "lng": 77.6920198}, "viewport": {"northeast": {"lat": 12.8031679302915, "lng": 77.69335843029151}, "southwest": {"lat": 12.8004699697085, "lng": 77.6906604697085}}}, "place_id": "ChIJZ2YRIy5srjsRqqGBTlNkf_Y", "plus_code": {"global_code": "7J4VRM2R+PR", "compound_code": "RM2R+PR Kithiganahalli, Karnataka, India"}, "vicinity": "Kithiganahalli", "scope": "GOOGLE", "business_status": "OPERATIONAL", "types": ["school", "point_of_interest", "establishment"], "icon": "https://maps.gstatic.com/mapfiles/place_api/icons/v1/png_71/school-71.png"}, {"name": "SMV Orphan Children Society", "reference": "ChIJZ2YRIy5srjsRZlFeqRI8J0s", "geometry": {"location": {"lat": 12.8018177, "lng": 77.6920198}, "viewport": {"northeast": {"lat": 12.8031679302915, "lng": 77.69335843029151}, "southwest": {"lat": 12.8004699697085, "lng": 77.6906604697085}}}, "place_id": "ChIJZ2YRIy5srjsRZlFeqRI8J0s", "plus_code": {"global_code": "7J4VRM2R+PR", "compound_code": "RM2R+PR Kithiganahalli, Karnataka, India"}, "vicinity": "Kithiganahalli", "scope": "GOOGLE", "business_status": "OPERATIONAL", "types": ["school", "point_of_interest", "establishment"], "icon": "https://maps.gstatic.com/mapfiles/place_api/icons/v1/png_71/school-71.png"}, {"rating": 4, "user_ratings_total": 1, "name": "Narayana hrudayalaya Boys Hostel", "reference": "ChIJdXDIO25trjsRnIi06DOGTTg", "geometry": {"location": {"lat": 12.8036263, "lng": 77.69576550000001}, "viewport": {"northeast": {"lat": 12.8049727802915, "lng": 77.69715748029151}, "southwest": {"lat": 12.8022748197085, "lng": 77.6944595197085}}}, "place_id": "ChIJdXDIO25trjsRnIi06DOGTTg", "plus_code": {"global_code": "7J4VRM3W+F8", "compound_code": "RM3W+F8 Bommasandra, Karnataka, India"}, "vicinity": "Bommasandra Industrial Area, Bommasandra", "photos": [{"photo_reference": "ATtYBwJBAjoFu5ta55fpTTRpMdoXfNJwRznUeVq3Ih7GxzIf7s4hGWJD_O5TK5hlnPxctTXPOSjpAlM3sg83QXLI-wDSQQQWXrZbMTFX3NmAHZzq3b0szhJGCvEF_EJq8YTKUtWd4o0DNKPTqS9ygSvmJ_-94z0DyQZs05iCHXcB7wQ7Jfr1", "width": 4000, "html_attributions": ["<a href=\"https://maps.google.com/maps/contrib/103153664695957541637\">vijay dilip</a>"], "height": 3000}], "scope": "GOOGLE", "business_status": "OPERATIONAL", "types": ["school", "point_of_interest", "establishment"], "icon": "https://maps.gstatic.com/mapfiles/place_api/icons/v1/png_71/school-71.png"}, {"name": "\u0ca6\u0cca\u0ca1\u0ccd\u0ca1 \u0c9c\u0ccb\u0c97\u0cc6\u0c9f\u0ccd\u0c9f\u0caa\u0ccd\u0caa \u0cac\u0cca\u0cae\u0ccd\u0cae\u0cb8\u0c82\u0ca6\u0ccd\u0cb0", "reference": "ChIJf2Twxg9trjsROL8wtaCubFo", "geometry": {"location": {"lat": 12.81448, "lng": 77.6978895}, "viewport": {"northeast": {"lat": 12.8158246302915, "lng": 77.69927748029151}, "southwest": {"lat": 12.8131266697085, "lng": 77.6965795197085}}}, "place_id": "ChIJf2Twxg9trjsROL8wtaCubFo", "plus_code": {"global_code": "7J4VRM7X+Q5", "compound_code": "RM7X+Q5 Bommasandra, Karnataka, India"}, "vicinity": "Tranquil City, Bommasandra Village, Bommasandra", "scope": "GOOGLE", "business_status": "OPERATIONAL", "types": ["school", "point_of_interest", "establishment"], "icon": "https://maps.gstatic.com/mapfiles/place_api/icons/v1/png_71/school-71.png"}, {"rating": 3, "user_ratings_total": 4, "name": "Kannada", "reference": "ChIJOeFDlEpsrjsR7N73AsJrP6c", "geometry": {"location": {"lat": 12.8151352, "lng": 77.6977316}, "viewport": {"northeast": {"lat": 12.8164726302915, "lng": 77.6990860302915}, "southwest": {"lat": 12.8137746697085, "lng": 77.69638806970849}}}, "place_id": "ChIJOeFDlEpsrjsR7N73AsJrP6c", "plus_code": {"global_code": "7J4VRM8X+33", "compound_code": "RM8X+33 Bommasandra, Karnataka, India"}, "vicinity": "207/2, Bommasandra Lake Road, Tranquil City, Bommasandra Village, Bommasandra", "scope": "GOOGLE", "business_status": "OPERATIONAL", "types": ["school", "point_of_interest", "establishment"], "icon": "https://maps.gstatic.com/mapfiles/place_api/icons/v1/png_71/school-71.png"}, {"rating": 5, "user_ratings_total": 2, "name": "Go Fitness", "reference": "ChIJvZqpEy5srjsRgd6z0KN5o2E", "geometry": {"location": {"lat": 12.8012158, "lng": 77.6927748}, "viewport": {"northeast": {"lat": 12.8025610802915, "lng": 77.69416023029152}, "southwest": {"lat": 12.7998631197085, "lng": 77.6914622697085}}}, "place_id": "ChIJvZqpEy5srjsRgd6z0KN5o2E", "plus_code": {"global_code": "7J4VRM2V+F4", "compound_code": "RM2V+F4 Kithiganahalli, Karnataka, India"}, "vicinity": "Kithiganahalli", "scope": "GOOGLE", "business_status": "OPERATIONAL", "types": ["school", "point_of_interest", "establishment"], "icon": "https://maps.gstatic.com/mapfiles/place_api/icons/v1/png_71/school-71.png"}, {"rating": 5, "user_ratings_total": 3, "name": "Little Ville Preschool - Kachanayakanahalli", "reference": "ChIJq55N-fNtrjsRMddtRWASTAA", "geometry": {"location": {"lat": 12.8007468, "lng": 77.6888694}, "viewport": {"northeast": {"lat": 12.8020433302915, "lng": 77.69022328029152}, "southwest": {"lat": 12.7993453697085, "lng": 77.6875253197085}}}, "opening_hours": {"open_now": false}, "place_id": "ChIJq55N-fNtrjsRMddtRWASTAA", "plus_code": {"global_code": "7J4VRM2Q+7G", "compound_code": "RM2Q+7G Bommasandra, Karnataka, India"}, "vicinity": "No.25/2, Ravidra Reddy Building, Op.Kaivara Ththayyana Matta, Kachanayakanahalli Village, Hennagara Post, Jigani, Hobli, Anekal", "scope": "GOOGLE", "business_status": "OPERATIONAL", "types": ["school", "point_of_interest", "establishment"], "icon": "https://maps.gstatic.com/mapfiles/place_api/icons/v1/png_71/school-71.png"}, {"rating": 5, "user_ratings_total": 1, "name": "Government Primary School", "reference": "ChIJCWfAuT5trjsRAiQseMXSEd4", "geometry": {"location": {"lat": 12.8026883, "lng": 77.69608029999999}, "viewport": {"northeast": {"lat": 12.8040298302915, "lng": 77.6974321802915}, "southwest": {"lat": 12.8013318697085, "lng": 77.6947342197085}}}, "place_id": "ChIJCWfAuT5trjsRAiQseMXSEd4", "plus_code": {"global_code": "7J4VRM3W+3C", "compound_code": "RM3W+3C Bommasandra, Karnataka, India"}, "vicinity": "Bommasandra Industrial Area, Bommasandra", "photos": [{"photo_reference": "ATtYBwITnO2RogZNnoZHq6hVhfQ6eCtEjkhPjSLnw-dBg_xx0PIfrnIJxAdOtdnVCoMArC2hk7temaYOYQnjGae_Vr_3VzTnzmKK4lTyxRvzp0PT1TN94m38GDv7bs7XLARVGzfLiGoULMa0mttFITe7iyjgckhB3ZUO3hU84lF44h64zscK", "width": 3120, "html_attributions": ["<a href=\"https://maps.google.com/maps/contrib/116356231057403836104\">kannadati lakshya</a>"], "height": 4160}], "scope": "GOOGLE", "business_status": "OPERATIONAL", "types": ["school", "point_of_interest", "establishment"], "icon": "https://maps.gstatic.com/mapfiles/place_api/icons/v1/png_71/school-71.png"}, {"name": "\u0c85\u0c82\u0c97\u0ca8\u0cb5\u0cbe\u0ca1\u0cbf \u0c95\u0cc7\u0c82\u0ca6\u0ccd\u0cb0", "reference": "ChIJ7blAC-ptrjsRBffaOnF34wk", "geometry": {"location": {"lat": 12.8027314, "lng": 77.6962154}, "viewport": {"northeast": {"lat": 12.8040875302915, "lng": 77.6975604302915}, "southwest": {"lat": 12.8013895697085, "lng": 77.6948624697085}}}, "place_id": "ChIJ7blAC-ptrjsRBffaOnF34wk", "plus_code": {"global_code": "7J4VRM3W+3F", "compound_code": "RM3W+3F Bommasandra, Karnataka, India"}, "vicinity": "Bommasandra Industrial Area, Bommasandra", "scope": "GOOGLE", "business_status": "OPERATIONAL", "types": ["school", "point_of_interest", "establishment"], "icon": "https://maps.gstatic.com/mapfiles/place_api/icons/v1/png_71/school-71.png"}, {"name": "Someshwaraswamy Navagraha Bomasandra Village", "reference": "ChIJX11yvEpsrjsRZeIGg_KU7Z0", "geometry": {"location": {"lat": 12.814949, "lng": 77.6983072}, "viewport": {"northeast": {"lat": 12.8162927302915, "lng": 77.6996854802915}, "southwest": {"lat": 12.8135947697085, "lng": 77.6969875197085}}}, "place_id": "ChIJX11yvEpsrjsRZeIGg_KU7Z0", "plus_code": {"global_code": "7J4VRM7X+X8", "compound_code": "RM7X+X8 Bommasandra, Karnataka, India"}, "vicinity": "someshwaraswamy navagraha Bommasandra", "scope": "GOOGLE", "business_status": "OPERATIONAL", "types": ["school", "point_of_interest", "establishment"], "icon": "https://maps.gstatic.com/mapfiles/place_api/icons/v1/png_71/school-71.png"}, {"name": "Aanganwadi Kendra", "reference": "ChIJxeC1GcltrjsRNzY1RmHB9AU", "geometry": {"location": {"lat": 12.8042576, "lng": 77.6822298}, "viewport": {"northeast": {"lat": 12.8055713302915, "lng": 77.6834903302915}, "southwest": {"lat": 12.8028733697085, "lng": 77.6807923697085}}}, "place_id": "ChIJxeC1GcltrjsRNzY1RmHB9AU", "plus_code": {"global_code": "7J4VRM3J+PV", "compound_code": "RM3J+PV Bommasandra, Karnataka, India"}, "vicinity": "Bommasandra Industrial Area, Bommasandra", "scope": "GOOGLE", "business_status": "OPERATIONAL", "types": ["school", "point_of_interest", "establishment"], "icon": "https://maps.gstatic.com/mapfiles/place_api/icons/v1/png_71/school-71.png"}, {"rating": 1, "user_ratings_total": 1, "name": "naga", "reference": "ChIJo2Z4azdtrjsR3nTnPaOESP4", "geometry": {"location": {"lat": 12.806317, "lng": 77.680903}, "viewport": {"northeast": {"lat": 12.8076606302915, "lng": 77.68225043029152}, "southwest": {"lat": 12.8049626697085, "lng": 77.6795524697085}}}, "place_id": "ChIJo2Z4azdtrjsR3nTnPaOESP4", "plus_code": {"global_code": "7J4VRM4J+G9", "compound_code": "RM4J+G9 Bengaluru, Karnataka, India"}, "vicinity": "Unnamed Road, Yarandahalli, Bengaluru", "scope": "GOOGLE", "business_status": "OPERATIONAL", "types": ["school", "point_of_interest", "establishment"], "icon": "https://maps.gstatic.com/mapfiles/place_api/icons/v1/png_71/school-71.png"}, {"name": "Kailash Modak", "reference": "ChIJrbE-zQptrjsRwcuER3tjGrE", "geometry": {"location": {"lat": 12.8167303, "lng": 77.6974369}, "viewport": {"northeast": {"lat": 12.8181129302915, "lng": 77.69878013029151}, "southwest": {"lat": 12.8154149697085, "lng": 77.6960821697085}}}, "place_id": "ChIJrbE-zQptrjsRwcuER3tjGrE", "plus_code": {"global_code": "7J4VRM8W+MX", "compound_code": "RM8W+MX Bommasandra, Karnataka, India"}, "vicinity": "RS Gardens, Bommasandra", "scope": "GOOGLE", "business_status": "OPERATIONAL", "types": ["school", "point_of_interest", "establishment"], "icon": "https://maps.gstatic.com/mapfiles/place_api/icons/v1/png_71/school-71.png"}, {"rating": 5, "user_ratings_total": 1, "name": "Bommasandra Someswara Temple", "reference": "ChIJVe4EyUpsrjsR8PDLmV7fM0U", "geometry": {"location": {"lat": 12.8155985, "lng": 77.6988523}, "viewport": {"northeast": {"lat": 12.8169818802915, "lng": 77.70010798029149}, "southwest": {"lat": 12.8142839197085, "lng": 77.69741001970849}}}, "place_id": "ChIJVe4EyUpsrjsR8PDLmV7fM0U", "plus_code": {"global_code": "7J4VRM8X+6G", "compound_code": "RM8X+6G Bengaluru, Karnataka, India"}, "vicinity": "S. K. PUBLIC SCHOOLS, Bommasandra Village, Bengaluru", "scope": "GOOGLE", "business_status": "OPERATIONAL", "types": ["school", "point_of_interest", "establishment"], "icon": "https://maps.gstatic.com/mapfiles/place_api/icons/v1/png_71/school-71.png"}, {"rating": 5, "user_ratings_total": 5, "name": "BlueBird International Montessori School", "reference": "ChIJjV1nqyhtrjsRcd4OXLZSIog", "geometry": {"location": {"lat": 12.8008122, "lng": 77.6958257}, "viewport": {"northeast": {"lat": 12.8021826302915, "lng": 77.69710073029151}, "southwest": {"lat": 12.7994846697085, "lng": 77.6944027697085}}}, "place_id": "ChIJjV1nqyhtrjsRcd4OXLZSIog", "plus_code": {"global_code": "7J4VRM2W+88", "compound_code": "RM2W+88 Kithiganahalli, Karnataka, India"}, "vicinity": "No.30, Terracon Residency, Kithiganahalli", "photos": [{"photo_reference": "ATtYBwLzDWHtiB12jb7L4bFhpvzRXnp610GCh5b2gEglLzvL17LmQewlBKavH5YyiN6Jx60mIpxM_8C3gJ7Le4cQNsrZA9WpW3ASF1lLMm3qyhtDEf3yOz56vscN6QejuofqKdpkMbM08LCkWyZq_GwLEMXxrE83voUuxhSXy24PYQazd3GI", "width": 3024, "html_attributions": ["<a href=\"https://maps.google.com/maps/contrib/103847655027345801926\">Chetan Reddy</a>"], "height": 4032}], "scope": "GOOGLE", "business_status": "OPERATIONAL", "types": ["school", "point_of_interest", "establishment"], "icon": "https://maps.gstatic.com/mapfiles/place_api/icons/v1/png_71/school-71.png"}, {"name": "Bommaasndra LP school", "reference": "ChIJ_cuY64RtrjsRlal3Kvnlzmw", "geometry": {"location": {"lat": 12.7998753, "lng": 77.6851587}, "viewport": {"northeast": {"lat": 12.8012236302915, "lng": 77.6864794802915}, "southwest": {"lat": 12.7985256697085, "lng": 77.68378151970849}}}, "place_id": "ChIJ_cuY64RtrjsRlal3Kvnlzmw", "plus_code": {"global_code": "7J4VQMXP+X3", "compound_code": "QMXP+X3 Bengaluru, Karnataka, India"}, "vicinity": "Grand Icon Road, Omkar Nagar, Bengaluru", "scope": "GOOGLE", "business_status": "OPERATIONAL", "types": ["school", "point_of_interest", "establishment"], "icon": "https://maps.gstatic.com/mapfiles/place_api/icons/v1/png_71/school-71.png"}, {"name": "Government Primary school", "reference": "ChIJ89y1AiVsrjsRRDhUiYTPei8", "geometry": {"location": {"lat": 12.7998371, "lng": 77.68522109999999}, "viewport": {"northeast": {"lat": 12.8011554302915, "lng": 77.6865717802915}, "southwest": {"lat": 12.7984574697085, "lng": 77.6838738197085}}}, "place_id": "ChIJ89y1AiVsrjsRRDhUiYTPei8", "plus_code": {"global_code": "7J4VQMXP+W3", "compound_code": "QMXP+W3 Bengaluru, Karnataka, India"}, "vicinity": "Kachanayakanahalli, Bengaluru", "scope": "GOOGLE", "business_status": "OPERATIONAL", "types": ["school", "point_of_interest", "establishment"], "icon": "https://maps.gstatic.com/mapfiles/place_api/icons/v1/png_71/school-71.png"}, {"name": "Wowkids RCR Academy", "reference": "ChIJj6dbaS1srjsRvUX_Qs44BDk", "geometry": {"location": {"lat": 12.8016483, "lng": 77.6976899}, "viewport": {"northeast": {"lat": 12.8030616302915, "lng": 77.69839970000001}, "southwest": {"lat": 12.8003636697085, "lng": 77.69556049999998}}}, "opening_hours": {"open_now": false}, "place_id": "ChIJj6dbaS1srjsRvUX_Qs44BDk", "plus_code": {"global_code": "7J4VRM2X+M3", "compound_code": "RM2X+M3 Bommasandra, Karnataka, India"}, "vicinity": "#30 Terracan Recidency Bommsandra post Bangalore", "scope": "GOOGLE", "business_status": "OPERATIONAL", "types": ["school", "point_of_interest", "establishment"], "icon": "https://maps.gstatic.com/mapfiles/place_api/icons/v1/png_71/school-71.png"}, {"name": "LP scho", "reference": "ChIJlRmEwoVtrjsRXtWv5kRAoMY", "geometry": {"location": {"lat": 12.7996833, "lng": 77.68515819999999}, "viewport": {"northeast": {"lat": 12.8010379302915, "lng": 77.6865262802915}, "southwest": {"lat": 12.7983399697085, "lng": 77.6838283197085}}}, "place_id": "ChIJlRmEwoVtrjsRXtWv5kRAoMY", "plus_code": {"global_code": "7J4VQMXP+V3", "compound_code": "QMXP+V3 Bengaluru, Karnataka, India"}, "vicinity": "Grand Icon Road, Omkar Nagar, Bengaluru", "scope": "GOOGLE", "business_status": "OPERATIONAL", "types": ["school", "point_of_interest", "establishment"], "icon": "https://maps.gstatic.com/mapfiles/place_api/icons/v1/png_71/school-71.png"}, {"name": "Acharya College", "reference": "ChIJVVVVVUBsrjsRMDpluiVVz6g", "geometry": {"location": {"lat": 12.8159214, "lng": 77.6793813}, "viewport": {"northeast": {"lat": 12.8173670802915, "lng": 77.68084113029151}, "southwest": {"lat": 12.8146691197085, "lng": 77.67814316970849}}}, "place_id": "ChIJVVVVVUBsrjsRMDpluiVVz6g", "plus_code": {"global_code": "7J4VRM8H+9Q", "compound_code": "RM8H+9Q Bommasandra, Karnataka, India"}, "vicinity": "67, Huskur Rd, Bommasandra Industrial Area, Bommasandra, Huskur Road, Bommasandra Industrial Area, Bommasandra", "scope": "GOOGLE", "business_status": "OPERATIONAL", "types": ["school", "point_of_interest", "establishment"], "icon": "https://maps.gstatic.com/mapfiles/place_api/icons/v1/png_71/school-71.png"}]}