{"status": "OK", "html_attributions": [], "results": [{"rating": 4.5, "user_ratings_total": 13, "name": "SRI JNANAGANGOTRI INTERNATIONAL SCHOOL", "reference": "ChIJmw9NIRsQrjsRRxHBnrDaGqs", "geometry": {"location": {"lat": 13.051796, "lng": 77.7369913}, "viewport": {"northeast": {"lat": 13.0531388802915, "lng": 77.7382876802915}, "southwest": {"lat": 13.0504409197085, "lng": 77.7355897197085}}}, "opening_hours": {"open_now": false}, "place_id": "ChIJmw9NIRsQrjsRRxHBnrDaGqs", "plus_code": {"global_code": "7J5V3P2P+PQ", "compound_code": "3P2P+PQ Bengaluru, Karnataka, India"}, "vicinity": "Cheemasandra, Virgonagar, Post, Bengaluru", "photos": [{"photo_reference": "ATtYBwI2wnL74h8lKhHiiB8ShMr5OzrHMj6YIoB2g6b_D3U7PkD1v0YhVg-tWMDk6HfnN2XeVvST6mCz1VaeXpDebGzFVZ3ftj6PlEDHqzk6cHJyVrdhxVyKKX1DSHwccIfNEkbjluWmr7-XP6Wq6ZuO8Sslvs0dRkilpJBWg-tEkxFaz6K5", "width": 5184, "html_attributions": ["<a href=\"https://maps.google.com/maps/contrib/115674089428869685158\">SRI JNANAGANGOTRI INTERNATIONAL SCHOOL</a>"], "height": 3456}], "scope": "GOOGLE", "business_status": "OPERATIONAL", "types": ["school", "point_of_interest", "establishment"], "icon": "https://maps.gstatic.com/mapfiles/place_api/icons/v1/png_71/school-71.png"}, {"rating": 4.2, "user_ratings_total": 22, "name": "Oracle Public School", "reference": "ChIJJ8SJ4GwQrjsRtW69PXtKuUs", "geometry": {"location": {"lat": 13.0494102, "lng": 77.7210642}, "viewport": {"northeast": {"lat": 13.0508813302915, "lng": 77.7222589302915}, "southwest": {"lat": 13.0481833697085, "lng": 77.7195609697085}}}, "opening_hours": {"open_now": false}, "place_id": "ChIJJ8SJ4GwQrjsRtW69PXtKuUs", "plus_code": {"global_code": "7J5V2PXC+QC", "compound_code": "2PXC+QC Bengaluru, Karnataka, India"}, "vicinity": "opposite to East point engineering college, Hirandahalli , Virgonagar Post, opposite to East point engineering college, Bengaluru", "photos": [{"photo_reference": "ATtYBwLDZuWaFPlRVRGnWW0naLlfgy3HhPpVPJkDkdNFsLDkUpY6obkR8A11alvz0sBut_icYvELF_3SGzI-dVlb6hLPeod6sdAnzQ7oz__n9Em0Ob0JnmVGi5pWiSQOFDsm-Pw3zER3NQOh5huug1GzkXI08bceYSHE2hVIBYpqALEo7nN_", "width": 3008, "html_attributions": ["<a href=\"https://maps.google.com/maps/contrib/109921002247103280331\">Harsha Gowda</a>"], "height": 2000}], "scope": "GOOGLE", "business_status": "OPERATIONAL", "types": ["school", "point_of_interest", "establishment"], "icon": "https://maps.gstatic.com/mapfiles/place_api/icons/v1/png_71/school-71.png"}, {"rating": 5, "user_ratings_total": 1, "name": "Government Lower Primary School Cheemasandra", "reference": "ChIJXYm-T2sQrjsRkMEAk9hgccg", "geometry": {"location": {"lat": 13.0459756, "lng": 77.72170249999999}, "viewport": {"northeast": {"lat": 13.0473490302915, "lng": 77.7230619802915}, "southwest": {"lat": 13.0446510697085, "lng": 77.72036401970848}}}, "place_id": "ChIJXYm-T2sQrjsRkMEAk9hgccg", "plus_code": {"global_code": "7J5V2PWC+9M", "compound_code": "2PWC+9M Cheemasandra, Bengaluru, Karnataka, India"}, "vicinity": "Hosakote Block, Bangalore, Cheemasandra", "scope": "GOOGLE", "business_status": "OPERATIONAL", "types": ["school", "point_of_interest", "establishment"], "icon": "https://maps.gstatic.com/mapfiles/place_api/icons/v1/png_71/civic_building-71.png"}, {"rating": 4.1, "user_ratings_total": 43, "name": "POORNA PRAJNA INTERNATIONAL SCHOOL", "reference": "ChIJF1RZbxgQrjsR8Jub_bQlF_I", "geometry": {"location": {"lat": 13.0428064, "lng": 77.7358876}, "viewport": {"northeast": {"lat": 13.0443636802915, "lng": 77.73721693029151}, "southwest": {"lat": 13.0416657197085, "lng": 77.73451896970849}}}, "opening_hours": {"open_now": false}, "place_id": "ChIJF1RZbxgQrjsR8Jub_bQlF_I", "plus_code": {"global_code": "7J5V2PVP+49", "compound_code": "2PVP+49 Bandapura, Karnataka, India"}, "vicinity": "Virgonagar, Aavalahalli, Bandapura", "photos": [{"photo_reference": "ATtYBwKhAmKk_KjcQdjsIQKTlHNoLOuL2WPZIWvi4iQ06GO0Qx37wsyV0CDZOKwUj8dnUpCaYYxL_8Qtl8MnJdCY5W_czpdL8fTlX6Xmj9IHoLpRySCFRYzRRckO_YX5T8k9-JExr7b6qyDH1P7RnG08XshYsLvTN2tPKXtPLd7O_bA04l83", "width": 1024, "html_attributions": ["<a href=\"https://maps.google.com/maps/contrib/111482080068340578268\">Manoj patel</a>"], "height": 768}], "scope": "GOOGLE", "business_status": "OPERATIONAL", "types": ["school", "point_of_interest", "establishment"], "icon": "https://maps.gstatic.com/mapfiles/place_api/icons/v1/png_71/school-71.png"}, {"rating": 4.5, "user_ratings_total": 2, "name": "Govt School", "reference": "ChIJATSesBsQrjsRFXFQC56dG9c", "geometry": {"location": {"lat": 13.0495295, "lng": 77.7373118}, "viewport": {"northeast": {"lat": 13.0509323802915, "lng": 77.73865723029151}, "southwest": {"lat": 13.0482344197085, "lng": 77.73595926970849}}}, "place_id": "ChIJATSesBsQrjsRFXFQC56dG9c", "plus_code": {"global_code": "7J5V2PXP+RW", "compound_code": "2PXP+RW Bengaluru, Karnataka, India"}, "vicinity": "Virgonagar, Aavalahalli, Bengaluru", "scope": "GOOGLE", "business_status": "OPERATIONAL", "types": ["school", "point_of_interest", "establishment"], "icon": "https://maps.gstatic.com/mapfiles/place_api/icons/v1/png_71/school-71.png"}, {"name": "Srigiri residency", "reference": "ChIJYaLKas8RrjsRyz_B5yCmR5k", "geometry": {"location": {"lat": 13.0454543, "lng": 77.7367563}, "viewport": {"northeast": {"lat": 13.0467484302915, "lng": 77.7381034302915}, "southwest": {"lat": 13.0440504697085, "lng": 77.7354054697085}}}, "place_id": "ChIJYaLKas8RrjsRyz_B5yCmR5k", "plus_code": {"global_code": "7J5V2PWP+5P", "compound_code": "2PWP+5P Bandapura, Karnataka, India"}, "vicinity": "Bandapura", "scope": "GOOGLE", "business_status": "OPERATIONAL", "types": ["school", "point_of_interest", "establishment"], "icon": "https://maps.gstatic.com/mapfiles/place_api/icons/v1/png_71/school-71.png"}, {"rating": 3.7, "user_ratings_total": 3, "name": "ST Mary\u2019s School Of Nursing", "reference": "ChIJq6qqqhkQrjsRGJAupjwZbMQ", "geometry": {"location": {"lat": 13.0446744, "lng": 77.7366423}, "viewport": {"northeast": {"lat": 13.0460239302915, "lng": 77.7379364802915}, "southwest": {"lat": 13.0433259697085, "lng": 77.73523851970849}}}, "place_id": "ChIJq6qqqhkQrjsRGJAupjwZbMQ", "plus_code": {"global_code": "7J5V2PVP+VM", "compound_code": "2PVP+VM Bengaluru, Karnataka, India"}, "vicinity": "Mandur, Budigere Cross, Virgonagar, Krishnarajapura, Bengaluru", "scope": "GOOGLE", "business_status": "OPERATIONAL", "types": ["university", "school", "point_of_interest", "establishment"], "icon": "https://maps.gstatic.com/mapfiles/place_api/icons/v1/png_71/school-71.png"}, {"rating": 4, "user_ratings_total": 1, "name": "SWAMY VIVEKANANDA COLLEGE OF NURSING", "reference": "ChIJq6qqqhkQrjsR76ef0egE_CU", "geometry": {"location": {"lat": 13.0446744, "lng": 77.7366423}, "viewport": {"northeast": {"lat": 13.0460239302915, "lng": 77.7379364802915}, "southwest": {"lat": 13.0433259697085, "lng": 77.73523851970849}}}, "place_id": "ChIJq6qqqhkQrjsR76ef0egE_CU", "plus_code": {"global_code": "7J5V2PVP+VM", "compound_code": "2PVP+VM Bengaluru, Karnataka, India"}, "vicinity": "Mandur (v), Virgonagar (P, Budigere Cross, Krishnarajapura, Bengaluru", "scope": "GOOGLE", "business_status": "OPERATIONAL", "types": ["university", "school", "point_of_interest", "establishment"], "icon": "https://maps.gstatic.com/mapfiles/place_api/icons/v1/png_71/school-71.png"}, {"name": "Princeton Public School", "reference": "ChIJdVjfhggRrjsRTkTH-iMkcfk", "geometry": {"location": {"lat": 13.0446743, "lng": 77.7366507}, "viewport": {"northeast": {"lat": 13.0460232802915, "lng": 77.7379996802915}, "southwest": {"lat": 13.0433253197085, "lng": 77.73530171970849}}}, "place_id": "ChIJdVjfhggRrjsRTkTH-iMkcfk", "plus_code": {"global_code": "7J5V2PVP+VM", "compound_code": "2PVP+VM Bengaluru, Karnataka, India"}, "vicinity": "96, Jyothinagar, Virgonagar, post, Bengaluru", "scope": "GOOGLE", "business_status": "OPERATIONAL", "types": ["school", "point_of_interest", "establishment"], "icon": "https://maps.gstatic.com/mapfiles/place_api/icons/v1/png_71/school-71.png"}, {"rating": 3.5, "user_ratings_total": 2, "name": "chemasandra governament school", "reference": "ChIJA9skuxsQrjsRd23UBcB2HRk", "geometry": {"location": {"lat": 13.04666, "lng": 77.73834610000002}, "viewport": {"northeast": {"lat": 13.0480086802915, "lng": 77.7396627302915}, "southwest": {"lat": 13.0453107197085, "lng": 77.7369647697085}}}, "place_id": "ChIJA9skuxsQrjsRd23UBcB2HRk", "plus_code": {"global_code": "7J5V2PWQ+M8", "compound_code": "2PWQ+M8 Bengaluru, Karnataka, India"}, "vicinity": "Cheemasandra Road, Virgonagar, Aavalahalli, Bengaluru", "scope": "GOOGLE", "business_status": "OPERATIONAL", "types": ["school", "point_of_interest", "establishment"], "icon": "https://maps.gstatic.com/mapfiles/place_api/icons/v1/png_71/school-71.png"}, {"name": "Dragonfly Days - Holistic Learning + Workshop + Design Studio", "reference": "ChIJiZZtA0wRrjsRM1Ev8nobhFU", "geometry": {"location": {"lat": 13.0532112, "lng": 77.7213728}, "viewport": {"northeast": {"lat": 13.0545426302915, "lng": 77.7228118302915}, "southwest": {"lat": 13.0518446697085, "lng": 77.7201138697085}}}, "opening_hours": {"open_now": true}, "place_id": "ChIJiZZtA0wRrjsRM1Ev8nobhFU", "plus_code": {"global_code": "7J5V3P3C+7G", "compound_code": "3P3C+7G Bengaluru, Karnataka, India"}, "vicinity": "Cheemasandra, Bengaluru", "scope": "GOOGLE", "business_status": "OPERATIONAL", "types": ["school", "point_of_interest", "establishment"], "icon": "https://maps.gstatic.com/mapfiles/place_api/icons/v1/png_71/school-71.png"}, {"rating": 5, "user_ratings_total": 4, "permanently_closed": true, "name": "MATRIX ABACUS - Cheemsandra", "reference": "ChIJvbcPD-kRrjsRo-WwXy6QMW0", "geometry": {"location": {"lat": 13.0431048, "lng": 77.7359175}, "viewport": {"northeast": {"lat": 13.0444704302915, "lng": 77.73718168029151}, "southwest": {"lat": 13.0417724697085, "lng": 77.73448371970849}}}, "place_id": "ChIJvbcPD-kRrjsRo-WwXy6QMW0", "plus_code": {"global_code": "7J5V2PVP+69", "compound_code": "2PVP+69 Bandapura, Karnataka, India"}, "vicinity": "Bandapura", "scope": "GOOGLE", "business_status": "CLOSED_TEMPORARILY", "types": ["school", "point_of_interest", "establishment"], "icon": "https://maps.gstatic.com/mapfiles/place_api/icons/v1/png_71/school-71.png"}, {"name": "HPS Hirandahalli", "reference": "ChIJS1tFWmsQrjsR2fethQ3cwVk", "geometry": {"location": {"lat": 13.0462957, "lng": 77.72146939999999}, "viewport": {"northeast": {"lat": 13.0475976802915, "lng": 77.7227820802915}, "southwest": {"lat": 13.0448997197085, "lng": 77.72008411970849}}}, "opening_hours": {"open_now": false}, "place_id": "ChIJS1tFWmsQrjsR2fethQ3cwVk", "plus_code": {"global_code": "7J5V2PWC+GH", "compound_code": "2PWC+GH Hirandahalli, Karnataka, India"}, "vicinity": "Cheemasandra, Hirandahalli", "scope": "GOOGLE", "business_status": "OPERATIONAL", "types": ["school", "point_of_interest", "establishment"], "icon": "https://maps.gstatic.com/mapfiles/place_api/icons/v1/png_71/school-71.png"}, {"name": "Bandapura Kannada Medium primary school", "reference": "ChIJuV3rZqQRrjsRT44-CzjR36c", "geometry": {"location": {"lat": 13.0424379, "lng": 77.7371912}, "viewport": {"northeast": {"lat": 13.0438052302915, "lng": 77.73861423029152}, "southwest": {"lat": 13.0411072697085, "lng": 77.7359162697085}}}, "place_id": "ChIJuV3rZqQRrjsRT44-CzjR36c", "plus_code": {"global_code": "7J5V2PRP+XV", "compound_code": "2PRP+XV Bandapura, Karnataka, India"}, "vicinity": "Bandapura", "scope": "GOOGLE", "business_status": "OPERATIONAL", "types": ["school", "point_of_interest", "establishment"], "icon": "https://maps.gstatic.com/mapfiles/place_api/icons/v1/png_71/school-71.png"}, {"rating": 5, "user_ratings_total": 9, "permanently_closed": true, "name": "Little Orchids International Pre School, Hirandahalli, Bidrahalli,Virgonagar", "reference": "ChIJTQBs4dQRrjsRa7KrfxqjSNc", "geometry": {"location": {"lat": 13.0384827, "lng": 77.7309847}, "viewport": {"northeast": {"lat": 13.0398874302915, "lng": 77.7323706302915}, "southwest": {"lat": 13.0371894697085, "lng": 77.72967266970848}}}, "place_id": "ChIJTQBs4dQRrjsRa7KrfxqjSNc", "plus_code": {"global_code": "7J5V2PQJ+99", "compound_code": "2PQJ+99 Bidrahalli, Karnataka, India"}, "vicinity": "Hirandahalli, Main Road, Virgonagar, Bidrahalli", "photos": [{"photo_reference": "ATtYBwKvn8gvEmzhgArpAcYZgFggKTTwCE1dK5-KDtjIFrQf-0cOd0hM9TR5NPeat1uZcMNPvgpdAX5bCrihBOY43dHBlRerGUM27m9ZQMvkkeoLPp8rORbNjfV86IeKdDs9iToWBhAtQMViod4HwR87jfqaRHjrAFJzr5zEprK7qN1reets", "width": 1800, "html_attributions": ["<a href=\"https://maps.google.com/maps/contrib/115039415026222699263\">Lilac Education Trust Little Orchids</a>"], "height": 1200}], "scope": "GOOGLE", "business_status": "CLOSED_TEMPORARILY", "types": ["school", "point_of_interest", "establishment"], "icon": "https://maps.gstatic.com/mapfiles/place_api/icons/v1/png_71/school-71.png"}, {"rating": 5, "user_ratings_total": 1, "permanently_closed": true, "name": "The Little Elf's International Preschool", "reference": "ChIJ9foaH-ERrjsRpdDy_WpvzB8", "geometry": {"location": {"lat": 13.0572371, "lng": 77.7206371}, "viewport": {"northeast": {"lat": 13.0584273302915, "lng": 77.72194088029151}, "southwest": {"lat": 13.0557293697085, "lng": 77.71924291970849}}}, "place_id": "ChIJ9foaH-ERrjsRpdDy_WpvzB8", "plus_code": {"global_code": "7J5V3P4C+V7", "compound_code": "3P4C+V7 Bidrahalli, Karnataka, India"}, "vicinity": "near krishna Palace, No. 41 and 48 4th cross Sai suryodhaya garden, near krishna Palace, Bidrahalli", "photos": [{"photo_reference": "ATtYBwIlPewiS5c1Z7S-B5VSY8LcY6oam51KQ1i8gX7OkaDdIvhcM4w18J41SV4nY7wbs-CfOWXvj6n1cH4axaGSXYBsJUIw-4YPwvZkQiARUrkshrGvW6meDPYkOMYR8JIjF_y1-bp5oH-MV-sR-IoOgYF-NVQNwILQ-Ju_nMfxHP67a56o", "width": 2976, "html_attributions": ["<a href=\"https://maps.google.com/maps/contrib/103441530205505301044\">The Little Elf&#39;s International Preschool</a>"], "height": 3968}], "scope": "GOOGLE", "business_status": "CLOSED_TEMPORARILY", "types": ["school", "point_of_interest", "establishment"], "icon": "https://maps.gstatic.com/mapfiles/place_api/icons/v1/png_71/school-71.png"}, {"permanently_closed": true, "name": "Poova's Gurugulam", "reference": "ChIJS76YKVUQrjsRC_Xxax0KX9U", "geometry": {"location": {"lat": 13.0572595, "lng": 77.7201046}, "viewport": {"northeast": {"lat": 13.0585995302915, "lng": 77.7215039802915}, "southwest": {"lat": 13.0559015697085, "lng": 77.7188060197085}}}, "place_id": "ChIJS76YKVUQrjsRC_Xxax0KX9U", "plus_code": {"global_code": "7J5V3P4C+W2", "compound_code": "3P4C+W2 Bengaluru, Karnataka, India"}, "vicinity": "41 and 48 Sai suryodhaya layout Bidrahalli, bangalore, Bengaluru", "photos": [{"photo_reference": "ATtYBwLHIwoOTi2mYfChGs8A4dmnyDTL5m5HsEpzKBOL9LLUy4WaB6THj3whSbGTNKcvHpFsw__YO0PqZcRlNgiJ7QVxqJsLlOvZ7idC5mT-2lv21puhNGGPFHUzwwQ6E54Q3U3-Kf7ISZktGRVo4etWL2J_icnQ6H4aHi4lENTzk29rb2JP", "width": 960, "html_attributions": ["<a href=\"https://maps.google.com/maps/contrib/108226989881993991819\">Poova&#39;s Gurugulam</a>"], "height": 540}], "scope": "GOOGLE", "business_status": "CLOSED_TEMPORARILY", "types": ["school", "health", "point_of_interest", "establishment"], "icon": "https://maps.gstatic.com/mapfiles/place_api/icons/v1/png_71/school-71.png"}]}