{"status": "OK", "html_attributions": [], "results": [{"name": "Anil kirana store", "reference": "ChIJ73b1U-yRyzsRuy9xMGmZcnQ", "geometry": {"location": {"lat": 17.4515613, "lng": 78.41544019999999}, "viewport": {"northeast": {"lat": 17.4529019802915, "lng": 78.41681633029151}, "southwest": {"lat": 17.4502040197085, "lng": 78.41411836970849}}}, "place_id": "ChIJ73b1U-yRyzsRuy9xMGmZcnQ", "plus_code": {"global_code": "7J9WFC28+J5", "compound_code": "FC28+J5 Hyderabad, Telangana, India"}, "vicinity": "8-4-370/295, Balaji Enclave, SRT Nagar, Moti Nagar, Hyderabad", "scope": "GOOGLE", "business_status": "OPERATIONAL", "types": ["supermarket", "grocery_or_supermarket", "food", "point_of_interest", "store", "establishment"], "icon": "https://maps.gstatic.com/mapfiles/place_api/icons/v1/png_71/shopping-71.png"}, {"name": "Aum Sai Kirana And General Stores", "reference": "ChIJB22TH-6RyzsR86szrKnRkhg", "geometry": {"location": {"lat": 17.4575405, "lng": 78.4207742}, "viewport": {"northeast": {"lat": 17.4589042802915, "lng": 78.4221185802915}, "southwest": {"lat": 17.4562063197085, "lng": 78.41942061970849}}}, "place_id": "ChIJB22TH-6RyzsR86szrKnRkhg", "plus_code": {"global_code": "7J9WFC5C+28", "compound_code": "FC5C+28 Hyderabad, Telangana, India"}, "vicinity": "Vinayakarao Nagar, Borabanda, Hyderabad", "scope": "GOOGLE", "business_status": "OPERATIONAL", "types": ["supermarket", "grocery_or_supermarket", "food", "point_of_interest", "store", "establishment"], "icon": "https://maps.gstatic.com/mapfiles/place_api/icons/v1/png_71/shopping-71.png"}, {"rating": 5, "user_ratings_total": 2, "name": "Pure O Natural", "reference": "ChIJleY8ZEGRyzsRcaIhq-1Hpzg", "geometry": {"location": {"lat": 17.4691576, "lng": 78.4155993}, "viewport": {"northeast": {"lat": 17.47045248029151, "lng": 78.41694623029152}, "southwest": {"lat": 17.4677545197085, "lng": 78.41424826970851}}}, "place_id": "ChIJleY8ZEGRyzsRcaIhq-1Hpzg", "plus_code": {"global_code": "7J9WFC98+M6", "compound_code": "FC98+M6 Hyderabad, Telangana, India"}, "vicinity": "Kukatpally, Hyderabad", "photos": [{"photo_reference": "ATtYBwIXjdYQjZO95TuoWWjrzyhnOa56fwY0dorHsQLuKyINaX4QwzRf-V_v3j4pymv0O5JXxnNj9bmH5Pq_nqvTxEyhlx8v1bBBamSAZcjVITR7P0Ig0YPrcBuJrG4s7Y-_EysbHrCyypmQTv-h1q1lBvxhoQzteKIE4CTYe6TnjZwVMlHH", "width": 2160, "html_attributions": ["<a href=\"https://maps.google.com/maps/contrib/109198212177714215161\">SRIDHAR RAJU KUCHARLAPATI</a>"], "height": 3840}], "scope": "GOOGLE", "business_status": "OPERATIONAL", "types": ["supermarket", "grocery_or_supermarket", "food", "point_of_interest", "store", "establishment"], "icon": "https://maps.gstatic.com/mapfiles/place_api/icons/v1/png_71/shopping-71.png"}, {"rating": 3.9, "user_ratings_total": 20, "name": "Sri Sai Manikanta Marketing", "reference": "ChIJYfX8snGRyzsROiveMHgsiq8", "geometry": {"location": {"lat": 17.4598483, "lng": 78.3985733}, "viewport": {"northeast": {"lat": 17.4612182802915, "lng": 78.39988203029151}, "southwest": {"lat": 17.4585203197085, "lng": 78.39718406970849}}}, "opening_hours": {"open_now": true}, "place_id": "ChIJYfX8snGRyzsROiveMHgsiq8", "plus_code": {"global_code": "7J9WF95X+WC", "compound_code": "F95X+WC Hyderabad, Telangana, India"}, "vicinity": "Community Hall Road, Phase 2, Sri Vivekananda Nagar, Borabanda, Hyderabad", "photos": [{"photo_reference": "ATtYBwKnPYNMKGeRhn6_UAChMwcFKZ3zsDj8HYPQOm-EBj-wgXBu657JEtZvhbp9aS_x3c4XX8bf5hFEitbZE18macqP2jhvLlHkQcUppEUtpM709hQPMPAnXMrr3Og2tLr5CFgbsVG-JEqjTGSYf4rZgnfGbwBNZD4p5aWbSCneCibEhSIe", "width": 4128, "html_attributions": ["<a href=\"https://maps.google.com/maps/contrib/112039876875375037468\">Thoufeek Syed</a>"], "height": 3096}], "scope": "GOOGLE", "business_status": "OPERATIONAL", "types": ["supermarket", "grocery_or_supermarket", "food", "point_of_interest", "store", "establishment"], "icon": "https://maps.gstatic.com/mapfiles/place_api/icons/v1/png_71/shopping-71.png"}, {"rating": 5, "user_ratings_total": 1, "name": "Genaral Store", "reference": "ChIJB_qaafqRyzsRSsDxPVXBI8E", "geometry": {"location": {"lat": 17.44941859999999, "lng": 78.413764}, "viewport": {"northeast": {"lat": 17.4507296802915, "lng": 78.41511898029151}, "southwest": {"lat": 17.4480317197085, "lng": 78.4124210197085}}}, "place_id": "ChIJB_qaafqRyzsRSsDxPVXBI8E", "plus_code": {"global_code": "7J9WCCX7+QG", "compound_code": "CCX7+QG Hyderabad, Telangana, India"}, "vicinity": "8-3-169/60/332, Balaji Enclave, SRT Nagar, Moti Nagar, Hyderabad", "scope": "GOOGLE", "business_status": "OPERATIONAL", "types": ["supermarket", "grocery_or_supermarket", "food", "point_of_interest", "store", "establishment"], "icon": "https://maps.gstatic.com/mapfiles/place_api/icons/v1/png_71/shopping-71.png"}, {"rating": 4, "user_ratings_total": 2, "name": "HAJI Mutton and Chicken center", "reference": "ChIJd5bWcReRyzsRAwX4402xQLM", "geometry": {"location": {"lat": 17.4509049, "lng": 78.4174317}, "viewport": {"northeast": {"lat": 17.4522428302915, "lng": 78.4187777802915}, "southwest": {"lat": 17.4495448697085, "lng": 78.41607981970849}}}, "place_id": "ChIJd5bWcReRyzsRAwX4402xQLM", "plus_code": {"global_code": "7J9WFC28+9X", "compound_code": "FC28+9X Hyderabad, Telangana, India"}, "vicinity": "Unnamed Road, SRT Nagar, Moti Nagar, Hyderabad", "scope": "GOOGLE", "business_status": "OPERATIONAL", "types": ["supermarket", "grocery_or_supermarket", "food", "point_of_interest", "store", "establishment"], "icon": "https://maps.gstatic.com/mapfiles/place_api/icons/v1/png_71/shopping-71.png"}, {"rating": 3.9, "user_ratings_total": 44, "name": "China Bazar", "reference": "ChIJz6alywSRyzsRWxA_rXK-B_c", "geometry": {"location": {"lat": 17.4594348, "lng": 78.4223821}, "viewport": {"northeast": {"lat": 17.46078303029151, "lng": 78.4236980802915}, "southwest": {"lat": 17.4580850697085, "lng": 78.4210001197085}}}, "opening_hours": {"open_now": true}, "place_id": "ChIJz6alywSRyzsRWxA_rXK-B_c", "plus_code": {"global_code": "7J9WFC5C+QX", "compound_code": "FC5C+QX Hyderabad, Telangana, India"}, "vicinity": "Moti Nagar Main Road, Hemanthi Nagar, Moti Nagar, Borabanda, Hyderabad", "photos": [{"photo_reference": "ATtYBwLrX-NE4OyMW4iZr578C6iYqSP9ExNnRWpSJiI_Ig-QnEj-hIevOYFlwUBqCQ5YJd4-LEhb0Wps7hWcq6LmLiw0ri0jEZcMsgDhyPE7x-smRiCAM43aYY4i3ajQ7LbxrJTH1pIZOHSHtFMSfKUOEQ2vMLlHuV9NWXe3iGurwoQj9g4R", "width": 2340, "html_attributions": ["<a href=\"https://maps.google.com/maps/contrib/102784228595704506029\">obedullah mohammad</a>"], "height": 4160}], "scope": "GOOGLE", "business_status": "OPERATIONAL", "types": ["supermarket", "grocery_or_supermarket", "food", "point_of_interest", "store", "establishment"], "icon": "https://maps.gstatic.com/mapfiles/place_api/icons/v1/png_71/shopping-71.png"}, {"name": "Mama kirana store", "reference": "ChIJ4Zq6hdmRyzsRWZpIgAb5I1M", "geometry": {"location": {"lat": 17.4592514, "lng": 78.42238859999999}, "viewport": {"northeast": {"lat": 17.4606004302915, "lng": 78.4237011302915}, "southwest": {"lat": 17.4579024697085, "lng": 78.4210031697085}}}, "place_id": "ChIJ4Zq6hdmRyzsRWZpIgAb5I1M", "plus_code": {"global_code": "7J9WFC5C+PX", "compound_code": "FC5C+PX Hyderabad, Telangana, India"}, "vicinity": "13-1-55/2/B/1, Main Rd, Moti Nagar, Erragadda, Hyderabad", "scope": "GOOGLE", "business_status": "OPERATIONAL", "types": ["supermarket", "grocery_or_supermarket", "food", "point_of_interest", "store", "establishment"], "icon": "https://maps.gstatic.com/mapfiles/place_api/icons/v1/png_71/shopping-71.png"}, {"rating": 5, "user_ratings_total": 1, "name": "GLR Dream Homes", "reference": "ChIJR1xhtX2RyzsRrC3aG9Lp52E", "geometry": {"location": {"lat": 17.4533856, "lng": 78.4202844}, "viewport": {"northeast": {"lat": 17.4546786802915, "lng": 78.4216296302915}, "southwest": {"lat": 17.4519807197085, "lng": 78.41893166970848}}}, "place_id": "ChIJR1xhtX2RyzsRrC3aG9Lp52E", "plus_code": {"global_code": "7J9WFC3C+94", "compound_code": "FC3C+94 Hyderabad, Telangana, India"}, "vicinity": "Moti Nagar, Hyderabad", "scope": "GOOGLE", "business_status": "OPERATIONAL", "types": ["supermarket", "grocery_or_supermarket", "food", "point_of_interest", "store", "establishment"], "icon": "https://maps.gstatic.com/mapfiles/place_api/icons/v1/png_71/shopping-71.png"}, {"name": "Sapna Kirana & General", "reference": "ChIJkwdIygSRyzsRatNyLFFJTow", "geometry": {"location": {"lat": 17.4594958, "lng": 78.4224778}, "viewport": {"northeast": {"lat": 17.4608053802915, "lng": 78.4238165302915}, "southwest": {"lat": 17.45810741970849, "lng": 78.42111856970848}}}, "opening_hours": {"open_now": true}, "place_id": "ChIJkwdIygSRyzsRatNyLFFJTow", "plus_code": {"global_code": "7J9WFC5C+QX", "compound_code": "FC5C+QX Hyderabad, Telangana, India"}, "vicinity": "Glass Factory Road, Erragadda, Hyderabad", "scope": "GOOGLE", "business_status": "OPERATIONAL", "types": ["store", "supermarket", "grocery_or_supermarket", "food", "point_of_interest", "establishment"], "icon": "https://maps.gstatic.com/mapfiles/place_api/icons/v1/png_71/shopping-71.png"}, {"rating": 4.3, "user_ratings_total": 7, "name": "Sri Apna Bazar", "reference": "ChIJVctcFBuRyzsRcyA6lVJD1aY", "geometry": {"location": {"lat": 17.4575067, "lng": 78.4223892}, "viewport": {"northeast": {"lat": 17.4588552802915, "lng": 78.4237734302915}, "southwest": {"lat": 17.4561573197085, "lng": 78.4210754697085}}}, "opening_hours": {"open_now": true}, "place_id": "ChIJVctcFBuRyzsRcyA6lVJD1aY", "plus_code": {"global_code": "7J9WFC5C+2X", "compound_code": "FC5C+2X Hyderabad, Telangana, India"}, "vicinity": "Shop No.1,1-77/1/8, Near Kabir Nagar Bus Stop., Moti Nagar, Borabanda, Hyderabad", "scope": "GOOGLE", "business_status": "OPERATIONAL", "types": ["supermarket", "grocery_or_supermarket", "food", "point_of_interest", "store", "establishment"], "icon": "https://maps.gstatic.com/mapfiles/place_api/icons/v1/png_71/shopping-71.png"}, {"rating": 3.7, "user_ratings_total": 275, "name": "Padhma Priya Super Market", "reference": "ChIJHZX0CAiRyzsR4bnik7PhVxc", "geometry": {"location": {"lat": 17.4698036, "lng": 78.41815009999999}, "viewport": {"northeast": {"lat": 17.4710890802915, "lng": 78.4195737302915}, "southwest": {"lat": 17.4683911197085, "lng": 78.41687576970848}}}, "opening_hours": {"open_now": true}, "place_id": "ChIJHZX0CAiRyzsR4bnik7PhVxc", "plus_code": {"global_code": "7J9WFC99+W7", "compound_code": "FC99+W7 Hyderabad, Telangana, India"}, "vicinity": "Road Number 1, Anjaneya Nagar, AGI Colony, Moosapet, Hyderabad", "photos": [{"photo_reference": "ATtYBwLO1JZAwx6febquCWR5RH9NeEPo2OJNwhBBqqIrTMjszK4iyrnvbnOKE6tpNB168U-o7wgEPON7eqGM3DaI7nmVIowCwzhvHDvpWHkAeRHmFXA5YdWwiDhriRTlEcIddbgLrJy5_LflNMe-x9U_3TS9IaHXKYU05rwXqStgZ5RdMbWX", "width": 3264, "html_attributions": ["<a href=\"https://maps.google.com/maps/contrib/117905660734996934213\">rakesh reddy</a>"], "height": 2448}], "scope": "GOOGLE", "business_status": "OPERATIONAL", "types": ["supermarket", "grocery_or_supermarket", "food", "point_of_interest", "store", "establishment"], "icon": "https://maps.gstatic.com/mapfiles/place_api/icons/v1/png_71/shopping-71.png"}]}