{"status": "OK", "next_page_token": "ATtYBwIOxIJzmjDWiOqHMDYJgCbudGN9mXu9mYqR8_zTfdD49_A0W2y7SH8apqLjthje2zSGbw7P0bkOtGHYNBgWDedyrxEb4jBMorpmYVACEEdeYz2QqjEbDYBF3bQTCK59x-574XxvFYp7fDSrFk3MjbXHzb3XEYhBvaSDGEdYMYLXXAug7j0IEPnhQbYem3GBtDJEQVGSL2unupPu7VY16HKHC1Svr9sMdZ67gRc8Xwcqbvfv6Q2AvmSAQ-Qm1v6pAedGfVZtnuidYvf3KBMWcU17WPSOUYJAZN0PqhofoGjBzNgw7ZAZw0bEcx2dVwmV-ZH2UM6CAQ7FLxxS_Rpe4prsnjlqTh2IuidSHQjparbDCtvhumsfNQhFEhLfCplZ2lfrgpNYpaIgwN3W18XmaM5N4HP2KFqY_EhoGTvcO8iW2AZbcH7xzXqbkQ", "html_attributions": [], "results": [{"rating": 3.8, "user_ratings_total": 851, "name": "More Supermarket", "reference": "ChIJ39jvYxAIexcRGsjFdIbGVSc", "geometry": {"location": {"lat": 17.48423289999999, "lng": 78.40920659999999}, "viewport": {"northeast": {"lat": 17.4856066302915, "lng": 78.41059108029151}, "southwest": {"lat": 17.48290866970849, "lng": 78.40789311970849}}}, "opening_hours": {"open_now": true}, "place_id": "ChIJ39jvYxAIexcRGsjFdIbGVSc", "plus_code": {"global_code": "7J9WFCM5+MM", "compound_code": "FCM5+MM Hyderabad, Telangana, India"}, "vicinity": "D.No.74, Survey No 1092/A, 1092/C, Balaji Nagar, Kukatpally, Hyderabad", "photos": [{"photo_reference": "ATtYBwJmxYtWSQUaisoNWXUHs4LTfXNC3lb-p6_GtlJMEQbqCFO5_KAK_qr2cLxnd2yRAP6r1CntxebwmsQwUV5Hsx0TNkjNEddsZqatUrDbZCNrEbVUqcc2sCToNw-zWnxx_d5vmJeiZk4sRnASlOqJz23cMvFc0PSrxb6-C1IdD6_pi85e", "width": 4032, "html_attributions": ["<a href=\"https://maps.google.com/maps/contrib/104675213974467805451\">Prathi Ganesh</a>"], "height": 3024}], "scope": "GOOGLE", "business_status": "OPERATIONAL", "types": ["supermarket", "grocery_or_supermarket", "food", "point_of_interest", "store", "establishment"], "icon": "https://maps.gstatic.com/mapfiles/place_api/icons/v1/png_71/shopping-71.png"}, {"rating": 3.8, "user_ratings_total": 8872, "name": "BB-HYDERABAD-AMIRIKUUKATPALLY", "reference": "ChIJ_YZbcqWRyzsRggxfm7fDtYQ", "geometry": {"location": {"lat": 17.4856009, "lng": 78.41186239999999}, "viewport": {"northeast": {"lat": 17.4868486802915, "lng": 78.4132811802915}, "southwest": {"lat": 17.4841507197085, "lng": 78.41058321970849}}}, "opening_hours": {"open_now": false}, "place_id": "ChIJ_YZbcqWRyzsRggxfm7fDtYQ", "plus_code": {"global_code": "7J9WFCP6+6P", "compound_code": "FCP6+6P Hyderabad, Telangana, India"}, "vicinity": "Survey No 1094 &1095, Door No - 5-2-26/5/1, 3, 4, 5, Hyderabad", "photos": [{"photo_reference": "ATtYBwIj6i2ksbQkH6JZIRDMjilyMZiZkPRFXgcqqaBJZoPCjcvhbgoU8rCe_lm57lySOfPWqXBMsq7WRA2C9UMaZ-CWbnP0hrivigV1FYbSYxRSOncSwFhR5rVkw9CMT-P6LcNqQ4JA9ZKRB5_MTHWB2HzBZV2wxk9l-CcDXZ1T12qC8NqZ", "width": 2560, "html_attributions": ["<a href=\"https://maps.google.com/maps/contrib/115456674788909736708\">Naren Chandra</a>"], "height": 1440}], "scope": "GOOGLE", "business_status": "OPERATIONAL", "types": ["supermarket", "grocery_or_supermarket", "food", "point_of_interest", "store", "establishment"], "icon": "https://maps.gstatic.com/mapfiles/place_api/icons/v1/png_71/shopping-71.png"}, {"rating": 4, "user_ratings_total": 120, "name": "Sneha Mega Discount Store", "reference": "ChIJdz5lFKWRyzsRGXlxY7urfoI", "geometry": {"location": {"lat": 17.4804074, "lng": 78.4167167}, "viewport": {"northeast": {"lat": 17.48178053029151, "lng": 78.41820133029151}, "southwest": {"lat": 17.4790825697085, "lng": 78.4155033697085}}}, "opening_hours": {"open_now": true}, "place_id": "ChIJdz5lFKWRyzsRGXlxY7urfoI", "plus_code": {"global_code": "7J9WFCJ8+5M", "compound_code": "FCJ8+5M Hyderabad, Telangana, India"}, "vicinity": "Hyderabad, Vivek Nagar, Kukatpally, Hyderabad", "photos": [{"photo_reference": "ATtYBwLdJ1b2i69xen9gESOeAnKKhImwaidYXsMW_Q8bxy3WUdqz3bUvsm9IO_JziXy1Bo3h9nQSMSbINdy9viftkkQvdrTC8aeABn9pDhiLBkqBg4Xcvly2mFrV1ppca1JmLNkMao_SE_gkcNQRKy37sdM8VpzFUm7zRGAoCBA6YWuFnEWt", "width": 6000, "html_attributions": ["<a href=\"https://maps.google.com/maps/contrib/111968362406205717307\">Pavan Kumar Palvai</a>"], "height": 8000}], "scope": "GOOGLE", "business_status": "OPERATIONAL", "types": ["supermarket", "grocery_or_supermarket", "food", "point_of_interest", "store", "establishment"], "icon": "https://maps.gstatic.com/mapfiles/place_api/icons/v1/png_71/shopping-71.png"}, {"rating": 4.5, "user_ratings_total": 2, "name": "Brit Office", "reference": "ChIJd4YFXLmRyzsRfLUEfk7cFSU", "geometry": {"location": {"lat": 17.488243, "lng": 78.4137573}, "viewport": {"northeast": {"lat": 17.48957268029151, "lng": 78.41518573029151}, "southwest": {"lat": 17.4868747197085, "lng": 78.4124877697085}}}, "place_id": "ChIJd4YFXLmRyzsRfLUEfk7cFSU", "plus_code": {"global_code": "7J9WFCQ7+7G", "compound_code": "FCQ7+7G Hyderabad, Telangana, India"}, "vicinity": "5/2/61, Ramalayam Road, Bagh Ameer, Sumitra Nagar Colony, Kukatpally, Hyderabad", "scope": "GOOGLE", "business_status": "OPERATIONAL", "types": ["supermarket", "grocery_or_supermarket", "food", "point_of_interest", "store", "establishment"], "icon": "https://maps.gstatic.com/mapfiles/place_api/icons/v1/png_71/shopping-71.png"}, {"rating": 3.5, "user_ratings_total": 402, "name": "Heritage Fresh", "reference": "ChIJRycQvwmRyzsRiTNxJQo2-mE", "geometry": {"location": {"lat": 17.4682885, "lng": 78.4145226}, "viewport": {"northeast": {"lat": 17.4699739802915, "lng": 78.4158624302915}, "southwest": {"lat": 17.4672760197085, "lng": 78.41316446970849}}}, "opening_hours": {"open_now": true}, "place_id": "ChIJRycQvwmRyzsRiTNxJQo2-mE", "plus_code": {"global_code": "7J9WFC97+8R", "compound_code": "FC97+8R Hyderabad, Telangana, India"}, "vicinity": "91, Green Hills Road, IV Phase, Anjaneya Nagar, Sevalal Nagar, Moosapet, Hyderabad", "photos": [{"photo_reference": "ATtYBwJ0qWlQaWjBjsMizGY0yvvowbJYD1AwBICAPsqMQwJ4htXEgYGYJfnmqDJyG5PkqpCs20nF9UrJ4nYV2a4kqAxstlM1-r8_F1qIgo7oZWNayxhJoAZPP-n5Rv5SXsOcfR6CIiTTTgGnddP4oOLnrsdiYc_LViNLQ2t_-pr-CqJjzuCd", "width": 1920, "html_attributions": ["<a href=\"https://maps.google.com/maps/contrib/103017665259467754501\">Kavyadeep Rani Devarakonda</a>"], "height": 1080}], "scope": "GOOGLE", "business_status": "OPERATIONAL", "types": ["supermarket", "grocery_or_supermarket", "food", "point_of_interest", "store", "establishment"], "icon": "https://maps.gstatic.com/mapfiles/place_api/icons/v1/png_71/shopping-71.png"}, {"rating": 4.9, "user_ratings_total": 36, "name": "Sri Mallikarjuna Rice & General stores Whole sale & Retail", "reference": "ChIJIxPQnMaRyzsRQi4qKvLg888", "geometry": {"location": {"lat": 17.4826925, "lng": 78.41001589999999}, "viewport": {"northeast": {"lat": 17.4840327302915, "lng": 78.41138773029151}, "southwest": {"lat": 17.4813347697085, "lng": 78.4086897697085}}}, "opening_hours": {"open_now": true}, "place_id": "ChIJIxPQnMaRyzsRQi4qKvLg888", "plus_code": {"global_code": "7J9WFCM6+32", "compound_code": "FCM6+32 Hyderabad, Telangana, India"}, "vicinity": "15/21/207, Balaji Nagar, Kukatpally, Hyderabad", "photos": [{"photo_reference": "ATtYBwK6zIDH2gqUbquBUeAkRdR2X3czWcbCoEJnO2Vsyz_XjqBpUlkNNcJHGQd59cbEMYz4enuyCPtPr8gN7RIIHp3I-wuPYjlUIK6ibUM_lohjERTCdQRMmMBW_gm537HUxyBkbCWJiyoH4dvtJBHX5d1hhSlZOeNI208JNmATbyNIt4Kg", "width": 3000, "html_attributions": ["<a href=\"https://maps.google.com/maps/contrib/114446947838245794563\">Sri Mallikarjuna Rice &amp; General stores Whole sale &amp; Retail</a>"], "height": 3999}], "scope": "GOOGLE", "business_status": "OPERATIONAL", "types": ["supermarket", "grocery_or_supermarket", "food", "point_of_interest", "store", "establishment"], "icon": "https://maps.gstatic.com/mapfiles/place_api/icons/v1/png_71/shopping-71.png"}, {"name": "Raja Rajeshwari kirana and general stores", "reference": "ChIJUagGIDGRyzsR2r90BhjForU", "geometry": {"location": {"lat": 17.4807766, "lng": 78.4128285}, "viewport": {"northeast": {"lat": 17.4821166302915, "lng": 78.4142006302915}, "southwest": {"lat": 17.47941866970849, "lng": 78.41150266970848}}}, "place_id": "ChIJUagGIDGRyzsR2r90BhjForU", "plus_code": {"global_code": "7J9WFCJ7+84", "compound_code": "FCJ7+84 Hyderabad, Telangana, India"}, "vicinity": "12/6/2/237, Shivalayam Road, M J Colony, Vivek Nagar, Kukatpally, Hyderabad", "scope": "GOOGLE", "business_status": "OPERATIONAL", "types": ["supermarket", "grocery_or_supermarket", "food", "point_of_interest", "store", "establishment"], "icon": "https://maps.gstatic.com/mapfiles/place_api/icons/v1/png_71/shopping-71.png"}, {"name": "Shambhavi Kirana Store", "reference": "ChIJQeV9GL2RyzsRpaUydXVPwRc", "geometry": {"location": {"lat": 17.4832287, "lng": 78.4092804}, "viewport": {"northeast": {"lat": 17.4845941302915, "lng": 78.4105935802915}, "southwest": {"lat": 17.4818961697085, "lng": 78.40789561970848}}}, "place_id": "ChIJQeV9GL2RyzsRpaUydXVPwRc", "plus_code": {"global_code": "7J9WFCM5+7P", "compound_code": "FCM5+7P Hyderabad, Telangana, India"}, "vicinity": "15/21/87, Balaji Nagar, Kukatpally, Hyderabad", "scope": "GOOGLE", "business_status": "OPERATIONAL", "types": ["supermarket", "grocery_or_supermarket", "food", "point_of_interest", "store", "establishment"], "icon": "https://maps.gstatic.com/mapfiles/place_api/icons/v1/png_71/shopping-71.png"}, {"name": "Alam's The Farmer's Land", "reference": "ChIJUbXYNOuRyzsRt52wLkvXWT8", "geometry": {"location": {"lat": 17.4837343, "lng": 78.4100952}, "viewport": {"northeast": {"lat": 17.4850832802915, "lng": 78.4114441802915}, "southwest": {"lat": 17.4823853197085, "lng": 78.40874621970849}}}, "place_id": "ChIJUbXYNOuRyzsRt52wLkvXWT8", "plus_code": {"global_code": "7J9WFCM6+F2", "compound_code": "FCM6+F2 Hyderabad, Telangana, India"}, "vicinity": "Ramarao Nagar Colony, Paparayadu Nagar, Kukatpally, Hyderabad", "photos": [{"photo_reference": "ATtYBwKdDNRYS54NzkLDpGCtPzpLSeMs5EAS-b408sSiNrtpdRX8q9l_tvvh1MDkCECQF5cF2IPZsqi0-c712dA9eA676yeVtCS4zl4yzC0nIvtGX_yPQe0Hl71GoBvFnvdqEJ7vRQjL8z8FEWfBk84guQ413744Bgo9h30J2RZsUwALwQkl", "width": 859, "html_attributions": ["<a href=\"https://maps.google.com/maps/contrib/107055012981947928744\">Koteswara Rao Sarupuru</a>"], "height": 1280}], "scope": "GOOGLE", "business_status": "OPERATIONAL", "types": ["supermarket", "grocery_or_supermarket", "food", "point_of_interest", "store", "establishment"], "icon": "https://maps.gstatic.com/mapfiles/place_api/icons/v1/png_71/shopping-71.png"}, {"rating": 3, "user_ratings_total": 1, "name": "Sri Veerabhadra Swamy Traders", "reference": "ChIJsQqjULyRyzsRIzPnKSLbGRg", "geometry": {"location": {"lat": 17.4831469, "lng": 78.4129695}, "viewport": {"northeast": {"lat": 17.4845130302915, "lng": 78.41426698029152}, "southwest": {"lat": 17.4818150697085, "lng": 78.4115690197085}}}, "opening_hours": {"open_now": true}, "place_id": "ChIJsQqjULyRyzsRIzPnKSLbGRg", "plus_code": {"global_code": "7J9WFCM7+75", "compound_code": "FCM7+75 Hyderabad, Telangana, India"}, "vicinity": "Metro Pillar No, Naveen Complex, 8, Balaji Nagar Main Road, Kukatpally, Hyderabad", "scope": "GOOGLE", "business_status": "OPERATIONAL", "types": ["supermarket", "grocery_or_supermarket", "food", "point_of_interest", "store", "establishment"], "icon": "https://maps.gstatic.com/mapfiles/place_api/icons/v1/png_71/generic_business-71.png"}, {"name": "Imagine Hyper Store", "reference": "ChIJ1Y3NTruRyzsRuzEx9qzRMko", "geometry": {"location": {"lat": 17.482506, "lng": 78.41371099999999}, "viewport": {"northeast": {"lat": 17.4838538302915, "lng": 78.4151775802915}, "southwest": {"lat": 17.4811558697085, "lng": 78.41247961970849}}}, "opening_hours": {"open_now": true}, "place_id": "ChIJ1Y3NTruRyzsRuzEx9qzRMko", "plus_code": {"global_code": "7J9WFCM7+2F", "compound_code": "FCM7+2F Hyderabad, Telangana, India"}, "vicinity": "401,4th Floor,VC Plaza, Vivek Nagar, Kukatpally, Hyderabad", "scope": "GOOGLE", "business_status": "OPERATIONAL", "types": ["supermarket", "grocery_or_supermarket", "food", "point_of_interest", "store", "establishment"], "icon": "https://maps.gstatic.com/mapfiles/place_api/icons/v1/png_71/shopping-71.png"}, {"rating": 4.3, "user_ratings_total": 13, "name": "vijetha super market", "reference": "ChIJRwbn2eGRyzsRYqVekYvibis", "geometry": {"location": {"lat": 17.48528899999999, "lng": 78.41041700000001}, "viewport": {"northeast": {"lat": 17.4866000302915, "lng": 78.4117888802915}, "southwest": {"lat": 17.4839020697085, "lng": 78.40909091970849}}}, "opening_hours": {"open_now": true}, "place_id": "ChIJRwbn2eGRyzsRYqVekYvibis", "plus_code": {"global_code": "7J9WFCP6+45", "compound_code": "FCP6+45 Hyderabad, Telangana, India"}, "vicinity": "Plot No. Balaji nagar Road Adj. to Kalyan Jewelers Kukatpally Hyderabad - 500072 HYD", "photos": [{"photo_reference": "ATtYBwLZOo3EpryWR7qHdwXqu_c3gJJxfQFUcXoBpGQ8206vNIgMbHAZNvu76g6HCfHFL2cIj-FQp3Futqnig839uJdLtuP4Qgqwiwu-LigfKgSRAJB7fdhgWBjY1kVoyrRHXzlRpcFc3nqhAe_MaoXacsCXh6ne7_7MMFQLLobLtqzUWyud", "width": 2600, "html_attributions": ["<a href=\"https://maps.google.com/maps/contrib/103744495642446441335\">ramakrishna guptha</a>"], "height": 1206}], "scope": "GOOGLE", "business_status": "OPERATIONAL", "types": ["grocery_or_supermarket", "supermarket", "food", "point_of_interest", "store", "establishment"], "icon": "https://maps.gstatic.com/mapfiles/place_api/icons/v1/png_71/shopping-71.png"}, {"rating": 4, "user_ratings_total": 130, "name": "bjp Office Kuktapally", "reference": "ChIJ0ximdlaRyzsRRK7jGiU9XaY", "geometry": {"location": {"lat": 17.4821082, "lng": 78.4161642}, "viewport": {"northeast": {"lat": 17.4834652802915, "lng": 78.41755678029149}, "southwest": {"lat": 17.4807673197085, "lng": 78.41485881970848}}}, "opening_hours": {"open_now": true}, "place_id": "ChIJ0ximdlaRyzsRRK7jGiU9XaY", "plus_code": {"global_code": "7J9WFCJ8+RF", "compound_code": "FCJ8+RF Hyderabad, Telangana, India"}, "vicinity": "vijayalaxmiRaghavulu amurtha oils & foods at metro pillar 21/A828, born babies beside street near bjp office kuktapally Hyderabad 500072 ph no:9866342821", "photos": [{"photo_reference": "ATtYBwJeMAz0oTcptJjbmwgjrlx8aebabUJ9AX7QGxNfU4FeJiTYWIbSsfmC2oMnM8hRSm4WcMViwHeBI1YD9duOZOSZcP4_rLyeoqBnmqBY-_tTxNZjWSENKeH4j_OVYwtoEYjcVB1aaMPXF7slmISkpR7A-s0VFDCRzR7AfHLNnckKgaZv", "width": 667, "html_attributions": ["<a href=\"https://maps.google.com/maps/contrib/117668375812063242221\">Sangeetha Madishetty</a>"], "height": 450}], "scope": "GOOGLE", "business_status": "OPERATIONAL", "types": ["supermarket", "grocery_or_supermarket", "food", "point_of_interest", "store", "establishment"], "icon": "https://maps.gstatic.com/mapfiles/place_api/icons/v1/png_71/shopping-71.png"}, {"rating": 5, "user_ratings_total": 1, "name": "Sri spr fresh vegetable market", "reference": "ChIJLw3ssIqRyzsR3AcaVdYuNfo", "geometry": {"location": {"lat": 17.484352, "lng": 78.415284}, "viewport": {"northeast": {"lat": 17.4856717802915, "lng": 78.41662698029151}, "southwest": {"lat": 17.4829738197085, "lng": 78.41392901970849}}}, "opening_hours": {"open_now": true}, "place_id": "ChIJLw3ssIqRyzsR3AcaVdYuNfo", "plus_code": {"global_code": "7J9WFCM8+P4", "compound_code": "FCM8+P4 Hyderabad, Telangana, India"}, "vicinity": "5-4-107/108,flat no:201, Shanthi Nagar, Kukatpally, Hyderabad", "scope": "GOOGLE", "business_status": "OPERATIONAL", "types": ["supermarket", "grocery_or_supermarket", "food", "point_of_interest", "store", "establishment"], "icon": "https://maps.gstatic.com/mapfiles/place_api/icons/v1/png_71/shopping-71.png"}, {"name": "New Swarna Store", "reference": "ChIJu1afp7uRyzsRHa7ClMjP9dc", "geometry": {"location": {"lat": 17.485064, "lng": 78.4146354}, "viewport": {"northeast": {"lat": 17.4864243302915, "lng": 78.41593723029149}, "southwest": {"lat": 17.4837263697085, "lng": 78.41323926970848}}}, "place_id": "ChIJu1afp7uRyzsRHa7ClMjP9dc", "plus_code": {"global_code": "7J9WFCP7+2V", "compound_code": "FCP7+2V Hyderabad, Telangana, India"}, "vicinity": "4-92,near bjp office, Kukatpally, Hyderabad", "scope": "GOOGLE", "business_status": "OPERATIONAL", "types": ["supermarket", "grocery_or_supermarket", "food", "point_of_interest", "store", "establishment"], "icon": "https://maps.gstatic.com/mapfiles/place_api/icons/v1/png_71/shopping-71.png"}, {"rating": 3.8, "user_ratings_total": 4, "name": "Ram dev kirana and general stores", "reference": "ChIJY_fNpr6RyzsRzLpBGQnQOMM", "geometry": {"location": {"lat": 17.4879373, "lng": 78.41161319999999}, "viewport": {"northeast": {"lat": 17.4892837802915, "lng": 78.41297623029152}, "southwest": {"lat": 17.48658581970849, "lng": 78.4102782697085}}}, "place_id": "ChIJY_fNpr6RyzsRzLpBGQnQOMM", "plus_code": {"global_code": "7J9WFCQ6+5J", "compound_code": "FCQ6+5J Hyderabad, Telangana, India"}, "vicinity": "2/38/1, Bagh Ameer, Sumitra Nagar Colony, Kukatpally, Hyderabad", "scope": "GOOGLE", "business_status": "OPERATIONAL", "types": ["supermarket", "grocery_or_supermarket", "food", "point_of_interest", "store", "establishment"], "icon": "https://maps.gstatic.com/mapfiles/place_api/icons/v1/png_71/shopping-71.png"}, {"rating": 3.9, "user_ratings_total": 1810, "name": "Reliance SMART", "reference": "ChIJRTqRn0-RyzsRL_unrdtPkmA", "geometry": {"location": {"lat": 17.4874648, "lng": 78.41443819999999}, "viewport": {"northeast": {"lat": 17.4887014302915, "lng": 78.41575933029151}, "southwest": {"lat": 17.4860034697085, "lng": 78.41306136970849}}}, "opening_hours": {"open_now": true}, "place_id": "ChIJRTqRn0-RyzsRL_unrdtPkmA", "plus_code": {"global_code": "7J9WFCP7+XQ", "compound_code": "FCP7+XQ Hyderabad, Telangana, India"}, "vicinity": "Yashoda Gardens, Shanthi Nagar, Kukatpally, Hyderabad", "photos": [{"photo_reference": "ATtYBwJ8-nxb3FRJBAH-R8TYLh68-X6VDKuF_Eo-S8GVE6bToniZNmaiDwQgZJoj0Zc5WppRNKBGs9YHdmJa6NoqWsaStKZfSqMwBPGKqwLzyS6QqjeCHMl57tszbBtazwoQa0aKGy1QmVt5cndYh2BAEqOHVB5SGYZ5ArqX_TScQWiJbYzb", "width": 1920, "html_attributions": ["<a href=\"https://maps.google.com/maps/contrib/104244136268386924920\">satish donthu</a>"], "height": 1080}], "scope": "GOOGLE", "business_status": "OPERATIONAL", "types": ["supermarket", "grocery_or_supermarket", "food", "point_of_interest", "store", "establishment"], "icon": "https://maps.gstatic.com/mapfiles/place_api/icons/v1/png_71/shopping-71.png"}, {"rating": 4, "user_ratings_total": 1, "name": "Sri Ganesh Kirana & General Stores", "reference": "ChIJn86IkJeRyzsR9n7fJRyb7kM", "geometry": {"location": {"lat": 17.4882887, "lng": 78.4125211}, "viewport": {"northeast": {"lat": 17.4896393802915, "lng": 78.41385943029151}, "southwest": {"lat": 17.4869414197085, "lng": 78.41116146970849}}}, "place_id": "ChIJn86IkJeRyzsR9n7fJRyb7kM", "plus_code": {"global_code": "7J9WFCQ7+82", "compound_code": "FCQ7+82 Hyderabad, Telangana, India"}, "vicinity": "Unnamed Road, Bagh Ameer, Sumitra Nagar Colony, Kukatpally, Hyderabad", "scope": "GOOGLE", "business_status": "OPERATIONAL", "types": ["supermarket", "grocery_or_supermarket", "food", "point_of_interest", "store", "establishment"], "icon": "https://maps.gstatic.com/mapfiles/place_api/icons/v1/png_71/shopping-71.png"}, {"name": "Shriya Kirana & General Stores", "reference": "ChIJb8k4BrCRyzsRBIs7jD42RFc", "geometry": {"location": {"lat": 17.4829378, "lng": 78.4185893}, "viewport": {"northeast": {"lat": 17.4842833302915, "lng": 78.4199530302915}, "southwest": {"lat": 17.4815853697085, "lng": 78.41725506970849}}}, "place_id": "ChIJb8k4BrCRyzsRBIs7jD42RFc", "plus_code": {"global_code": "7J9WFCM9+5C", "compound_code": "FCM9+5C Hyderabad, Telangana, India"}, "vicinity": "5/6/100, Dayarguda, Sangeet Nagar, Kukatpally, Hyderabad", "scope": "GOOGLE", "business_status": "OPERATIONAL", "types": ["supermarket", "grocery_or_supermarket", "food", "point_of_interest", "store", "establishment"], "icon": "https://maps.gstatic.com/mapfiles/place_api/icons/v1/png_71/shopping-71.png"}, {"rating": 4.3, "user_ratings_total": 11, "name": "RUPA Kirana Store", "reference": "ChIJAdRUCbCRyzsRVDgSzgxt7fU", "geometry": {"location": {"lat": 17.48338, "lng": 78.4187006}, "viewport": {"northeast": {"lat": 17.4847023302915, "lng": 78.4200454302915}, "southwest": {"lat": 17.48200436970849, "lng": 78.41734746970849}}}, "opening_hours": {"open_now": true}, "place_id": "ChIJAdRUCbCRyzsRVDgSzgxt7fU", "plus_code": {"global_code": "7J9WFCM9+9F", "compound_code": "FCM9+9F Hyderabad, Telangana, India"}, "vicinity": "5/6/129, Dayarguda, Devi Nagar, Sangeet Nagar, Kukatpally, Hyderabad", "photos": [{"photo_reference": "ATtYBwKQ8WVn_LP9xOrs8gaPLxTMHH0Kv-sme5zw6A6tkgQkt2c9VyWZFxoUeXkz_XdLLRaw4DiVjKSKlWGs4a19YhJmlscOeTDgAF4PAWQboOwN2OhVQCZIQkIeKRasMCQAtjyMW64uCkvyXufVthDTrUUH_PLvbb62lsezc41dNQiaSLN9", "width": 4128, "html_attributions": ["<a href=\"https://maps.google.com/maps/contrib/117905177007845850488\">RahuL</a>"], "height": 3096}], "scope": "GOOGLE", "business_status": "OPERATIONAL", "types": ["supermarket", "grocery_or_supermarket", "food", "point_of_interest", "store", "establishment"], "icon": "https://maps.gstatic.com/mapfiles/place_api/icons/v1/png_71/shopping-71.png"}]}