{"status": "OK", "html_attributions": [], "results": [{"rating": 4.3, "user_ratings_total": 32, "name": "Zed Mart", "reference": "ChIJVW0dGtGiyzsRqc4O3QHTjPk", "geometry": {"location": {"lat": 17.2957233, "lng": 78.4830612}, "viewport": {"northeast": {"lat": 17.29711088029151, "lng": 78.48440878029149}, "southwest": {"lat": 17.2944129197085, "lng": 78.48171081970848}}}, "place_id": "ChIJVW0dGtGiyzsRqc4O3QHTjPk", "plus_code": {"global_code": "7J9W7FWM+76", "compound_code": "7FWM+76 Hyderabad, Telangana, India"}, "vicinity": "Shaheen Nagar, Hyderabad", "photos": [{"photo_reference": "ATtYBwK07kDS4g2oTgHnskT_fH-No41VrdhSkd-Y0e5BSBpjnmV_YBjYZsK43zMzK0Xrfo1i6rCPX0pgnCKIhysRwt0xIJ9XNtyqxV2jUxoDQhc7B6oLRmCZuo_POhXOSNe04f6myiWAul0EvsZXRtDngVbq9bBCfhhicVd_Ddgm9QsT7yo7", "width": 4608, "html_attributions": ["<a href=\"https://maps.google.com/maps/contrib/101666189333026554405\">zed mart super market</a>"], "height": 3456}], "scope": "GOOGLE", "business_status": "OPERATIONAL", "types": ["supermarket", "grocery_or_supermarket", "food", "point_of_interest", "store", "establishment"], "icon": "https://maps.gstatic.com/mapfiles/place_api/icons/v1/png_71/shopping-71.png"}, {"rating": 5, "user_ratings_total": 3, "name": "pure MI water filter", "reference": "ChIJAytaEdGiyzsRY7Sf7MDWPis", "geometry": {"location": {"lat": 17.2958866, "lng": 78.4827601}, "viewport": {"northeast": {"lat": 17.2972146802915, "lng": 78.4841056302915}, "southwest": {"lat": 17.2945167197085, "lng": 78.48140766970847}}}, "place_id": "ChIJAytaEdGiyzsRY7Sf7MDWPis", "plus_code": {"global_code": "7J9W7FWM+94", "compound_code": "7FWM+94 Balapur, Telangana, India"}, "vicinity": "Shaheen Nagar, Habeeb Colony, Balapur", "scope": "GOOGLE", "business_status": "OPERATIONAL", "types": ["supermarket", "grocery_or_supermarket", "food", "point_of_interest", "store", "establishment"], "icon": "https://maps.gstatic.com/mapfiles/place_api/icons/v1/png_71/shopping-71.png"}, {"name": "Mohd masood kirana", "reference": "ChIJS0PLE6CjyzsR8J62ly09o_8", "geometry": {"location": {"lat": 17.2954197, "lng": 78.47985609999999}, "viewport": {"northeast": {"lat": 17.2967679802915, "lng": 78.48116023029151}, "southwest": {"lat": 17.2940700197085, "lng": 78.4784622697085}}}, "place_id": "ChIJS0PLE6CjyzsR8J62ly09o_8", "plus_code": {"global_code": "7J9W7FWH+5W", "compound_code": "7FWH+5W Balapur, Telangana, India"}, "vicinity": "Shaheen Nagar, Habeeb Colony, Balapur", "photos": [{"photo_reference": "ATtYBwIAlcF5gmgPwTNxc7n0iSrSYwNeL8n2dYYPMwl3_lrsGmdjOW5m5D-HSnrlaD6aniULq42udRXEvdS7-fmRFZFD_SivUGtJZh086Mr69ra4u8HRlmUfelig5fRk6opbEOMis4MYcfAL4OzlFV7R2q5VO4Q9WtlqlMKRPoHbxRMXj5iA", "width": 3000, "html_attributions": ["<a href=\"https://maps.google.com/maps/contrib/107483096925483215707\">Mohd Masood</a>"], "height": 4000}], "scope": "GOOGLE", "business_status": "OPERATIONAL", "types": ["supermarket", "grocery_or_supermarket", "food", "point_of_interest", "store", "establishment"], "icon": "https://maps.gstatic.com/mapfiles/place_api/icons/v1/png_71/shopping-71.png"}, {"rating": 5, "user_ratings_total": 3, "name": "Aniketh Provisions", "reference": "ChIJpw4xgnyjyzsRAMU0bcGsZu8", "geometry": {"location": {"lat": 17.2890245, "lng": 78.4941997}, "viewport": {"northeast": {"lat": 17.2903709802915, "lng": 78.49546293029151}, "southwest": {"lat": 17.2876730197085, "lng": 78.49276496970849}}}, "opening_hours": {"open_now": true}, "place_id": "ChIJpw4xgnyjyzsRAMU0bcGsZu8", "plus_code": {"global_code": "7J9W7FQV+JM", "compound_code": "7FQV+JM Hyderabad, Telangana, India"}, "vicinity": "American Township, Ganesh Enclave, Mallapur, Hyderabad", "scope": "GOOGLE", "business_status": "OPERATIONAL", "types": ["supermarket", "grocery_or_supermarket", "food", "point_of_interest", "store", "establishment"], "icon": "https://maps.gstatic.com/mapfiles/place_api/icons/v1/png_71/shopping-71.png"}, {"rating": 2.5, "user_ratings_total": 2, "name": "Sri Lakshmi Stationery & Xerox", "reference": "ChIJvT1uYVCjyzsR9s9kIyE8eq0", "geometry": {"location": {"lat": 17.2932165, "lng": 78.5000627}, "viewport": {"northeast": {"lat": 17.2945566802915, "lng": 78.5014329302915}, "southwest": {"lat": 17.29185871970849, "lng": 78.4987349697085}}}, "place_id": "ChIJvT1uYVCjyzsR9s9kIyE8eq0", "plus_code": {"global_code": "7J9W7GV2+72", "compound_code": "7GV2+72 Mallapur, Telangana, India"}, "vicinity": "RCI Road, Mallapur", "photos": [{"photo_reference": "ATtYBwIPrPNuM_dLZqnmrezqIxy-quuwIKvY-TS8WtWIuAaXZH5uqwhdBX-PrPZjFvKAJtV9pt-dhB2VS5yxUeMEQgwKn8kiCDGjbErpGK9Wr25kOKtrupTjgcmxM7Ks0nyXIhHt8TAUPw_COFAqGUVeGeYpsOTw09yo6DmYGKUXfY-o-4IL", "width": 4160, "html_attributions": ["<a href=\"https://maps.google.com/maps/contrib/105730983497106829394\">Raju Eadamoni</a>"], "height": 3120}], "scope": "GOOGLE", "business_status": "OPERATIONAL", "types": ["supermarket", "grocery_or_supermarket", "food", "point_of_interest", "store", "establishment"], "icon": "https://maps.gstatic.com/mapfiles/place_api/icons/v1/png_71/shopping-71.png"}, {"rating": 3.8, "user_ratings_total": 5, "name": "Al Habeeb Kirana and General Store", "reference": "ChIJA3MentOiyzsRw2CVnZ-0-FE", "geometry": {"location": {"lat": 17.29477, "lng": 78.4780421}, "viewport": {"northeast": {"lat": 17.2960650802915, "lng": 78.4794589302915}, "southwest": {"lat": 17.2933671197085, "lng": 78.4767609697085}}}, "opening_hours": {"open_now": false}, "place_id": "ChIJA3MentOiyzsRw2CVnZ-0-FE", "plus_code": {"global_code": "7J9W7FVH+W6", "compound_code": "7FVH+W6 Hyderabad, Telangana, India"}, "vicinity": "Hyderabad,, Wadi e Omer colony, Venkatapuram, Hyderabad", "scope": "GOOGLE", "business_status": "OPERATIONAL", "types": ["supermarket", "grocery_or_supermarket", "food", "point_of_interest", "store", "establishment"], "icon": "https://maps.gstatic.com/mapfiles/place_api/icons/v1/png_71/shopping-71.png"}, {"rating": 4.4, "user_ratings_total": 11, "name": "Mansoor Basravi", "reference": "ChIJMU4F5NKiyzsRv3GkPnrvyNU", "geometry": {"location": {"lat": 17.296336, "lng": 78.4773105}, "viewport": {"northeast": {"lat": 17.29764013029151, "lng": 78.47866548029151}, "southwest": {"lat": 17.2949421697085, "lng": 78.4759675197085}}}, "opening_hours": {"open_now": true}, "place_id": "ChIJMU4F5NKiyzsRv3GkPnrvyNU", "plus_code": {"global_code": "7J9W7FWG+GW", "compound_code": "7FWG+GW Balapur, Telangana, India"}, "vicinity": "Shaheen Nagar, Habeeb Colony, Balapur", "scope": "GOOGLE", "business_status": "OPERATIONAL", "types": ["supermarket", "grocery_or_supermarket", "food", "point_of_interest", "store", "establishment"], "icon": "https://maps.gstatic.com/mapfiles/place_api/icons/v1/png_71/shopping-71.png"}]}