{"status": "OK", "next_page_token": "CqQCGgEAALZJBBP80sNI325h77RxiDID8cCio51DKeS0noAbGUwZTte5pSKSQuU0KGbBJFSPbZmFkqFZuWPjU-UTKc060uws9xSK2eoJC0ZzGzdLnZwCsCdMB6-mB8hC7HeS2fcCAAZ62L1aryGQMsk7Q8nC_SQkqfm52wzaYeYaUpR5I-wmYGgRy1Wg5kje6JdGr0pJms8CxrrsChdEm0p2DEoP_AqS57Ny5erjHm6ITafTEyOB7JlybWYejsqNxHpId1rvOJ--b_WoyxIqhXjtWhQHKDL4HjnS_FPUquV3a4VVzu-kATUTm_Eg84nWX7E0s545viz6YpvxROpCKzQYJb5o37NgHQj1PDKbnImhAhQzPvIQKJo5PI9lwGRsNaGwpmqXehIQoKIfFvzU1Y5dyl-Xmuq3lhoUf6eychFhZcH6A3vEwkx7L2LqyLg", "html_attributions": [], "results": [{"rating": 4.1, "user_ratings_total": 83, "name": "K B H Bachooali Charitable Ophthalmic & ENT Hospital", "reference": "ChIJC4DhY-XO5zsRb-vlJPvS5KQ", "geometry": {"location": {"lat": 19.0029558, "lng": 72.840347}, "viewport": {"northeast": {"lat": 19.0042238802915, "lng": 72.8416707802915}, "southwest": {"lat": 19.0015259197085, "lng": 72.83897281970849}}}, "opening_hours": {"open_now": false}, "place_id": "ChIJC4DhY-XO5zsRb-vlJPvS5KQ", "plus_code": {"global_code": "7JFJ2R3R+54", "compound_code": "2R3R+54 Mumbai, Maharashtra, India"}, "vicinity": "58/60 ,Jehangir Merwanji Road, Parel, Mumbai", "photos": [{"photo_reference": "CmRaAAAAQfe4H_mBROsaCAr-TCq_fhJlm2YpNXjWVcLe0mLgweIlGl7hpc0P43JFKtGsND7oURjYAyUac_ugpTKo8XerVAj_ScZbrM-czSID0z8auabq398xD8S-zqy8B0o_mI-KEhCavcSLQR98ln8R4QFsPbE6GhSgEOOf4PUji_dFVvZNhqoiK33-jA", "width": 4032, "html_attributions": ["<a href=\"https://maps.google.com/maps/contrib/113779540717087168582\">Md Oliullah Abdal</a>"], "height": 3024}], "scope": "GOOGLE", "business_status": "OPERATIONAL", "types": ["hospital", "health", "point_of_interest", "establishment"], "icon": "https://maps.gstatic.com/mapfiles/place_api/icons/v1/png_71/generic_business-71.png"}, {"rating": 4, "user_ratings_total": 1044, "name": "King Edward Memorial Hospital", "reference": "ChIJWcdwNuXO5zsR4MLLE1zcCTU", "geometry": {"location": {"lat": 19.0025221, "lng": 72.84154079999999}, "viewport": {"northeast": {"lat": 19.00383615, "lng": 72.84271758029152}, "southwest": {"lat": 18.99857995, "lng": 72.84001961970851}}}, "opening_hours": {"open_now": true}, "place_id": "ChIJWcdwNuXO5zsR4MLLE1zcCTU", "plus_code": {"global_code": "7JFJ2R3R+2J", "compound_code": "2R3R+2J Mumbai, Maharashtra, India"}, "vicinity": "Acharya Donde Marg, Parel, Mumbai", "photos": [{"photo_reference": "CmRaAAAAhyW6kfCdkFERPeJiJIX1lGPQS5UEhLv8KUsRZRgV0C0-KflOHG6F8JLFPhhAKyHBNy-W_Bx0kDZL9aWLhBvwIzLVLKtoqRuXGkQvVQ_rTsn4qGUu84IlhxDqx_j-MKsKEhDfosAHRW3C_ITADFacSKe1GhTrwhnKnoNajnVkDCXtLdUuzYXTQg", "width": 1280, "html_attributions": ["<a href=\"https://maps.google.com/maps/contrib/118156226736986345092\">King Edward Memorial Hospital</a>"], "height": 960}], "scope": "GOOGLE", "business_status": "OPERATIONAL", "types": ["hospital", "health", "point_of_interest", "establishment"], "icon": "https://maps.gstatic.com/mapfiles/place_api/icons/v1/png_71/doctor-71.png"}, {"rating": 3, "user_ratings_total": 1, "name": "Satguru Clinic", "reference": "ChIJy42xr_DO5zsRXiLVKWZ9usM", "geometry": {"location": {"lat": 19.0016637, "lng": 72.8386251}, "viewport": {"northeast": {"lat": 19.0030452802915, "lng": 72.83998373029151}, "southwest": {"lat": 19.0003473197085, "lng": 72.8372857697085}}}, "opening_hours": {"open_now": true}, "place_id": "ChIJy42xr_DO5zsRXiLVKWZ9usM", "plus_code": {"global_code": "7JFJ2R2Q+MF", "compound_code": "2R2Q+MF Mumbai, Maharashtra, India"}, "vicinity": "4, Hanuman Mandir, Gharoba, Outside Peninsula Centre, Doctor SS Rao Marg, Parel, Mumbai", "photos": [{"photo_reference": "CmRaAAAAfuSv9CMck32ldl8i8L6LDgXMJfipJSs9TIIYmlM4iLMsRckGjhS5X2_1yHDkm1DmvKo5_i48Q-67LYMyBmZzPAMwDSsrAebcRD-t6XiMpXQOCMgRU1bee6IegRBsRiMSEhCm4XiXjEU2KSJt7ClVX-vRGhQzj6zhfny81kIMRDnvqQksbx7Mqw", "width": 2448, "html_attributions": ["<a href=\"https://maps.google.com/maps/contrib/105362137492114167881\">Ramesh Mahbubani</a>"], "height": 3264}], "scope": "GOOGLE", "business_status": "OPERATIONAL", "types": ["hospital", "health", "point_of_interest", "establishment"], "icon": "https://maps.gstatic.com/mapfiles/place_api/icons/v1/png_71/doctor-71.png"}, {"rating": 3.7, "user_ratings_total": 6, "name": "Dr Patil's Parel Hospital ( Desai Memorial Hospital)", "reference": "ChIJYR3UrvrO5zsRto_2DYV92oM", "geometry": {"location": {"lat": 19.0005745, "lng": 72.84014359999999}, "viewport": {"northeast": {"lat": 19.0018918302915, "lng": 72.8414886802915}, "southwest": {"lat": 18.9991938697085, "lng": 72.8387907197085}}}, "opening_hours": {"open_now": true}, "place_id": "ChIJYR3UrvrO5zsRto_2DYV92oM", "plus_code": {"global_code": "7JFJ2R2R+63", "compound_code": "2R2R+63 Mumbai, Maharashtra, India"}, "vicinity": "Narmada Nivas, 94, Parmar Guruji Marg, Parel, Mumbai", "photos": [{"photo_reference": "CmRaAAAAQ-TOQG-QsdH_sSuQ_iZJ3TEYHYB2ZjUkgz-9wgV-VLgcEfTEL02UzyzSOyOnqyeoY1z7x9jm54mUahtZmXeEVm4wh3611NG8-Gi3vUlFH2PhfP8NrgeTHMpLFWCl9dV-EhAoYqRGi9wNm8NYAa4GJAnBGhT2YKJr4GA6dRI0k5P3SR-lH_b8qw", "width": 1280, "html_attributions": ["<a href=\"https://maps.google.com/maps/contrib/112656975761758201765\">Dr Patil&#39;s Parel Hospital ( Desai Memorial Hospital)</a>"], "height": 960}], "scope": "GOOGLE", "business_status": "OPERATIONAL", "types": ["hospital", "health", "point_of_interest", "establishment"], "icon": "https://maps.gstatic.com/mapfiles/place_api/icons/v1/png_71/doctor-71.png"}, {"rating": 4.6, "user_ratings_total": 2436, "name": "Global Hospitals, Mumbai", "reference": "ChIJi-OZVejO5zsR0w6PxRNIX6w", "geometry": {"location": {"lat": 18.9994023, "lng": 72.8406153}, "viewport": {"northeast": {"lat": 19.0009907802915, "lng": 72.8416603802915}, "southwest": {"lat": 18.9982928197085, "lng": 72.8389624197085}}}, "opening_hours": {"open_now": true}, "place_id": "ChIJi-OZVejO5zsR0w6PxRNIX6w", "plus_code": {"global_code": "7JCJXRXR+Q6", "compound_code": "XRXR+Q6 Mumbai, Maharashtra, India"}, "vicinity": "opp. Shirodkar High School, 35, Dr. E, opp. Shirodkar High School, Doctor Ernest Borges Road, Parel, Mumbai", "photos": [{"photo_reference": "CmRaAAAAVE-kvH2kN__IdXosxAdaB-bUcrXvUT4Yg5Do5VPzie8PjssdmD1S-ok5M809DK5HfAQyNEO0Pd7eYwlmcNyDcPXnXLAYIFxv-a7-ep0_vScGQRRPgZ5ox42bfDUeEXpzEhCYl7u0bTrgW6r2HvR50kjHGhSslt3BBWryQbsoXmJIvEf6vV9TuQ", "width": 640, "html_attributions": ["<a href=\"https://maps.google.com/maps/contrib/102288823392831933859\">khetesh goyal</a>"], "height": 444}], "scope": "GOOGLE", "business_status": "OPERATIONAL", "types": ["hospital", "health", "point_of_interest", "establishment"], "icon": "https://maps.gstatic.com/mapfiles/place_api/icons/v1/png_71/doctor-71.png"}, {"rating": 3.3, "user_ratings_total": 9, "name": "Dr Pradeep P Rao Mumbai Urologist", "reference": "ChIJ18jWkPrO5zsRZKYkM3zOPTs", "geometry": {"location": {"lat": 18.999274, "lng": 72.840634}, "viewport": {"northeast": {"lat": 19.0005704302915, "lng": 72.8419583802915}, "southwest": {"lat": 18.9978724697085, "lng": 72.83926041970848}}}, "opening_hours": {"open_now": false}, "place_id": "ChIJ18jWkPrO5zsRZKYkM3zOPTs", "plus_code": {"global_code": "7JCJXRXR+P7", "compound_code": "XRXR+P7 Mumbai, Maharashtra, India"}, "vicinity": "Dept Of Urology, Global Hospital, Dr E Borges Rd,Hospital Avenue, Parel, Mumbai", "photos": [{"photo_reference": "CmRaAAAAlZkQyVvNcRy3pviT2AQlxhBkAtj9YsT6Tc5rkBQdcgqBs5_XRb7eFIDL1OnHsL7-HhSbQG7w8iEfu9hs35E2vOkvwUGxM5CkeMLmQ5M25aPeIpQ06jbHvk7OP-uvTbwKEhDR9XOcRGZiP1yPx_Md0ywoGhTgTenmKgFvruRqBXZQkacHB1guGA", "width": 500, "html_attributions": ["<a href=\"https://maps.google.com/maps/contrib/117781863203692278706\">Dr Pradeep P Rao Mumbai Urologist</a>"], "height": 331}], "scope": "GOOGLE", "business_status": "OPERATIONAL", "types": ["hospital", "doctor", "health", "point_of_interest", "establishment"], "icon": "https://maps.gstatic.com/mapfiles/place_api/icons/v1/png_71/generic_business-71.png"}, {"rating": 3.7, "user_ratings_total": 3, "name": "Saifee Hospital", "reference": "ChIJHyLqmvrO5zsR5RcVjlw_Vdo", "geometry": {"location": {"lat": 18.9990084, "lng": 72.8403541}, "viewport": {"northeast": {"lat": 19.0001029802915, "lng": 72.8416320302915}, "southwest": {"lat": 18.9974050197085, "lng": 72.83893406970849}}}, "place_id": "ChIJHyLqmvrO5zsR5RcVjlw_Vdo", "plus_code": {"global_code": "7JCJXRXR+J4", "compound_code": "XRXR+J4 Mumbai, Maharashtra, India"}, "vicinity": "Doctor RK Shirodkar Marg, Ganesh Gully, Parel, Mumbai", "scope": "GOOGLE", "business_status": "OPERATIONAL", "types": ["hospital", "health", "point_of_interest", "establishment"], "icon": "https://maps.gstatic.com/mapfiles/place_api/icons/v1/png_71/doctor-71.png"}, {"name": "Sparsh South Clinic", "reference": "ChIJa-FQg_rO5zsRQnAwiHNDEws", "geometry": {"location": {"lat": 18.998934, "lng": 72.84005479999999}, "viewport": {"northeast": {"lat": 19.0000985302915, "lng": 72.8413519802915}, "southwest": {"lat": 18.9974005697085, "lng": 72.83865401970849}}}, "place_id": "ChIJa-FQg_rO5zsRQnAwiHNDEws", "plus_code": {"global_code": "7JCJXRXR+H2", "compound_code": "XRXR+H2 Mumbai, Maharashtra, India"}, "vicinity": "29 A, French Road, Grant Road, Mumbai", "scope": "GOOGLE", "business_status": "OPERATIONAL", "types": ["hospital", "health", "point_of_interest", "establishment"], "icon": "https://maps.gstatic.com/mapfiles/place_api/icons/v1/png_71/doctor-71.png"}, {"rating": 5, "user_ratings_total": 1, "name": "Panache Skin & Health Care", "reference": "ChIJ3_knI_DO5zsRZHKw0x1uyw4", "geometry": {"location": {"lat": 19.0002986, "lng": 72.8382852}, "viewport": {"northeast": {"lat": 19.0016115302915, "lng": 72.8397842302915}, "southwest": {"lat": 18.9989135697085, "lng": 72.8370862697085}}}, "opening_hours": {"open_now": true}, "place_id": "ChIJ3_knI_DO5zsRZHKw0x1uyw4", "plus_code": {"global_code": "7JFJ2R2Q+48", "compound_code": "2R2Q+48 Mumbai, Maharashtra, India"}, "vicinity": "Doctor Baba Saheb Ambedkar Road, Parel, Mumbai", "scope": "GOOGLE", "business_status": "OPERATIONAL", "types": ["hospital", "health", "point_of_interest", "establishment"], "icon": "https://maps.gstatic.com/mapfiles/place_api/icons/v1/png_71/generic_business-71.png"}, {"name": "Deputy Dean (I)", "reference": "ChIJrZ48PeXO5zsRiYLk7wEcijU", "geometry": {"location": {"lat": 19.0025705, "lng": 72.8419258}, "viewport": {"northeast": {"lat": 19.0038797802915, "lng": 72.8431281802915}, "southwest": {"lat": 19.0011818197085, "lng": 72.84043021970848}}}, "opening_hours": {"open_now": false}, "place_id": "ChIJrZ48PeXO5zsRiYLk7wEcijU", "plus_code": {"global_code": "7JFJ2R3R+2Q", "compound_code": "2R3R+2Q Mumbai, Maharashtra, India"}, "vicinity": "Parel, Mumbai", "scope": "GOOGLE", "business_status": "OPERATIONAL", "types": ["hospital", "health", "point_of_interest", "establishment"], "icon": "https://maps.gstatic.com/mapfiles/place_api/icons/v1/png_71/doctor-71.png"}, {"name": "Dean's Chamber", "reference": "ChIJEanbF-XO5zsR-K8V4KpDncU", "geometry": {"location": {"lat": 19.002856, "lng": 72.8418786}, "viewport": {"northeast": {"lat": 19.0043090302915, "lng": 72.84303023029152}, "southwest": {"lat": 19.0016110697085, "lng": 72.84033226970851}}}, "opening_hours": {"open_now": false}, "place_id": "ChIJEanbF-XO5zsR-K8V4KpDncU", "plus_code": {"global_code": "7JFJ2R3R+4Q", "compound_code": "2R3R+4Q Mumbai, Maharashtra, India"}, "vicinity": "Parel, Mumbai", "scope": "GOOGLE", "business_status": "OPERATIONAL", "types": ["hospital", "health", "point_of_interest", "establishment"], "icon": "https://maps.gstatic.com/mapfiles/place_api/icons/v1/png_71/doctor-71.png"}, {"name": "GDA Impex", "reference": "ChIJRVR9ciHP5zsRGT7pF-inaMA", "geometry": {"location": {"lat": 18.9978594, "lng": 72.83677759999999}, "viewport": {"northeast": {"lat": 18.9993490802915, "lng": 72.8381778802915}, "southwest": {"lat": 18.9966511197085, "lng": 72.83547991970849}}}, "place_id": "ChIJRVR9ciHP5zsRGT7pF-inaMA", "plus_code": {"global_code": "7JCJXRXP+4P", "compound_code": "XRXP+4P Mumbai, Maharashtra, India"}, "vicinity": "11B The Parel Cotton Press Factory, 9/D Elephinstone Bridge Road, J.B. Marg Parel, Mumbai", "scope": "GOOGLE", "business_status": "OPERATIONAL", "types": ["hospital", "health", "point_of_interest", "establishment"], "icon": "https://maps.gstatic.com/mapfiles/place_api/icons/v1/png_71/doctor-71.png"}, {"rating": 3.8, "user_ratings_total": 31, "name": "Gandhi Hospital parel east", "reference": "ChIJV03YZPrO5zsRuxUPkRiSsKY", "geometry": {"location": {"lat": 18.9970818, "lng": 72.843071}, "viewport": {"northeast": {"lat": 18.99823758029151, "lng": 72.8446453302915}, "southwest": {"lat": 18.9955396197085, "lng": 72.84194736970849}}}, "opening_hours": {"open_now": true}, "place_id": "ChIJV03YZPrO5zsRuxUPkRiSsKY", "plus_code": {"global_code": "7JCJXRWV+R6", "compound_code": "XRWV+R6 Mumbai, Maharashtra, India"}, "vicinity": "Doctor SS Rao Marg, Parel East, Parel, Mumbai", "photos": [{"photo_reference": "CmRaAAAAGff4nguveliS45zgpemshXQULpzqqzGMX1lzg7wJ36Klt4Vj4KQusd53RxFY4qmqC2Godc2VsPWdkfdoyRudPWcTI6izfQReEzLjACmffZ8PkTpWLa5VEhJUeAABIGEpEhAKkf9Q0kMgzZfShT1Ch0NQGhQk8QqydqiFJQeRqxPnwqSNLOQ12Q", "width": 4624, "html_attributions": ["<a href=\"https://maps.google.com/maps/contrib/107911729171848444890\">Sameer Shigvan</a>"], "height": 2604}], "scope": "GOOGLE", "business_status": "OPERATIONAL", "types": ["hospital", "health", "point_of_interest", "establishment"], "icon": "https://maps.gstatic.com/mapfiles/place_api/icons/v1/png_71/doctor-71.png"}, {"rating": 3.7, "user_ratings_total": 40, "name": "ESI Mahatma Gandhi Memorial Hospital", "reference": "ChIJE0KqXfrO5zsR4znr2a2UPxc", "geometry": {"location": {"lat": 18.99705879999999, "lng": 72.8430731}, "viewport": {"northeast": {"lat": 18.9982260802915, "lng": 72.84464638029151}, "southwest": {"lat": 18.9955281197085, "lng": 72.84194841970849}}}, "opening_hours": {"open_now": true}, "place_id": "ChIJE0KqXfrO5zsR4znr2a2UPxc", "plus_code": {"global_code": "7JCJXRWV+R6", "compound_code": "XRWV+R6 Mumbai, Maharashtra, India"}, "vicinity": "Dr. S.S. Rao Road, Parel, Mumbai", "photos": [{"photo_reference": "CmRaAAAAAzJyd8IO9SiyT5J14jXDQw5EabNvlzcgMQGYZk8sadHXMU5qW9ifNfVojkX0YOMLTQAp1YBFtOcJsk428XyO7K5u7QppvmochGdETaz2K8zl0GPZEJV9mkMkITb9lmg3EhCEjOE4Q5-hDHsddoP56xalGhSeBT_nMJbBbfuahCJAz7ZelAaTjQ", "width": 3840, "html_attributions": ["<a href=\"https://maps.google.com/maps/contrib/117974183036915538606\">vinod walkunde</a>"], "height": 2160}], "scope": "GOOGLE", "business_status": "OPERATIONAL", "types": ["hospital", "health", "point_of_interest", "establishment"], "icon": "https://maps.gstatic.com/mapfiles/place_api/icons/v1/png_71/doctor-71.png"}, {"rating": 3.8, "user_ratings_total": 320, "name": "Bai Jerbai Wadia Hospital for Children", "reference": "ChIJ08mkpeXO5zsR60kN3J4hviw", "geometry": {"location": {"lat": 19.0045072, "lng": 72.84177389999999}, "viewport": {"northeast": {"lat": 19.0057173302915, "lng": 72.8429386302915}, "southwest": {"lat": 19.0030193697085, "lng": 72.84024066970849}}}, "opening_hours": {"open_now": true}, "place_id": "ChIJ08mkpeXO5zsR60kN3J4hviw", "plus_code": {"global_code": "7JFJ2R3R+RP", "compound_code": "2R3R+RP Mumbai, Maharashtra, India"}, "vicinity": "Acharya Donde Marg, Parel East, Mumbai", "photos": [{"photo_reference": "CmRaAAAAflr4cmD5BItCHySp7r84sIf5jrxEGP4xmd_6HqeuACsbAz9wXQ5RkCEUh0r76VfnYorclQWa1mVirEsFqetryvW-3z9C38eM7gEQZKIILBS4QuYkU_YGQgb5NgN5g6sXEhAqEpnyw6DtY5Tem8UWXo6eGhRnj9rF5wkbTJnJ7QRyBt5iLbIoeg", "width": 1804, "html_attributions": ["<a href=\"https://maps.google.com/maps/contrib/100338711996832719673\">Bai Jerbai Wadia Hospital for Children</a>"], "height": 1014}], "scope": "GOOGLE", "business_status": "OPERATIONAL", "types": ["hospital", "health", "point_of_interest", "establishment"], "icon": "https://maps.gstatic.com/mapfiles/place_api/icons/v1/png_71/doctor-71.png"}, {"rating": 4.1, "user_ratings_total": 23, "name": "Service Block, Tata Memorial Hospital", "reference": "ChIJTWn5suXO5zsRSx5-rNufm3M", "geometry": {"location": {"lat": 19.0050195, "lng": 72.8425201}, "viewport": {"northeast": {"lat": 19.0065079802915, "lng": 72.8438678802915}, "southwest": {"lat": 19.0038100197085, "lng": 72.84116991970849}}}, "opening_hours": {"open_now": false}, "place_id": "ChIJTWn5suXO5zsRSx5-rNufm3M", "plus_code": {"global_code": "7JFJ2R4V+22", "compound_code": "2R4V+22 Mumbai, Maharashtra, India"}, "vicinity": "11, Jerbai Wadia Road, Dadar East, Parel, Mumbai", "photos": [{"photo_reference": "CmRaAAAAmQzTIn33RdrTjP3gxz2pZwA8gAV0JdSoboq6Ta2DD9bxDWJywRMERqgjGkvqWXiNV56hASLckbCZB5ISm_VnHor_QWm6HCiH5cDDRHmtPul_dKQ9hFwbWOTlNzcsg9GrEhBgxBrYp7y6UgG1GEx-f_QRGhRlbJ9Mlo99ukTyEHU4cXDFwIyVjA", "width": 4032, "html_attributions": ["<a href=\"https://maps.google.com/maps/contrib/113936443675920983176\">DIPAK KUMAR MANDAL</a>"], "height": 3024}], "scope": "GOOGLE", "business_status": "OPERATIONAL", "types": ["hospital", "health", "point_of_interest", "establishment"], "icon": "https://maps.gstatic.com/mapfiles/place_api/icons/v1/png_71/doctor-71.png"}, {"name": "Healthspring", "reference": "ChIJT0M6P_HO5zsR-5jfil4zS4M", "geometry": {"location": {"lat": 18.9960514, "lng": 72.83540839999999}, "viewport": {"northeast": {"lat": 18.9970346302915, "lng": 72.83673968029149}, "southwest": {"lat": 18.9943366697085, "lng": 72.83404171970848}}}, "place_id": "ChIJT0M6P_HO5zsR-5jfil4zS4M", "plus_code": {"global_code": "7JCJXRWP+C5", "compound_code": "XRWP+C5 Mumbai, Maharashtra, India"}, "vicinity": "Railway Chawl, Parel, Mumbai", "scope": "GOOGLE", "business_status": "OPERATIONAL", "types": ["hospital", "health", "point_of_interest", "establishment"], "icon": "https://maps.gstatic.com/mapfiles/place_api/icons/v1/png_71/doctor-71.png"}, {"rating": 3.8, "user_ratings_total": 16, "name": "Healthspring Parel", "reference": "ChIJT6ESje_O5zsRkhWw3t7ivIM", "geometry": {"location": {"lat": 18.9947271, "lng": 72.8364237}, "viewport": {"northeast": {"lat": 18.9960776802915, "lng": 72.83795673029151}, "southwest": {"lat": 18.9933797197085, "lng": 72.83525876970849}}}, "opening_hours": {"open_now": false}, "place_id": "ChIJT6ESje_O5zsRkhWw3t7ivIM", "plus_code": {"global_code": "7JCJXRVP+VH", "compound_code": "XRVP+VH Mumbai, Maharashtra, India"}, "vicinity": "Mehta Mansion, Shop No. 10 & 11, near Titan Eye Plus, Doctor Baba Saheb Ambedkar Road, Lal Baug, Parel, Mumbai", "photos": [{"photo_reference": "CmRaAAAAsw8yqM8asuvtAtjFgMkMiuZ7J-2lfVJldT4V178KW70qCAztyiaBgXIDfJcdhIOg2bXxZFjWqw-BNd94N1WB8bjRzUWwDLry2wXuVje-iyJXRIVPH9Q9Xi8Ajud-gVuVEhB6RAjkRUeI7HKoD5yCHWu4GhRQJZjAWdaRzZhi2nO2aKAEsZPXAg", "width": 3456, "html_attributions": ["<a href=\"https://maps.google.com/maps/contrib/107186939277576967073\">Warren Serrao</a>"], "height": 4608}], "scope": "GOOGLE", "business_status": "OPERATIONAL", "types": ["hospital", "health", "point_of_interest", "establishment"], "icon": "https://maps.gstatic.com/mapfiles/place_api/icons/v1/png_71/doctor-71.png"}, {"rating": 4.8, "user_ratings_total": 5, "name": "Dr. Shivdikar Hospital", "reference": "ChIJE2MTSe_O5zsRemS5tYS-FNQ", "geometry": {"location": {"lat": 19.006199, "lng": 72.8384422}, "viewport": {"northeast": {"lat": 19.0075178302915, "lng": 72.83977088029151}, "southwest": {"lat": 19.00481986970849, "lng": 72.8370729197085}}}, "opening_hours": {"open_now": false}, "place_id": "ChIJE2MTSe_O5zsRemS5tYS-FNQ", "plus_code": {"global_code": "7JFJ2R4Q+F9", "compound_code": "2R4Q+F9 Mumbai, Maharashtra, India"}, "vicinity": "28, Jagannath Bhatankar Marg, Parel East, Mumbai", "photos": [{"photo_reference": "CmRaAAAAnITmXCcpxZEvSUjalszzzvd_mcyB4tWlHk6YajM23MNXKzEd_6jLfIfVM9wKfAJU1qG1baQDug-4KBXXaRCraC6sJpN6EY0Y2uEJMGn3eEIsUn_kv2cA7ixZ6dbMe0fnEhBE6l--UeJ5dFhPBWYvKGFyGhRuXWP8efntdHJ6c7NrTbBDLBUe1w", "width": 4160, "html_attributions": ["<a href=\"https://maps.google.com/maps/contrib/114969498393855255080\">Niketan</a>"], "height": 3120}], "scope": "GOOGLE", "business_status": "OPERATIONAL", "types": ["hospital", "health", "point_of_interest", "establishment"], "icon": "https://maps.gstatic.com/mapfiles/place_api/icons/v1/png_71/generic_business-71.png"}, {"rating": 5, "user_ratings_total": 25, "name": "Just Health", "reference": "ChIJrTXQA_fO5zsRn89qD0Ii-WY", "geometry": {"location": {"lat": 18.9925337, "lng": 72.8369977}, "viewport": {"northeast": {"lat": 18.9939242802915, "lng": 72.83827878029152}, "southwest": {"lat": 18.9912263197085, "lng": 72.83558081970851}}}, "opening_hours": {"open_now": false}, "place_id": "ChIJrTXQA_fO5zsRn89qD0Ii-WY", "plus_code": {"global_code": "7JCJXRVP+2Q", "compound_code": "XRVP+2Q Mumbai, Maharashtra, India"}, "vicinity": "Hilla Towers, Doctor SS Rao Marg, Bharat Rice Mills Compound, Lal Baug, Parel, Mumbai", "photos": [{"photo_reference": "CmRaAAAANbPHoENryR1b5gDf4e_cSM9BsUhO_6VN_UIAxBrTit3oiCzSueYWcm_anfVrOMeDG_CAAacO2G89nP77N5dQCxfo6eJ9KInvVgyANUgQgWdsTdSP2f0trzHvbOvkZzScEhC5lXfnWXPar7ZuOgGjU9QqGhQzhb4OIO2VIpghAqJN-eCC1oOH2g", "width": 7360, "html_attributions": ["<a href=\"https://maps.google.com/maps/contrib/115722648010789788080\">Just Health</a>"], "height": 4912}], "scope": "GOOGLE", "business_status": "OPERATIONAL", "types": ["hospital", "doctor", "health", "point_of_interest", "establishment"], "icon": "https://maps.gstatic.com/mapfiles/place_api/icons/v1/png_71/generic_business-71.png"}]}