{"status": "OK", "next_page_token": "CsQDugEAABjYfggVpvAyP2-2InDV04HZ5R4LXAcLgpehx0jxVp7fQTqsxXhLKmjk_x9-jTm7tJ-4Mhs4UnpAsimt4cXqJkuJzDxh9Xd084H5t0k3J-qEPhAgzE5o5tdBb51Q1FLmvAoXhSNfZmEgHs4-_luYs47f_dsC1cFHmVj1oY6RgnNdv3COucMUk7yCWjTp8Zz8rxNogLtPkWh3o7aIiGi7BzkQvKEYB9SbFRXUPXU_5ALTnAmvhRcbZDSpFRTMKf8nbWOWQX9dT8eMqN8tZZajRPLyKx8U2VcS_b9cFo-5iSFHJ0X7gQxdnRTk_YjNHZWmT4tPsD_ElGR217qkKM62lEBoXpi2MVha9rgGIOkHSU_3OTjqgd4LYNTFzwAu1gjswkghywfy4LiVQfpBqhWwsLoMyPJBWblzvqTo70KEh6i15O6YrdauyomnoDv-o57v9ZjlqrTWPKUEMVpEKqOn4mTvT0g2_V_sZVmm36vzbL2IaAPOWyk6JflPXtkhz58kFQZfqx96baeIAP8fsOrt-SMNxVeVUD3Zi_UjUwDmUpMVLGH9TS7mZNWpaB1pZ_fzuGZZCXTCbpGkckgoeP0kAs4SED-z2e6R4xKbGi4N9NQ8qKUaFAPJwX6x87xDFHES6nnizeTZ5eMr", "html_attributions": [], "results": [{"rating": 3, "user_ratings_total": 1, "name": "Vedicure Wellness And Hospital", "reference": "ChIJ0zd7oSax5zsRXpyncBV_KSY", "geometry": {"location": {"lat": 19.2360506, "lng": 72.8459713}, "viewport": {"northeast": {"lat": 19.2374349802915, "lng": 72.8473431802915}, "southwest": {"lat": 19.2347370197085, "lng": 72.84464521970848}}}, "opening_hours": {"open_now": false}, "place_id": "ChIJ0zd7oSax5zsRXpyncBV_KSY", "plus_code": {"global_code": "7JFJ6RPW+C9", "compound_code": "6RPW+C9 Mumbai, Maharashtra, India"}, "vicinity": "4, Eksar Road, Eksar Village, Eksar, Borivali West, Mumbai", "photos": [{"photo_reference": "CmRaAAAAywlrxIiNALOKB3FXFEI-5PGuBhjGpUjctXpmjtL8qc289BoBWZOGAwGxPBqljFYKt0Uj6nSkXqwJyUUf5D_JsuSh4n_pilWgm4j_2yEG65U_zA0JXc7gdquTqma_v1FMEhCka-U8UAhuPCgMvjHuCcyLGhQSNzPamWwBC3U5xQX-yHv0iKCBBg", "width": 1080, "html_attributions": ["<a href=\"https://maps.google.com/maps/contrib/105998279718663027758\">Sudarshana Gede</a>"], "height": 1920}], "scope": "GOOGLE", "business_status": "OPERATIONAL", "types": ["hospital", "health", "point_of_interest", "establishment"], "icon": "https://maps.gstatic.com/mapfiles/place_api/icons/v1/png_71/doctor-71.png"}, {"rating": 4.6, "user_ratings_total": 8, "name": "Dr. Apte Clinic", "reference": "ChIJVyli2zqx5zsRCvoLcT1sfjA", "geometry": {"location": {"lat": 19.2330571, "lng": 72.8387295}, "viewport": {"northeast": {"lat": 19.2343683302915, "lng": 72.84001718029151}, "southwest": {"lat": 19.2316703697085, "lng": 72.8373192197085}}}, "opening_hours": {"open_now": false}, "place_id": "ChIJVyli2zqx5zsRCvoLcT1sfjA", "plus_code": {"global_code": "7JFJ6RMQ+6F", "compound_code": "6RMQ+6F Mumbai, Maharashtra, India"}, "vicinity": "18, MHB Colony, Mhada Colony, Borivali West, Mumbai", "photos": [{"photo_reference": "CmRaAAAAN5MclBt38OwzY41vXn4iTILg7l9UvWxOxpv6mOUWy1iJT5mdqxUPf0e6j7-rfyyFn6FWKeWWoLbNiOqHVscLFAZ_Dqud_6_xBWiSq7HAXA2KkzyDqL9oKVwppsx5FFGjEhCeJO1lda66uKaCm42P7IwRGhS3KXcwoz-k2yybS3S1HLKrMoTz3w", "width": 1920, "html_attributions": ["<a href=\"https://maps.google.com/maps/contrib/102809659182266430967\">Harsh Thanvi</a>"], "height": 1080}], "scope": "GOOGLE", "business_status": "OPERATIONAL", "types": ["hospital", "health", "point_of_interest", "establishment"], "icon": "https://maps.gstatic.com/mapfiles/place_api/icons/v1/png_71/doctor-71.png"}, {"name": "Akshat fracture & pain clinic sheela jain multispeciality hospital", "reference": "ChIJ_____zqx5zsRF6G_1bi482U", "geometry": {"location": {"lat": 19.2335071, "lng": 72.83677759999999}, "viewport": {"northeast": {"lat": 19.2348492302915, "lng": 72.8383925302915}, "southwest": {"lat": 19.2321512697085, "lng": 72.8356945697085}}}, "opening_hours": {"open_now": false}, "place_id": "ChIJ_____zqx5zsRF6G_1bi482U", "vicinity": "Opposite medical no.3 u.p., College Road, Jhansi", "scope": "GOOGLE", "business_status": "OPERATIONAL", "types": ["hospital", "health", "point_of_interest", "establishment"], "icon": "https://maps.gstatic.com/mapfiles/place_api/icons/v1/png_71/doctor-71.png"}, {"name": "Sunny Medical", "reference": "ChIJ_____zqx5zsRMOWeqZwdrps", "geometry": {"location": {"lat": 19.2335071, "lng": 72.83677759999999}, "viewport": {"northeast": {"lat": 19.2348492302915, "lng": 72.8383925302915}, "southwest": {"lat": 19.2321512697085, "lng": 72.8356945697085}}}, "place_id": "ChIJ_____zqx5zsRMOWeqZwdrps", "vicinity": "Door No. D/ 2, Akshay Society, Gorai No. 1, Borivali West, Mumbai - 400091", "scope": "GOOGLE", "business_status": "OPERATIONAL", "types": ["hospital", "health", "point_of_interest", "establishment"], "icon": "https://maps.gstatic.com/mapfiles/place_api/icons/v1/png_71/doctor-71.png"}, {"name": "Choice Medical", "reference": "ChIJK0ksnSax5zsRJy71pqXvZho", "geometry": {"location": {"lat": 19.235107, "lng": 72.845792}, "viewport": {"northeast": {"lat": 19.2364503802915, "lng": 72.8472414802915}, "southwest": {"lat": 19.2337524197085, "lng": 72.84454351970848}}}, "opening_hours": {"open_now": true}, "place_id": "ChIJK0ksnSax5zsRJy71pqXvZho", "plus_code": {"global_code": "7JFJ6RPW+28", "compound_code": "6RPW+28 Mumbai, Maharashtra, India"}, "vicinity": "Shop No.8, Raj Ratna Housing Society, Bldg, Eksar Road, Yogi Nagar, Borivali West, Mumbai", "photos": [{"photo_reference": "CmRaAAAABDRhno0JTZD3ArCvOVvr25M-w6CwO9UVPWSCZ3K6WOUdwblhG0iOQLrHzxAp_ndjv77XY2OIdK_MSs2FUWdm8jIq3Ir-UHbu52GkGP0OBOYi8-q15vfNCrEUGxEj3NdPEhBuP5eIf24PuBCjizhOUMDuGhTLE8H2RRyt5SoSMSCDy2AWhdjTmQ", "width": 535, "html_attributions": ["<a href=\"https://maps.google.com/maps/contrib/103771459180038631767\">Choice Medical</a>"], "height": 300}], "scope": "GOOGLE", "business_status": "OPERATIONAL", "types": ["hospital", "health", "point_of_interest", "establishment"], "icon": "https://maps.gstatic.com/mapfiles/place_api/icons/v1/png_71/doctor-71.png"}, {"rating": 5, "user_ratings_total": 1, "name": "Shree Ganesha Hospital : BestTrauma | Emergency| Multispeciality| 24 Hrs ICU Hospital in Borivali", "reference": "ChIJ1fBnoNKx5zsRAgTrsenxaKI", "geometry": {"location": {"lat": 19.2359618, "lng": 72.8465283}, "viewport": {"northeast": {"lat": 19.2372290802915, "lng": 72.8478948302915}, "southwest": {"lat": 19.2345311197085, "lng": 72.84519686970849}}}, "place_id": "ChIJ1fBnoNKx5zsRAgTrsenxaKI", "plus_code": {"global_code": "7JFJ6RPW+9J", "compound_code": "6RPW+9J Mumbai, Maharashtra, India"}, "vicinity": "near Damodar Medical, Bina Apart, near Damodar Medical, Lokmanya Tilak Road, Vazira, Borivali West, Mumbai", "scope": "GOOGLE", "business_status": "OPERATIONAL", "types": ["hospital", "health", "point_of_interest", "establishment"], "icon": "https://maps.gstatic.com/mapfiles/place_api/icons/v1/png_71/doctor-71.png"}, {"rating": 5, "user_ratings_total": 1, "name": "Dr Vidya Salunkhe Dental Clinic", "reference": "ChIJn35Sliax5zsRkO4ZYi8rewY", "geometry": {"location": {"lat": 19.2357493, "lng": 72.8465756}, "viewport": {"northeast": {"lat": 19.2370972802915, "lng": 72.8479052802915}, "southwest": {"lat": 19.2343993197085, "lng": 72.84520731970849}}}, "place_id": "ChIJn35Sliax5zsRkO4ZYi8rewY", "plus_code": {"global_code": "7JFJ6RPW+7J", "compound_code": "6RPW+7J Mumbai, Maharashtra, India"}, "vicinity": "Eksar, Borivali West, Mumbai", "photos": [{"photo_reference": "CmRaAAAA5-kYl8mCsfFCUArhPe0o3eHVTV4pI7tNmjRNEPncVv9s3dzOCRAA9qee5Mfm3Sm5hzzfGPNfFl24LHHcXep6zhBlQ39BWl_eCsg3tKO6q4tTNRY8toN3yTRsan32L4WjEhBeBAbkwuDCWsipsUBYPM5uGhQvP7XUuhm_0euxmsDJxWQli7hl9A", "width": 1200, "html_attributions": ["<a href=\"https://maps.google.com/maps/contrib/108052144128814421795\">Dr Pruthvi Gade</a>"], "height": 1600}], "scope": "GOOGLE", "business_status": "OPERATIONAL", "types": ["hospital", "health", "point_of_interest", "establishment"], "icon": "https://maps.gstatic.com/mapfiles/place_api/icons/v1/png_71/doctor-71.png"}, {"rating": 3.9, "user_ratings_total": 14, "name": "Sushrut Hospital - Maternity & Gynaec", "reference": "ChIJs4rjkSax5zsRHhD6vsDkR20", "geometry": {"location": {"lat": 19.2352543, "lng": 72.8466361}, "viewport": {"northeast": {"lat": 19.2365955302915, "lng": 72.8479186802915}, "southwest": {"lat": 19.23389756970849, "lng": 72.84522071970848}}}, "opening_hours": {"open_now": true}, "place_id": "ChIJs4rjkSax5zsRHhD6vsDkR20", "plus_code": {"global_code": "7JFJ6RPW+4M", "compound_code": "6RPW+4M Mumbai, Maharashtra, India"}, "vicinity": "Eksar Road, Borivali West, Mumbai", "photos": [{"photo_reference": "CmRaAAAA--_ejGQpi-FGKwBQ0VXtX-L7xYktPNrLmJH6hhqjSZidaU8qGkjkBV1EVDoKIbJygaXbEk0SZRYo1oCfyhtFI1WIhuULn3q5bnyJ2UdL-YoXiIxnIQMqTbw6n9xX4POGEhAICSmefI2b6qdgbNF2gCcqGhRNanJZChMSzxnTycrb2CONsKCXqA", "width": 3264, "html_attributions": ["<a href=\"https://maps.google.com/maps/contrib/103512393498298909773\">Vikas C</a>"], "height": 2448}], "scope": "GOOGLE", "business_status": "OPERATIONAL", "types": ["hospital", "health", "point_of_interest", "establishment"], "icon": "https://maps.gstatic.com/mapfiles/place_api/icons/v1/png_71/doctor-71.png"}, {"name": "Surgical and health care services", "reference": "ChIJVaXw046x5zsRLcwTZFsrhQs", "geometry": {"location": {"lat": 19.2342853, "lng": 72.8461007}, "viewport": {"northeast": {"lat": 19.2356340802915, "lng": 72.84741633029151}, "southwest": {"lat": 19.23293611970849, "lng": 72.84471836970849}}}, "place_id": "ChIJVaXw046x5zsRLcwTZFsrhQs", "plus_code": {"global_code": "7JFJ6RMW+PC", "compound_code": "6RMW+PC Mumbai, Maharashtra, India"}, "vicinity": "Eksar Road, Borivali West, Mumbai", "scope": "GOOGLE", "business_status": "OPERATIONAL", "types": ["hospital", "health", "point_of_interest", "establishment"], "icon": "https://maps.gstatic.com/mapfiles/place_api/icons/v1/png_71/doctor-71.png"}, {"name": "BMC Hospital", "reference": "ChIJyxqddSex5zsR3tlg6kD8ins", "geometry": {"location": {"lat": 19.2315159, "lng": 72.83937089999999}, "viewport": {"northeast": {"lat": 19.2328410802915, "lng": 72.84083618029149}, "southwest": {"lat": 19.23014311970849, "lng": 72.83813821970848}}}, "place_id": "ChIJyxqddSex5zsR3tlg6kD8ins", "plus_code": {"global_code": "7JFJ6RJQ+JP", "compound_code": "6RJQ+JP Mumbai, Maharashtra, India"}, "vicinity": "239/1, MHB Colony, Mhada Colony, Borivali West, Mumbai", "photos": [{"photo_reference": "CmRaAAAARWDuXpzmISaRKCXWwK3Ztufwbdaqi6Jj2SSHfG5kz8KSKMYlkyXJfVZ0SqKQBe2CFOxFKV2yowvE5w9oVDKG7CAyvVzcUxyWLbYH--NGbxkKtYEalMNIonHcnOylYbFlEhCeNR3T6jKC_VOFcXzksyPSGhS018U3zvSj2nbGrRdnIZ70MITcag", "width": 1920, "html_attributions": ["<a href=\"https://maps.google.com/maps/contrib/103638594961526898959\">Deepak Chaurasiya</a>"], "height": 1080}], "scope": "GOOGLE", "business_status": "OPERATIONAL", "types": ["hospital", "health", "point_of_interest", "establishment"], "icon": "https://maps.gstatic.com/mapfiles/place_api/icons/v1/png_71/doctor-71.png"}, {"rating": 3.3, "user_ratings_total": 9, "name": "Ganatra's Riddhi Nursing Home", "reference": "ChIJj-6NXDax5zsRZEu7YYCXLMg", "geometry": {"location": {"lat": 19.231311, "lng": 72.84010099999999}, "viewport": {"northeast": {"lat": 19.23261563029151, "lng": 72.84152503029149}, "southwest": {"lat": 19.2299176697085, "lng": 72.83882706970849}}}, "place_id": "ChIJj-6NXDax5zsRZEu7YYCXLMg", "plus_code": {"global_code": "7JFJ6RJR+G2", "compound_code": "6RJR+G2 Mumbai, Maharashtra, India"}, "vicinity": "next to Ganesh Mandir & Near Bank Baroda, RSC 244 / 257, Gorai - 1A Gorai Gorai, Shimpoli Road, next to Ganesh Mandir & Near Bank Baroda, Gorai Nagar, Borivali West, Mumbai", "photos": [{"photo_reference": "CmRaAAAA7mbQ8GVdSbnrWeupV24JQ9POZSCNJIpIr99wPkRrqbRQWB7SDmxfOd3sKQX1HfXqrzaW_jq0I80hf4E2edL1iYzYgA-_6ggjxpE8FTOjYcLNOYepw5ddxAr60SmHgVpqEhB7jdEzbC9GwXJ4qqwh-Ms2GhRARkYwRS8DKhv0VZgfnjCXlCgnFg", "width": 5472, "html_attributions": ["<a href=\"https://maps.google.com/maps/contrib/105874894088074146728\">Support directindia</a>"], "height": 3648}], "scope": "GOOGLE", "business_status": "OPERATIONAL", "types": ["hospital", "health", "point_of_interest", "establishment"], "icon": "https://maps.gstatic.com/mapfiles/place_api/icons/v1/png_71/doctor-71.png"}, {"name": "B.M.C. Aarogya Kendra, Babhai Naka Aarogya Kendra, M.H.B. Mahanagar Palika Davakhana", "reference": "ChIJ2dllZTmx5zsRc56vjECCpz4", "geometry": {"location": {"lat": 19.2312738, "lng": 72.8383608}, "viewport": {"northeast": {"lat": 19.2326782302915, "lng": 72.8397271802915}, "southwest": {"lat": 19.22998026970849, "lng": 72.8370292197085}}}, "opening_hours": {"open_now": false}, "place_id": "ChIJ2dllZTmx5zsRc56vjECCpz4", "plus_code": {"global_code": "7JFJ6RJQ+G8", "compound_code": "6RJQ+G8 Mumbai, Maharashtra, India"}, "vicinity": "Gorai Nagar, Mhada, MHB Colony, Borivali West, Mumbai", "photos": [{"photo_reference": "CmRaAAAA_go2QfzRU6tx5Lt8q5V4EGsbx1hlswYXUzOqcd-lbcClIl7OiHzOAZpTGwHpxN0bjZT7hpoYUEZrvePyQ7sqMIj0ZHKO5fiQ2Ia1-jMJ2twt2iVGjyoFJZmAnda-6E59EhAzFzkuDH-T4jYuFF0-YxnvGhQGGP9MeYMvbS-NzrmETEQWZbtqTg", "width": 4000, "html_attributions": ["<a href=\"https://maps.google.com/maps/contrib/112517702187365513507\">Shashank Gole</a>"], "height": 3000}], "scope": "GOOGLE", "business_status": "OPERATIONAL", "types": ["hospital", "health", "point_of_interest", "establishment"], "icon": "https://maps.gstatic.com/mapfiles/place_api/icons/v1/png_71/doctor-71.png"}, {"rating": 4.8, "user_ratings_total": 6, "name": "Takecare Medico", "reference": "ChIJ2VFPShmx5zsRu4zRVeL0jWE", "geometry": {"location": {"lat": 19.247408, "lng": 72.845388}, "viewport": {"northeast": {"lat": 19.2487558802915, "lng": 72.8467703302915}, "southwest": {"lat": 19.2460579197085, "lng": 72.8440723697085}}}, "opening_hours": {"open_now": true}, "place_id": "ChIJ2VFPShmx5zsRu4zRVeL0jWE", "plus_code": {"global_code": "7JFJ6RWW+X5", "compound_code": "6RWW+X5 Mumbai, Maharashtra, India"}, "vicinity": "Shop No.5, Suja Suni, Co.Op.Hsg.Ltd., DP Link Road, Borivali, West., Mumbai", "photos": [{"photo_reference": "CmRaAAAAIKjzOkzxY7fbcXP8IJWvi4kHIFMt6KRswFwf_MVDo7VskP1t3-buUbNsnnz1SWt7pqGZtBn8uzkdILIOqtqkUf6hZzy41tHzV3XCOu4iXY5AHl2rYaQLHtMQd0JMGoAKEhDhp__QHqRfuPJXZEitn30kGhSwNb4SZPDBqg5eXywAErExFDoU6Q", "width": 1280, "html_attributions": ["<a href=\"https://maps.google.com/maps/contrib/112937485827917545424\">Takecare Medico</a>"], "height": 960}], "scope": "GOOGLE", "business_status": "OPERATIONAL", "types": ["hospital", "health", "point_of_interest", "establishment"], "icon": "https://maps.gstatic.com/mapfiles/place_api/icons/v1/png_71/doctor-71.png"}, {"name": "Borge Nagar Municipality Hospital", "reference": "ChIJNQT5akax5zsR_h95Fnb6Txg", "geometry": {"location": {"lat": 19.2342008, "lng": 72.84758699999999}, "viewport": {"northeast": {"lat": 19.2354750302915, "lng": 72.8489374302915}, "southwest": {"lat": 19.2327770697085, "lng": 72.8462394697085}}}, "place_id": "ChIJNQT5akax5zsR_h95Fnb6Txg", "plus_code": {"global_code": "7JFJ6RMX+M2", "compound_code": "6RMX+M2 Mumbai, Maharashtra, India"}, "vicinity": "2, Gandhi Nagar, Govind Nagar, Borivali West, Mumbai", "photos": [{"photo_reference": "CmRaAAAAhuFLMqUxgTlI8K1fNK-Yd65yWnhkCLb-zSLXDFpzBLdp_ImsO3cyr4xGpt3pEwY9bGffscBn7KljSQz_gYGDjL_pXT2MNnOPt0iNzzotEaZUi1_NHcGwv2AuGT7fyn7oEhBkaQc3-We6Q2xGufzl4Qp1GhT4_kDNchJa0AHBAAVq4jEP2krApQ", "width": 1920, "html_attributions": ["<a href=\"https://maps.google.com/maps/contrib/111621705952243862178\">Harsh Gandhi</a>"], "height": 1080}], "scope": "GOOGLE", "business_status": "OPERATIONAL", "types": ["hospital", "health", "point_of_interest", "establishment"], "icon": "https://maps.gstatic.com/mapfiles/place_api/icons/v1/png_71/doctor-71.png"}, {"rating": 5, "user_ratings_total": 1, "name": "Dr. Jigna Batavia", "reference": "ChIJ09_wpi6x5zsRaSzVWyLY6H4", "geometry": {"location": {"lat": 19.2453274, "lng": 72.8482185}, "viewport": {"northeast": {"lat": 19.24679763029151, "lng": 72.84955653029151}, "southwest": {"lat": 19.2440996697085, "lng": 72.8468585697085}}}, "place_id": "ChIJ09_wpi6x5zsRaSzVWyLY6H4", "plus_code": {"global_code": "7JFJ6RWX+47", "compound_code": "6RWX+47 Mumbai, Maharashtra, India"}, "vicinity": "Maryland Complex, Borivali West, Mumbai", "scope": "GOOGLE", "business_status": "OPERATIONAL", "types": ["hospital", "health", "point_of_interest", "establishment"], "icon": "https://maps.gstatic.com/mapfiles/place_api/icons/v1/png_71/doctor-71.png"}, {"rating": 3.7, "user_ratings_total": 130, "name": "Insurance Agent", "reference": "ChIJdSQGeU-25zsRoL7FmdoVHyQ", "geometry": {"location": {"lat": 19.229578, "lng": 72.84285299999999}, "viewport": {"northeast": {"lat": 19.2309053802915, "lng": 72.8441963802915}, "southwest": {"lat": 19.2282074197085, "lng": 72.8414984197085}}}, "opening_hours": {"open_now": true}, "place_id": "ChIJdSQGeU-25zsRoL7FmdoVHyQ", "plus_code": {"global_code": "7JFJ6RHV+R4", "compound_code": "6RHV+R4 Mumbai, Maharashtra, India"}, "vicinity": "101,Zeenal Apartments ,Lt Road no 5, Next Siddharth Rugnalaya Road, Mahatma Gandhi Road, Goregaon West, Mumbai", "photos": [{"photo_reference": "CmRaAAAA1SQZOYr8LWiqbuBnaR6XcbUaWxY7U-9bZB5NOYU5g9aT1hpdIxHGQJY4WK9AFh5n7PYG3t0m0vONb8RxMipOH_bD_S2m2tPrWv9xr159zDrrpqVpl9pIQ8I-Rm2Pf69-EhDU7vQ5SL9lKQyMRxN3WHWtGhSFl1fwvSX8BKH6MLj1MsFNk8ZBOw", "width": 1200, "html_attributions": ["<a href=\"https://maps.google.com/maps/contrib/101820737195888068046\">Insurance Agent</a>"], "height": 673}], "scope": "GOOGLE", "business_status": "OPERATIONAL", "types": ["insurance_agency", "hospital", "health", "point_of_interest", "establishment"], "icon": "https://maps.gstatic.com/mapfiles/place_api/icons/v1/png_71/generic_business-71.png"}, {"name": "satrnig hospital", "reference": "ChIJQStaN9Ox5zsRn333I9jFTww", "geometry": {"location": {"lat": 19.2354314, "lng": 72.8493324}, "viewport": {"northeast": {"lat": 19.2366711802915, "lng": 72.85031158029149}, "southwest": {"lat": 19.2339732197085, "lng": 72.84761361970848}}}, "place_id": "ChIJQStaN9Ox5zsRn333I9jFTww", "plus_code": {"global_code": "7JFJ6RPX+5P", "compound_code": "6RPX+5P Mumbai, Maharashtra, India"}, "vicinity": "Eksar Dongri, Govind Nagar, Borivali West, Mumbai", "scope": "GOOGLE", "business_status": "OPERATIONAL", "types": ["hospital", "health", "point_of_interest", "establishment"], "icon": "https://maps.gstatic.com/mapfiles/place_api/icons/v1/png_71/doctor-71.png"}, {"rating": 4.9, "user_ratings_total": 137, "name": "AMEYA MATERNITY AND SURGICAL NURSING HOME", "reference": "ChIJodwnGCax5zsR7OSaoho3aC8", "geometry": {"location": {"lat": 19.2321846, "lng": 72.8470938}, "viewport": {"northeast": {"lat": 19.23359028029151, "lng": 72.8482831802915}, "southwest": {"lat": 19.2308923197085, "lng": 72.84558521970848}}}, "opening_hours": {"open_now": true}, "place_id": "ChIJodwnGCax5zsR7OSaoho3aC8", "plus_code": {"global_code": "7JFJ6RJW+VR", "compound_code": "6RJW+VR Mumbai, Maharashtra, India"}, "vicinity": "near SHAHABUDDIN DARGA, 102-103, A WING, TULIP SOCIETY, ROYAL COMPLEX, opposite C.K.P. COLONY, near SHAHABUDDIN DARGA, Eksar Road, Borivali West, Mumbai", "photos": [{"photo_reference": "CmRaAAAAeo4C6L-F9U1K3Vior-TdsteCMJTTPCP6Ob20cD6UYFGmu6eSEGjWWt7T_1in-E-0TyTure1kIPRYxos04YTZpZ9j2njeSKIfqYzJkJa4G8izdWHRVNQuO4-PxX3XE0jOEhCCtMBfPvrCdJCk4B2HZZSgGhR1o6tOuTCAag0MSABe56lOsXZM9g", "width": 4608, "html_attributions": ["<a href=\"https://maps.google.com/maps/contrib/106269742843770089113\">Surenddra Patil</a>"], "height": 3456}], "scope": "GOOGLE", "business_status": "OPERATIONAL", "types": ["hospital", "doctor", "health", "point_of_interest", "establishment"], "icon": "https://maps.gstatic.com/mapfiles/place_api/icons/v1/png_71/doctor-71.png"}, {"name": "Rajputana Medical & General Stores", "reference": "ChIJd6uQGCax5zsRadC6doRdSl0", "geometry": {"location": {"lat": 19.2320979, "lng": 72.8470687}, "viewport": {"northeast": {"lat": 19.2334275802915, "lng": 72.8482930802915}, "southwest": {"lat": 19.2307296197085, "lng": 72.84559511970848}}}, "place_id": "ChIJd6uQGCax5zsRadC6doRdSl0", "plus_code": {"global_code": "7JFJ6RJW+RR", "compound_code": "6RJW+RR Mumbai, Maharashtra, India"}, "vicinity": "Shop No 1, Tulip Apartment, Opposite C P K, Colony, Royal Complex, Eksar Road, Borivali West, Borivali West, Mumbai", "scope": "GOOGLE", "business_status": "OPERATIONAL", "types": ["hospital", "health", "point_of_interest", "establishment"], "icon": "https://maps.gstatic.com/mapfiles/place_api/icons/v1/png_71/doctor-71.png"}, {"rating": 5, "user_ratings_total": 1, "name": "Get Well Chemist", "reference": "ChIJyY1Hjh6x5zsR3AoNMSJwrVc", "geometry": {"location": {"lat": 19.248004, "lng": 72.84795}, "viewport": {"northeast": {"lat": 19.2493638802915, "lng": 72.84940623029149}, "southwest": {"lat": 19.2466659197085, "lng": 72.84670826970849}}}, "opening_hours": {"open_now": false}, "place_id": "ChIJyY1Hjh6x5zsR3AoNMSJwrVc", "plus_code": {"global_code": "7JFJ6RXX+65", "compound_code": "6RXX+65 Mumbai, Maharashtra, India"}, "vicinity": "Shop No.7 Sumeet Co.Op , Housing , I.C.Colony ,Borivali West, Mumbai", "photos": [{"photo_reference": "CmRaAAAAa7ijDj1nTMPWhOMyfYroLAA37pMthAn2MfbjthhxAgvlaPSZDKZgNLfi_-cOiNNoqIDzudxtGUVmVfSAQb4L5vObmw8atQb2V28yA15g0NP-6JvzcgkvT0uoiVMU9n_JEhAjiwQ2MTmL2e9DKqtT6vAXGhQulNgnHRBz3eJMtpV2rwpH6jsaAg", "width": 1052, "html_attributions": ["<a href=\"https://maps.google.com/maps/contrib/112884110694054004951\">Get Well Chemist</a>"], "height": 592}], "scope": "GOOGLE", "business_status": "OPERATIONAL", "types": ["hospital", "health", "point_of_interest", "establishment"], "icon": "https://maps.gstatic.com/mapfiles/place_api/icons/v1/png_71/doctor-71.png"}]}