{"status": "OK", "next_page_token": "CqQCGgEAANPtbRnU0glu2ayKprFbRWTgoYkRfWSxg3Qlao64kg6TKWRcX-eD3OnC6W9GeHJZ6ugSJHQif8k_wkSFI8XAEcGS4nr0iwRY_c9jYz8iYXS7YISWZJ0zaZquAXoLJWF10G69IEpB1LFo5GTkGGQkCpJLRgaGSl09UrOA5HYSlNwWbxbk9OunmsKdaxR5vruBlcsCO93XV6opxOq0YhvJjHCw7hpQNtdNsoqef0yJC-IFEzF8FGfWCHyhRqUTokbE0d28DImw_foqV46f8iKODdisBVkZbV8Z-sC_6m0MnmgjG9uVFbOjMNLZxEibwUvlmWMsKuXfdYI81cxMF02FlinUe42tFRBA_3kMBCPXMgcXGO27-hdNZwQ88JdnjcQpRxIQJS11CYQ1_cwlc4oWMHKRehoUmJfJDPSodMsVHUr27WVafB3HUU8", "html_attributions": [], "results": [{"rating": 4.4, "user_ratings_total": 40, "name": "Madhavbaug Sane Care Ayurvedic Clinic | Heart Blockages | Diabetes | Weight Loss", "reference": "ChIJjaOgSKa35zsRzATI9zfCMIE", "geometry": {"location": {"lat": 19.172268, "lng": 72.865136}, "viewport": {"northeast": {"lat": 19.1735393302915, "lng": 72.8664410802915}, "southwest": {"lat": 19.17084136970849, "lng": 72.86374311970849}}}, "opening_hours": {"open_now": true}, "place_id": "ChIJjaOgSKa35zsRzATI9zfCMIE", "plus_code": {"global_code": "7JFJ5VC8+W3", "compound_code": "5VC8+W3 Mumbai, Maharashtra, India"}, "vicinity": "High School, Gayatri Nursing Home, Florencia Society Amritvan Complex, Ciba Geigy Rd, Nr Yashodham, Dindoshi, Goregaon, Mumbai", "photos": [{"photo_reference": "CmRaAAAAyA2TS86fvZcBHDR3nvuALyy8ZAgMf4pZJjCxMhToWstA0Fyh3V1rOVjX0vYswyErlGyTiSK2jZ2hDefCKGV9WI8Zw8q_x2zEaQT8OOPNFyASGmGsr-oJbNbUBnKfYWADEhCPuAQQ4qW1kj0f6bH0jeJaGhSInRwojoVpe1vUWLfaIUVrTZDF3w", "width": 498, "html_attributions": ["<a href=\"https://maps.google.com/maps/contrib/116587183576690261605\">Madhavbaug Sane Care Ayurvedic Clinic | Heart Blockages | Diabetes | Weight Loss</a>"], "height": 500}], "scope": "GOOGLE", "business_status": "OPERATIONAL", "types": ["hospital", "health", "point_of_interest", "establishment"], "icon": "https://maps.gstatic.com/mapfiles/place_api/icons/v1/png_71/doctor-71.png"}, {"rating": 4.5, "user_ratings_total": 281, "name": "Sai Kripa Hospital & ICU", "reference": "ChIJa5nS-AO35zsRIIck9E6rP5M", "geometry": {"location": {"lat": 19.1811023, "lng": 72.85763}, "viewport": {"northeast": {"lat": 19.1825166802915, "lng": 72.85905458029151}, "southwest": {"lat": 19.1798187197085, "lng": 72.8563566197085}}}, "opening_hours": {"open_now": true}, "place_id": "ChIJa5nS-AO35zsRIIck9E6rP5M", "plus_code": {"global_code": "7JFJ5VJ5+C3", "compound_code": "5VJ5+C3 Mumbai, Maharashtra, India"}, "vicinity": "Ashish CHS, near Saibaba Temple, Rani Sati Marg, Malad East, Mumbai", "photos": [{"photo_reference": "CmRaAAAArVXUw-MzkAjSyuF4M8IkytDMyl850KbdvwWmYJNVKrPHx0MTTLdqMDAa1J5c8Hj6Bxr0xhS6LLnuJXBaRnObv2KTxCyw9IK7JOdUNEd0ltxk4TRRTp-9-LiX13gB66YPEhBsIwJCWFaZCO5QOZsufor9GhQgEZXswSDl4fYtjX0XIaeIpyeBlA", "width": 2560, "html_attributions": ["<a href=\"https://maps.google.com/maps/contrib/104105886009073102739\">Sai Kripa Hospital &amp; ICU</a>"], "height": 1920}], "scope": "GOOGLE", "business_status": "OPERATIONAL", "types": ["hospital", "health", "point_of_interest", "establishment"], "icon": "https://maps.gstatic.com/mapfiles/place_api/icons/v1/png_71/doctor-71.png"}, {"rating": 4, "user_ratings_total": 3, "name": "Suresh Eye Clinic", "reference": "ChIJ65nuE6i35zsRLqAP6jRfSYA", "geometry": {"location": {"lat": 19.1746067, "lng": 72.8622712}, "viewport": {"northeast": {"lat": 19.1760443802915, "lng": 72.86360143029151}, "southwest": {"lat": 19.1733464197085, "lng": 72.86090346970849}}}, "place_id": "ChIJ65nuE6i35zsRLqAP6jRfSYA", "plus_code": {"global_code": "7JFJ5VF6+RW", "compound_code": "5VF6+RW Mumbai, Maharashtra, India"}, "vicinity": "A-3, Padmavati Nagar, Film City Road, Goregaon East, Mumbai - 400063", "photos": [{"photo_reference": "CmRaAAAAXaugrooiLI06-9mDLzfKvuPMFWJSshSu8r_Iusa7Xk3Pv3vUmi9tXUdsvQKq2pj9Pa7Ozof51CKmcDAc3LH7fpMKF4XubwWvW21dpWpa_mKwQV4EpXfHht3nR4oH4g8oEhDH1R6eAfdJxpg9uZtdz-DuGhSDifkoBcQ4Xi-XnqkOpSkv8bOgPg", "width": 800, "html_attributions": ["<a href=\"https://maps.google.com/maps/contrib/116192370343531775233\">vaibhav kulkarni</a>"], "height": 598}], "scope": "GOOGLE", "business_status": "OPERATIONAL", "types": ["hospital", "health", "point_of_interest", "establishment"], "icon": "https://maps.gstatic.com/mapfiles/place_api/icons/v1/png_71/doctor-71.png"}, {"rating": 5, "user_ratings_total": 1, "name": "myGynaec", "reference": "ChIJmbu1xBy35zsRTxGZ9xcJe2A", "geometry": {"location": {"lat": 19.186115, "lng": 72.85458899999999}, "viewport": {"northeast": {"lat": 19.1874247802915, "lng": 72.8560505802915}, "southwest": {"lat": 19.18472681970849, "lng": 72.85335261970847}}}, "opening_hours": {"open_now": false}, "place_id": "ChIJmbu1xBy35zsRTxGZ9xcJe2A", "plus_code": {"global_code": "7JFJ5VP3+CR", "compound_code": "5VP3+CR Mumbai, Maharashtra, India"}, "vicinity": "A/5, Sukh Sagar Mahal, Bachani Nagar, Near Children\u2019s Academy High School,, Malad East, Mumbai", "scope": "GOOGLE", "business_status": "OPERATIONAL", "types": ["hospital", "health", "point_of_interest", "establishment"], "icon": "https://maps.gstatic.com/mapfiles/place_api/icons/v1/png_71/generic_business-71.png"}, {"rating": 4.4, "user_ratings_total": 9, "name": "Deep Ganga All Therapies Hub", "reference": "ChIJ4Ta3JKi35zsRrHn8MUeZyL4", "geometry": {"location": {"lat": 19.1750239, "lng": 72.86154020000001}, "viewport": {"northeast": {"lat": 19.1763356802915, "lng": 72.8628011302915}, "southwest": {"lat": 19.1736377197085, "lng": 72.8601031697085}}}, "opening_hours": {"open_now": true}, "place_id": "ChIJ4Ta3JKi35zsRrHn8MUeZyL4", "plus_code": {"global_code": "7JFJ5VG6+2J", "compound_code": "5VG6+2J Mumbai, Maharashtra, India"}, "vicinity": "Deep Ganga, 1st floor, Onkar Building, Opposite Oberoi Mall,, Above Axis Bank, Film City Road, Goregaon East,, Mumbai", "photos": [{"photo_reference": "CmRaAAAAprZowLxhi4SM01cIb9uEPe6n4R4YNjQtrF2u0DeVdC37wDiLrb3loOBoRYaTK049x2B9QxakDZg-mV67Z-aiK6aOglKdytB_Bd4RsIGkc0z1p4igcH2W2L-yGXKpIWnEEhDVsQvHOfBYmt-lL3-XxW0zGhQDFq87psfCMyeYdYica4YxsuwOFA", "width": 2048, "html_attributions": ["<a href=\"https://maps.google.com/maps/contrib/115373200289791704678\">Deep Ganga All Therapies Hub</a>"], "height": 1059}], "scope": "GOOGLE", "business_status": "OPERATIONAL", "types": ["hospital", "doctor", "health", "point_of_interest", "establishment"], "icon": "https://maps.gstatic.com/mapfiles/place_api/icons/v1/png_71/generic_business-71.png"}, {"rating": 3, "user_ratings_total": 2, "name": "Rashmi R Saraogi", "reference": "ChIJmeSKZAG35zsRvg8Bes1Yr-0", "geometry": {"location": {"lat": 19.180237, "lng": 72.855415}, "viewport": {"northeast": {"lat": 19.1814248302915, "lng": 72.85671963029151}, "southwest": {"lat": 19.17872686970849, "lng": 72.8540216697085}}}, "place_id": "ChIJmeSKZAG35zsRvg8Bes1Yr-0", "vicinity": "Khetan Apartment, S. V. Road, Malad West,Opp Telephone Extention, Mumbai", "scope": "GOOGLE", "business_status": "OPERATIONAL", "types": ["hospital", "health", "point_of_interest", "establishment"], "icon": "https://maps.gstatic.com/mapfiles/place_api/icons/v1/png_71/doctor-71.png"}, {"rating": 3.9, "user_ratings_total": 256, "name": "Balajee Hospital", "reference": "ChIJ7dUakgO35zsRpZezmAxlUXU", "geometry": {"location": {"lat": 19.1827199, "lng": 72.856717}, "viewport": {"northeast": {"lat": 19.1839858802915, "lng": 72.8580091302915}, "southwest": {"lat": 19.1812879197085, "lng": 72.8553111697085}}}, "opening_hours": {"open_now": true}, "place_id": "ChIJ7dUakgO35zsRpZezmAxlUXU", "plus_code": {"global_code": "7JFJ5VM4+3M", "compound_code": "5VM4+3M Mumbai, Maharashtra, India"}, "vicinity": "near Passport Office, Shah Arcade - 3, near Passport Office, Rani Sati Marg, Malad East, Mumbai", "photos": [{"photo_reference": "CmRaAAAAdYVXapscmMRFQ97khTVXqFut-NBMu4cQuBsCiXaf4P8yxKOauyg_XiENe3POV0vUbUJGf4JPeieK18i9XzPREAaxej_x032bTJDmtz77CWwWe9aiYzEaiuPl-gfhq7S_EhC51b3WSNw6x1TLr5HwGbnkGhQp9DKyaMTqSxXHc0d8HfBfyKP-ow", "width": 3224, "html_attributions": ["<a href=\"https://maps.google.com/maps/contrib/115225137658106219308\">Balajee Hospital</a>"], "height": 1551}], "scope": "GOOGLE", "business_status": "OPERATIONAL", "types": ["hospital", "health", "point_of_interest", "establishment"], "icon": "https://maps.gstatic.com/mapfiles/place_api/icons/v1/png_71/doctor-71.png"}, {"rating": 2.8, "user_ratings_total": 6, "name": "MN (Muskan) Medical Center - Goregaon mumbai", "reference": "ChIJnxceiAe35zsRLQyr2bkCTFQ", "geometry": {"location": {"lat": 19.1752178, "lng": 72.861381}, "viewport": {"northeast": {"lat": 19.1766002802915, "lng": 72.8626874802915}, "southwest": {"lat": 19.1739023197085, "lng": 72.85998951970849}}}, "opening_hours": {"open_now": false}, "place_id": "ChIJnxceiAe35zsRLQyr2bkCTFQ", "plus_code": {"global_code": "7JFJ5VG6+3H", "compound_code": "5VG6+3H Mumbai, Maharashtra, India"}, "vicinity": "SHOP NO 2 EKTA SOCIETY OPP OBEROI MALL, Shivdham Complex, BMC Colony, Dindoshi, Goregaon, Mumbai", "photos": [{"photo_reference": "CmRaAAAABrQjq87RV6kK6K7VGW32iP-sbJ10QbWDYzov_b6b8TzMVOq4CnF6UQDqJJVfa5NU6xhWFVG7ADFOAt4bWBhuwbOhg_lU6z-FGG0C48j3ZeWmpIjief32ERWLMwQxGJYREhABtnlllo261nyujvv_xdz6GhTOnxIXQ2-Xxa8B8QFXn0hv5DwYjw", "width": 1440, "html_attributions": ["<a href=\"https://maps.google.com/maps/contrib/100684309268962967765\">MN (Muskan) Medical Center - Goregaon mumbai</a>"], "height": 600}], "scope": "GOOGLE", "business_status": "OPERATIONAL", "types": ["hospital", "health", "point_of_interest", "establishment"], "icon": "https://maps.gstatic.com/mapfiles/place_api/icons/v1/png_71/generic_business-71.png"}, {"rating": 4.9, "user_ratings_total": 120, "name": "Dr. Vishal Kundnani", "reference": "ChIJ0y-uJqi35zsRdHLs0iUnigk", "geometry": {"location": {"lat": 19.1750406, "lng": 72.8615961}, "viewport": {"northeast": {"lat": 19.1765285302915, "lng": 72.8628099302915}, "southwest": {"lat": 19.1738305697085, "lng": 72.8601119697085}}}, "opening_hours": {"open_now": false}, "place_id": "ChIJ0y-uJqi35zsRdHLs0iUnigk", "plus_code": {"global_code": "7JFJ5VG6+2J", "compound_code": "5VG6+2J Mumbai, Maharashtra, India"}, "vicinity": "Spine Clinic, 1st Floor , Onkar Towers, Opp. Oberoi Mall, Pimpripada Road, Malad East, Mumbai", "photos": [{"photo_reference": "CmRaAAAAZwsvGBAiZChziBWcjNwJk71kHDy5SLO4thbTjWAgnrqz4K6F7Fe5XGsDjeiaVwUx-rONjE9sp97Sab122_PQeyayudyNqPGsJ6ellgqRYgYw-kpYyFjI-a6gvJDg9oASEhBmYpxb-H3Glzn4FlwM9QYFGhR61uuAx6mpe0gIkWJ_2wbAGWS5Ag", "width": 3048, "html_attributions": ["<a href=\"https://maps.google.com/maps/contrib/103048279044882361922\">vishal kundnani</a>"], "height": 2852}], "scope": "GOOGLE", "business_status": "OPERATIONAL", "types": ["physiotherapist", "hospital", "doctor", "health", "point_of_interest", "establishment"], "icon": "https://maps.gstatic.com/mapfiles/place_api/icons/v1/png_71/generic_business-71.png"}, {"rating": 4, "user_ratings_total": 4, "name": "Swasth Dawakhana", "reference": "ChIJ9WZNmAm35zsR5PP1_2ZBy7U", "geometry": {"location": {"lat": 19.1784349, "lng": 72.8679744}, "viewport": {"northeast": {"lat": 19.1797747302915, "lng": 72.8693215302915}, "southwest": {"lat": 19.1770767697085, "lng": 72.8666235697085}}}, "opening_hours": {"open_now": false}, "place_id": "ChIJ9WZNmAm35zsR5PP1_2ZBy7U", "plus_code": {"global_code": "7JFJ5VH9+95", "compound_code": "5VH9+95 Mumbai, Maharashtra, India"}, "vicinity": "Shop No:1, Begadi Choaul, Prakash Compound, Adarsh Nagar, Kurar Village, Mumbai", "photos": [{"photo_reference": "CmRaAAAAS5kx3ggunxZaDpcfAaaKP1PnMQi5-eQzKo25wJjbBRPoYGvYlQxfCcnOVlYodS0uFmzy9-LoW7kXXZE26qocQBECMjLF5j23UhAfyw048wl_F8XGWJwoWAhhxRU1MIx1EhDURcB4e-2Svw7njuYw-aDsGhTTAONIfoVTECE_y5BmV-7WA410PQ", "width": 1440, "html_attributions": ["<a href=\"https://maps.google.com/maps/contrib/112641178384997309094\">Suleman Khan</a>"], "height": 2560}], "scope": "GOOGLE", "business_status": "OPERATIONAL", "types": ["hospital", "health", "point_of_interest", "establishment"], "icon": "https://maps.gstatic.com/mapfiles/place_api/icons/v1/png_71/doctor-71.png"}, {"name": "Dental Clinic", "reference": "ChIJl9KXVwW35zsRhnEDkpSPvcg", "geometry": {"location": {"lat": 19.1865444, "lng": 72.8632362}, "viewport": {"northeast": {"lat": 19.1878917302915, "lng": 72.8645824802915}, "southwest": {"lat": 19.1851937697085, "lng": 72.8618845197085}}}, "opening_hours": {"open_now": false}, "place_id": "ChIJl9KXVwW35zsRhnEDkpSPvcg", "plus_code": {"global_code": "7JFJ5VP7+J7", "compound_code": "5VP7+J7 Mumbai, Maharashtra, India"}, "vicinity": "Laxman Nagar Road Number 2, Datta Wadi, Kurar Village, Malad East, Mumbai", "scope": "GOOGLE", "business_status": "OPERATIONAL", "types": ["hospital", "health", "point_of_interest", "establishment"], "icon": "https://maps.gstatic.com/mapfiles/place_api/icons/v1/png_71/doctor-71.png"}, {"rating": 4.1, "user_ratings_total": 45, "name": "Lifewave Hospital", "reference": "ChIJ-TsxKgO35zsRs2CPZE6YUhU", "geometry": {"location": {"lat": 19.1859977, "lng": 72.8546363}, "viewport": {"northeast": {"lat": 19.1873094802915, "lng": 72.85603813029151}, "southwest": {"lat": 19.1846115197085, "lng": 72.85334016970849}}}, "opening_hours": {"open_now": true}, "place_id": "ChIJ-TsxKgO35zsRs2CPZE6YUhU", "plus_code": {"global_code": "7JFJ5VP3+9V", "compound_code": "5VP3+9V Mumbai, Maharashtra, India"}, "vicinity": "A/5, Sukh Sagar Mehal, Bachani Nagar, Near Children\u2019s Academy High School, Malad East, Mumbai", "photos": [{"photo_reference": "CmRaAAAAvmmjcUGrAh1aieyQjeRLekQml3vE8uAvzmuOoDnmMmRRFouX1QsrgxJ02mH97QiALfjvV2VchhwYDDrePtBYxNXkHigLq_X9bsT6XeMenlHWejQg6VOux9F1ENZleg82EhBS8dZQ3Qt7PbtYmNPPeZihGhS9Isni7sJrdgHEENNuAWUi3xel0g", "width": 5520, "html_attributions": ["<a href=\"https://maps.google.com/maps/contrib/101293931080232500909\">Lifewave Hospital</a>"], "height": 3680}], "scope": "GOOGLE", "business_status": "OPERATIONAL", "types": ["hospital", "health", "point_of_interest", "establishment"], "icon": "https://maps.gstatic.com/mapfiles/place_api/icons/v1/png_71/doctor-71.png"}, {"rating": 3.5, "user_ratings_total": 203, "name": "Sanjeevani Hospital Malad East", "reference": "ChIJS1FDlAK35zsRiWEYnt-AGco", "geometry": {"location": {"lat": 19.1845916, "lng": 72.8527984}, "viewport": {"northeast": {"lat": 19.1858640302915, "lng": 72.8542202802915}, "southwest": {"lat": 19.18316606970849, "lng": 72.8515223197085}}}, "opening_hours": {"open_now": true}, "place_id": "ChIJS1FDlAK35zsRiWEYnt-AGco", "plus_code": {"global_code": "7JFJ5VM3+R4", "compound_code": "5VM3+R4 Mumbai, Maharashtra, India"}, "vicinity": "opposite to Sumtinath, Bhawani Chambers, Kedarmal Road Bhagwan Jain Temple Off, Rani Sati Marg, opposite to Sumtinath, Malad East, Mumbai", "photos": [{"photo_reference": "CmRaAAAAdFPULgOxVjpUODOvCDIvRKgzJMYKfLgVQiTvfQ21n3ZJ92RA40AJz8mziwXA7oaXHI1CYT6so7GV9ZpBbl3viebcG_DDPz_JiCX0BzVXuhzp3DSxKT5Mk5m-8sL3lKbwEhCgEl6Yks0p1-1nYIWyJ9twGhTrGpogrqp2qOONwH7xjfxri_2Q8A", "width": 400, "html_attributions": ["<a href=\"https://maps.google.com/maps/contrib/101114456775463141659\">Asmita Lamkhade</a>"], "height": 299}], "scope": "GOOGLE", "business_status": "OPERATIONAL", "types": ["hospital", "health", "point_of_interest", "establishment"], "icon": "https://maps.gstatic.com/mapfiles/place_api/icons/v1/png_71/doctor-71.png"}, {"rating": 3.7, "user_ratings_total": 7, "name": "Dr.M.L.Dhawale Homoeopathic Medico-Surgical & Research Centre", "reference": "ChIJeZXn3hq35zsRHlpJRHRIXCk", "geometry": {"location": {"lat": 19.1882518, "lng": 72.86070289999999}, "viewport": {"northeast": {"lat": 19.1894671802915, "lng": 72.8621122802915}, "southwest": {"lat": 19.1867692197085, "lng": 72.85941431970849}}}, "opening_hours": {"open_now": true}, "place_id": "ChIJeZXn3hq35zsRHlpJRHRIXCk", "plus_code": {"global_code": "7JFJ5VQ6+87", "compound_code": "5VQ6+87 Mumbai, Maharashtra, India"}, "vicinity": "Near Jain Temple, Khetwadi Galli, Kurar Village, Malad East, Mumbai", "scope": "GOOGLE", "business_status": "OPERATIONAL", "types": ["hospital", "health", "point_of_interest", "establishment"], "icon": "https://maps.gstatic.com/mapfiles/place_api/icons/v1/png_71/generic_business-71.png"}, {"name": "Hlag", "reference": "ChIJOambav625zsRiHPWI4CzqpY", "geometry": {"location": {"lat": 19.1787492, "lng": 72.8499452}, "viewport": {"northeast": {"lat": 19.1801469302915, "lng": 72.8512899802915}, "southwest": {"lat": 19.17744896970849, "lng": 72.84859201970849}}}, "opening_hours": {"open_now": true}, "place_id": "ChIJOambav625zsRiHPWI4CzqpY", "plus_code": {"global_code": "7JFJ5RHX+FX", "compound_code": "5RHX+FX Mumbai, Maharashtra, India"}, "vicinity": "Dhobi Ghat, Malad East, Mumbai", "scope": "GOOGLE", "business_status": "OPERATIONAL", "types": ["hospital", "health", "point_of_interest", "establishment"], "icon": "https://maps.gstatic.com/mapfiles/place_api/icons/v1/png_71/doctor-71.png"}, {"rating": 4.2, "user_ratings_total": 6, "name": "Sugandhim", "reference": "ChIJVVVVVbm35zsRDlATKKMfAjA", "geometry": {"location": {"lat": 19.1733113, "lng": 72.8682134}, "viewport": {"northeast": {"lat": 19.1747084302915, "lng": 72.8696707802915}, "southwest": {"lat": 19.1720104697085, "lng": 72.8669728197085}}}, "opening_hours": {"open_now": true}, "place_id": "ChIJVVVVVbm35zsRDlATKKMfAjA", "plus_code": {"global_code": "7JFJ5VF9+87", "compound_code": "5VF9+87 Mumbai, Maharashtra, India"}, "vicinity": "G-35, Gokuldham Shop Cnt, Film City Road, Goregaon East, Mumbai - 400063", "photos": [{"photo_reference": "CmRaAAAAzk0HBmZj4AztfYwLHZY7499hnjs2dxDXnUXBxTww2SGM9-hvDgytXq-HkH51tvL7DEFMG6EJGuGsfGqAysyzbmw8w1dCTKBFSEm8xU-l4-__f9Fo3ItB5ifTklESbnG-EhD_LlsQbEHQikpYsCdD236zGhTZsxFzI7wRUFHgtRGIL-a5Z66nUQ", "width": 640, "html_attributions": ["<a href=\"https://maps.google.com/maps/contrib/115465205971397194401\">Sugandhim</a>"], "height": 480}], "scope": "GOOGLE", "business_status": "OPERATIONAL", "types": ["hospital", "health", "point_of_interest", "store", "establishment"], "icon": "https://maps.gstatic.com/mapfiles/place_api/icons/v1/png_71/shopping-71.png"}, {"rating": 4, "user_ratings_total": 4, "name": "Sudha Hospital And Polyclinic", "reference": "ChIJ--8XEf225zsRigqWa1y1vp4", "geometry": {"location": {"lat": 19.1811294, "lng": 72.8492667}, "viewport": {"northeast": {"lat": 19.1824909302915, "lng": 72.85064893029151}, "southwest": {"lat": 19.17979296970849, "lng": 72.84795096970849}}}, "opening_hours": {"open_now": true}, "place_id": "ChIJ--8XEf225zsRigqWa1y1vp4", "plus_code": {"global_code": "7JFJ5RJX+FP", "compound_code": "5RJX+FP Mumbai, Maharashtra, India"}, "vicinity": "Radhakunj A Building, Ground Floor, Haji Bapu Road, Nevetia Road, Matanpur Nagar, Malad East, Mumbai", "photos": [{"photo_reference": "CmRZAAAARo8OZ-2USDU6i6Kc8vuzdSI1NyvlgGNplSIIOu_fEN5H1pTJM9DOLAKqPRMcvYaVD8jX8Lpoj7Lp34CF2-CUyHqXeNe5LLbYSkpQN5B3dt4xiR5K_iFmOEYaqCPE3NMqEhBuRCnEXg0O31w4o-PZFss-GhQw3KQ9cmhiRrTKvOilyVSz_4K9cg", "width": 700, "html_attributions": ["<a href=\"https://maps.google.com/maps/contrib/111059464719290798396\">Bhavesh Desai</a>"], "height": 864}], "scope": "GOOGLE", "business_status": "OPERATIONAL", "types": ["hospital", "health", "point_of_interest", "establishment"], "icon": "https://maps.gstatic.com/mapfiles/place_api/icons/v1/png_71/doctor-71.png"}, {"name": "Swasth Medical Center", "reference": "ChIJRbOqy9Ow5zsRu6cQoIogTGw", "geometry": {"location": {"lat": 19.1833607, "lng": 72.8496041}, "viewport": {"northeast": {"lat": 19.1849067802915, "lng": 72.8509732802915}, "southwest": {"lat": 19.18220881970849, "lng": 72.84827531970849}}}, "opening_hours": {"open_now": true}, "place_id": "ChIJRbOqy9Ow5zsRu6cQoIogTGw", "plus_code": {"global_code": "7JFJ5RMX+8R", "compound_code": "5RMX+8R Mumbai, Maharashtra, India"}, "vicinity": "Shop No. 13 Dwarkesh Building Nevetia Rd, Opposite, Rani Sati Marg, Malad West, Mumbai", "scope": "GOOGLE", "business_status": "OPERATIONAL", "types": ["hospital", "health", "point_of_interest", "establishment"], "icon": "https://maps.gstatic.com/mapfiles/place_api/icons/v1/png_71/doctor-71.png"}, {"rating": 3.3, "user_ratings_total": 7, "name": "Vatsalya Hospital", "reference": "ChIJIdC1E_225zsRrPfYW2SNI6s", "geometry": {"location": {"lat": 19.1839275, "lng": 72.8498022}, "viewport": {"northeast": {"lat": 19.1851838302915, "lng": 72.8511417802915}, "southwest": {"lat": 19.1824858697085, "lng": 72.84844381970849}}}, "place_id": "ChIJIdC1E_225zsRrPfYW2SNI6s", "plus_code": {"global_code": "7JFJ5RMX+HW", "compound_code": "5RMX+HW Mumbai, Maharashtra, India"}, "vicinity": "1st Floor, Ganga Building B, near Railway Station, Rani Sati Marg, Malad East, Mumbai", "scope": "GOOGLE", "business_status": "OPERATIONAL", "types": ["hospital", "health", "point_of_interest", "establishment"], "icon": "https://maps.gstatic.com/mapfiles/place_api/icons/v1/png_71/doctor-71.png"}, {"rating": 4.3, "user_ratings_total": 12, "name": "Agarwal Clinic", "reference": "ChIJpR8Hch235zsRwGvEIlSdVPY", "geometry": {"location": {"lat": 19.1882098, "lng": 72.8527782}, "viewport": {"northeast": {"lat": 19.1895972302915, "lng": 72.8541108802915}, "southwest": {"lat": 19.18689926970849, "lng": 72.8514129197085}}}, "opening_hours": {"open_now": true}, "place_id": "ChIJpR8Hch235zsRwGvEIlSdVPY", "plus_code": {"global_code": "7JFJ5VQ3+74", "compound_code": "5VQ3+74 Mumbai, Maharashtra, India"}, "vicinity": "402, Daftary Road, Primal Nagar,, Malad East, Mumbai", "scope": "GOOGLE", "business_status": "OPERATIONAL", "types": ["hospital", "health", "point_of_interest", "establishment"], "icon": "https://maps.gstatic.com/mapfiles/place_api/icons/v1/png_71/doctor-71.png"}]}