{"status": "OK", "next_page_token": "CsQDugEAAIsxhiVOHetaooLUegSkvVjVdLTblwGmR5BMDnHB-ImC8GEF70O0Xp49-Tj-8cxzkEKH5BX2dz10dzdX-o2pVzXXQHcmny_enEbmccotAPIONYSoG0Hc_M_rdG00m7OI7LXBT7ParhrF66mF6t1jVi-MbPyMi2f5kNr7d1JusRNKoiAe_cOBaQP5s9SiyGQNw3s9ay24W2TbLjIMQgbFX2H_mCEjub1RaTtrymfNVeRlxtGTATO3M-ii7lwP6i1C0n1AfN8dsMEe0uGIFDghJXD9MuQvxfYk7KOPyOrhoH-4Jb4N8znnJ97Fodmvcn2Q2qrrb5s8NbaMNk8G8sFD2yFiRtF7qifgapQ3aNbigDIT_SjwnhUIVgWmdIMXKVx3wiOXIG8t0z0v2A5JDsd3f4kF0j0Fh9e1uZGdsQfSBKyeME1gGz6L32_bJlglNrGgYwIVO-VVzvkuP0bD5kVEGj_u0mi8DF9EGaWWYl5zrAMuGBaMuEzBpJ5_o9qRU2k-hyY_-qwj41Dl724opzJndi75n3VIXBo1lrwHt_bIm55VLVGatwbeg8lCwKB3d1mrmb6ft2QJb8cmjlZ8kohmSD0SEKS8-q0xMSJDXEP7CZD0_VIaFFLfwbCjBFv4ufQxgmnufQQYWuJA", "html_attributions": [], "results": [{"name": "Na", "reference": "ChIJh6dmhEq35zsRmAnqQ6HkzZ8", "geometry": {"location": {"lat": 19.1780227, "lng": 72.870612}, "viewport": {"northeast": {"lat": 19.1793826802915, "lng": 72.8719297302915}, "southwest": {"lat": 19.1766847197085, "lng": 72.86923176970849}}}, "place_id": "ChIJh6dmhEq35zsRmAnqQ6HkzZ8", "plus_code": {"global_code": "7JFJ5VHC+66", "compound_code": "5VHC+66 Mumbai, Maharashtra, India"}, "vicinity": "Pimpripada Road, Azad Nagar, Mumbai", "scope": "GOOGLE", "business_status": "OPERATIONAL", "types": ["hospital", "health", "point_of_interest", "establishment"], "icon": "https://maps.gstatic.com/mapfiles/place_api/icons/v1/png_71/doctor-71.png"}, {"name": "Shree Sai Pets Clinic", "reference": "ChIJyXjlK4u35zsRoFO8GGs0VxM", "geometry": {"location": {"lat": 19.1758364, "lng": 72.871256}, "viewport": {"northeast": {"lat": 19.1771852802915, "lng": 72.8726107302915}, "southwest": {"lat": 19.1744873197085, "lng": 72.86991276970849}}}, "place_id": "ChIJyXjlK4u35zsRoFO8GGs0VxM", "plus_code": {"global_code": "7JFJ5VGC+8G", "compound_code": "5VGC+8G Mumbai, Maharashtra, India"}, "vicinity": "Shop No. 3, Near Royal Dairy farm and Chaina hunt, Film City Road, Malad East, Mumbai", "scope": "GOOGLE", "business_status": "OPERATIONAL", "types": ["hospital", "health", "point_of_interest", "establishment"], "icon": "https://maps.gstatic.com/mapfiles/place_api/icons/v1/png_71/doctor-71.png"}, {"name": "Paradigm Healthcare Private Limited", "reference": "ChIJVVVVFaG35zsRVZnoBt6eRis", "geometry": {"location": {"lat": 19.1728734, "lng": 72.8714864}, "viewport": {"northeast": {"lat": 19.17421053029151, "lng": 72.87293873029151}, "southwest": {"lat": 19.1715125697085, "lng": 72.8702407697085}}}, "opening_hours": {"open_now": false}, "place_id": "ChIJVVVVFaG35zsRVZnoBt6eRis", "plus_code": {"global_code": "7JFJ5VFC+4H", "compound_code": "5VFC+4H Mumbai, Maharashtra, India"}, "vicinity": "Gokuldham Colony, Goregaon, Mumbai", "scope": "GOOGLE", "business_status": "OPERATIONAL", "types": ["hospital", "health", "point_of_interest", "establishment"], "icon": "https://maps.gstatic.com/mapfiles/place_api/icons/v1/png_71/generic_business-71.png"}, {"name": "S.S.Daignostic Centre", "reference": "ChIJkeMR0pi35zsRch9QVcGW9Lc", "geometry": {"location": {"lat": 19.1709922, "lng": 72.8774662}, "viewport": {"northeast": {"lat": 19.1723234302915, "lng": 72.8787016302915}, "southwest": {"lat": 19.1696254697085, "lng": 72.8760036697085}}}, "place_id": "ChIJkeMR0pi35zsRch9QVcGW9Lc", "plus_code": {"global_code": "7JFJ5VCG+9X", "compound_code": "5VCG+9X Mumbai, Maharashtra, India"}, "vicinity": "Krishna Nagar, 242, Swami Vivekananda Road, Santosh Nagar, Shivdarshan Nagar, Goregaon, Mumbai", "scope": "GOOGLE", "business_status": "OPERATIONAL", "types": ["hospital", "health", "point_of_interest", "establishment"], "icon": "https://maps.gstatic.com/mapfiles/place_api/icons/v1/png_71/doctor-71.png"}, {"rating": 3.7, "user_ratings_total": 3, "name": "Dr. Ravindra", "reference": "ChIJkQOzwcm35zsRD17dOQiKmZs", "geometry": {"location": {"lat": 19.175584, "lng": 72.8712932}, "viewport": {"northeast": {"lat": 19.1769022302915, "lng": 72.87264718029151}, "southwest": {"lat": 19.1742042697085, "lng": 72.86994921970849}}}, "place_id": "ChIJkQOzwcm35zsRD17dOQiKmZs", "plus_code": {"global_code": "7JFJ5VGC+6G", "compound_code": "5VGC+6G Malad, Malad East, Mumbai, Maharashtra, India"}, "vicinity": "near Royal Dairy farm, Shree Sai pets Clinic, near Royal Dairy farm, Malad East", "scope": "GOOGLE", "business_status": "OPERATIONAL", "types": ["hospital", "health", "point_of_interest", "establishment"], "icon": "https://maps.gstatic.com/mapfiles/place_api/icons/v1/png_71/doctor-71.png"}, {"rating": 3.6, "user_ratings_total": 70, "name": "Radha Krishna Hospital", "reference": "ChIJ4VXaxqG35zsRSOQHLYNfbSA", "geometry": {"location": {"lat": 19.17252329999999, "lng": 72.8739325}, "viewport": {"northeast": {"lat": 19.1738961802915, "lng": 72.87545718029149}, "southwest": {"lat": 19.17119821970849, "lng": 72.87275921970848}}}, "opening_hours": {"open_now": true}, "place_id": "ChIJ4VXaxqG35zsRSOQHLYNfbSA", "plus_code": {"global_code": "7JFJ5VFF+2H", "compound_code": "5VFF+2H Mumbai, Maharashtra, India"}, "vicinity": "Bus Stop, First Floor, K- wing, Building D-2, Satellite Gardens-2, near Hanuman Nagar, Film City Road, Goregaon, Mumbai", "photos": [{"photo_reference": "CmRaAAAApyK9VP346I6y0e1BuO49gs9QQks4nwsUGAiJ0vDYf0Cog6ofPRnT1MAeDGzVCSPL1cnPesHfbivKOXT_4Ku-Oty6ErUlLJKyQrV4N_PuOn7t_G6dMM2BWRQ1-0feFGyFEhAd7kWF6U1GgYv9o9LQekuQGhQEjBVw8Gww_8TrBPgo9tMVYXIR_w", "width": 1490, "html_attributions": ["<a href=\"https://maps.google.com/maps/contrib/114043732060101544497\">S Chnd</a>"], "height": 1589}], "scope": "GOOGLE", "business_status": "OPERATIONAL", "types": ["hospital", "health", "point_of_interest", "establishment"], "icon": "https://maps.gstatic.com/mapfiles/place_api/icons/v1/png_71/doctor-71.png"}, {"rating": 4.1, "user_ratings_total": 7, "name": "Prime Hospital", "reference": "ChIJibHZ6qC35zsRYT1FhNC24UU", "geometry": {"location": {"lat": 19.17535789999999, "lng": 72.87130359999999}, "viewport": {"northeast": {"lat": 19.1767873302915, "lng": 72.87264868029149}, "southwest": {"lat": 19.17408936970849, "lng": 72.86995071970848}}}, "place_id": "ChIJibHZ6qC35zsRYT1FhNC24UU", "plus_code": {"global_code": "7JFJ5VGC+4G", "compound_code": "5VGC+4G Mumbai, Maharashtra, India"}, "vicinity": "Kanyapada, Gokuldham Colony, Goregaon, Mumbai", "scope": "GOOGLE", "business_status": "OPERATIONAL", "types": ["hospital", "health", "point_of_interest", "establishment"], "icon": "https://maps.gstatic.com/mapfiles/place_api/icons/v1/png_71/doctor-71.png"}, {"name": "Himmatramka orthopaedic clinic", "reference": "ChIJGwTgQSm35zsRuNO3Z5Y7Rq0", "geometry": {"location": {"lat": 19.1744393, "lng": 72.87167579999999}, "viewport": {"northeast": {"lat": 19.1756814302915, "lng": 72.8730884302915}, "southwest": {"lat": 19.17298346970849, "lng": 72.87039046970848}}}, "place_id": "ChIJGwTgQSm35zsRuNO3Z5Y7Rq0", "plus_code": {"global_code": "7JFJ5VFC+QM", "compound_code": "5VFC+QM Mumbai, Maharashtra, India"}, "vicinity": "Divyastuti CHS ltd unit no5, Kanyapada, Gokuldham Colony, Goregaon, Mumbai", "scope": "GOOGLE", "business_status": "OPERATIONAL", "types": ["hospital", "health", "point_of_interest", "establishment"], "icon": "https://maps.gstatic.com/mapfiles/place_api/icons/v1/png_71/doctor-71.png"}, {"rating": 4, "user_ratings_total": 1, "name": "Navjeevan Health Centre", "reference": "ChIJvWtM2Ji35zsRfTWGXRMs4lw", "geometry": {"location": {"lat": 19.170501, "lng": 72.877964}, "viewport": {"northeast": {"lat": 19.1717137802915, "lng": 72.8791006302915}, "southwest": {"lat": 19.16901581970849, "lng": 72.87640266970848}}}, "opening_hours": {"open_now": false}, "place_id": "ChIJvWtM2Ji35zsRfTWGXRMs4lw", "plus_code": {"global_code": "7JFJ5VCH+65", "compound_code": "5VCH+65 Mumbai, Maharashtra, India"}, "vicinity": "Shop No. 13, Ward No. L-6, Road No. 12,Santosh Nagar Market Road, Swami Vivekananda Road, Muncipal Colony, Sector B, Goregaon West, Mumbai", "scope": "GOOGLE", "business_status": "OPERATIONAL", "types": ["hospital", "health", "point_of_interest", "establishment"], "icon": "https://maps.gstatic.com/mapfiles/place_api/icons/v1/png_71/doctor-71.png"}, {"name": "ALEX", "reference": "ChIJsxzpqS635zsR7g3wUKyD5Fk", "geometry": {"location": {"lat": 19.170634, "lng": 72.8773215}, "viewport": {"northeast": {"lat": 19.1719716802915, "lng": 72.8786376802915}, "southwest": {"lat": 19.1692737197085, "lng": 72.87593971970848}}}, "place_id": "ChIJsxzpqS635zsR7g3wUKyD5Fk", "plus_code": {"global_code": "7JFJ5VCG+7W", "compound_code": "5VCG+7W Mumbai, Maharashtra, India"}, "vicinity": "Swami Vivekananda Road, Jai Bhim Nagar, Muncipal Colony, Sector B, Goregaon, Mumbai", "photos": [{"photo_reference": "CmRaAAAAncI-GCiTfoRix3FsHsTN0PF7LrXxzUINzhf6LGo5uuvfUyxYu9d2Ux-G7laTnmkiJyK0qRZyMwbMYPxKZWxeEO_KSL47xv66-Eu7vaVNM4mgkiNz6ASvi6TgGXk0kKAxEhABesvpIaiuAJDqUKFQ6Ks8GhQpku3coILtoPtmkeWj3PPcSVfS6Q", "width": 519, "html_attributions": ["<a href=\"https://maps.google.com/maps/contrib/102370831281945592636\">EDITOR CHAMP</a>"], "height": 507}], "scope": "GOOGLE", "business_status": "OPERATIONAL", "types": ["hospital", "health", "point_of_interest", "establishment"], "icon": "https://maps.gstatic.com/mapfiles/place_api/icons/v1/png_71/doctor-71.png"}, {"rating": 3.7, "user_ratings_total": 9, "name": "Mamta Nursing Home", "reference": "ChIJVVVVVbm35zsRgDWr6TwtZ5k", "geometry": {"location": {"lat": 19.1704333, "lng": 72.8773416}, "viewport": {"northeast": {"lat": 19.1717938802915, "lng": 72.87871348029151}, "southwest": {"lat": 19.1690959197085, "lng": 72.8760155197085}}}, "opening_hours": {"open_now": true}, "place_id": "ChIJVVVVVbm35zsRgDWr6TwtZ5k", "plus_code": {"global_code": "7JFJ5VCG+5W", "compound_code": "5VCG+5W Mumbai, Maharashtra, India"}, "vicinity": "opposite Saibaba Temple, Jay Bhim Nagar, Santosh Nagar, Goregaon East, opposite Saibaba Temple, Mumbai", "photos": [{"photo_reference": "CmRaAAAAZ5jjHsEEIwwMg_zHyf42GszajuAMVHj3UDWSyfZG3fbWEyXhLsoOMsHjVVjX-VQwuWughk5HFykaCzEMIkAjJaIbtsNH7kpP7QcEJUyP3kuDADkhVEEpHuEohDcwMoo2EhApMtKfYCMTFze9lIVNTdbdGhQ5FVE5MBpw7RWh5kuwTKtyJ-wdzg", "width": 3120, "html_attributions": ["<a href=\"https://maps.google.com/maps/contrib/109742843989595990030\">Chetan</a>"], "height": 4160}], "scope": "GOOGLE", "business_status": "OPERATIONAL", "types": ["hospital", "health", "point_of_interest", "establishment"], "icon": "https://maps.gstatic.com/mapfiles/place_api/icons/v1/png_71/doctor-71.png"}, {"rating": 4.1, "user_ratings_total": 24, "name": "Vidya Hospital", "reference": "ChIJVVVVFaG35zsRLG9Ls_rQSIU", "geometry": {"location": {"lat": 19.1751131, "lng": 72.8706971}, "viewport": {"northeast": {"lat": 19.1764784302915, "lng": 72.87210958029151}, "southwest": {"lat": 19.1737804697085, "lng": 72.86941161970849}}}, "opening_hours": {"open_now": true}, "place_id": "ChIJVVVVFaG35zsRLG9Ls_rQSIU", "plus_code": {"global_code": "7JFJ5VGC+27", "compound_code": "5VGC+27 Mumbai, Maharashtra, India"}, "vicinity": "Shop No. 21, Heena Gaurav Jewels, Gokuldam market General AK Vaidya Marg, Film City Road, Mumbai", "photos": [{"photo_reference": "CmRaAAAA824RUHACq7OFOiEhKNJ9S2HiMgYRsz1lK28YrweykMmeeSpStHYRw7tDGPQI4z4ULxIgQPGaoFRiIwTxvNro0TNp4J3I2OHfUEYSeENAGCFn__WLu8Feb_-KI1fqS6y7EhCwbEyrNEtmKbmAMOExAocLGhS21tb2q7F0ZGtTzCyDfdk0Tx0rxQ", "width": 1080, "html_attributions": ["<a href=\"https://maps.google.com/maps/contrib/109260787303917430146\">Sameep Bansal</a>"], "height": 1920}], "scope": "GOOGLE", "business_status": "OPERATIONAL", "types": ["hospital", "health", "point_of_interest", "establishment"], "icon": "https://maps.gstatic.com/mapfiles/place_api/icons/v1/png_71/doctor-71.png"}, {"rating": 5, "user_ratings_total": 6, "name": "Physiotherapy Clinic", "reference": "ChIJhYBmBKG35zsRaLjdFiCXw_s", "geometry": {"location": {"lat": 19.173289, "lng": 72.871681}, "viewport": {"northeast": {"lat": 19.1746356302915, "lng": 72.8730567802915}, "southwest": {"lat": 19.1719376697085, "lng": 72.8703588197085}}}, "opening_hours": {"open_now": false}, "place_id": "ChIJhYBmBKG35zsRaLjdFiCXw_s", "plus_code": {"global_code": "7JFJ5VFC+8M", "compound_code": "5VFC+8M Mumbai, Maharashtra, India"}, "vicinity": "Shop No-2, Daya Sagar Complex, near Aarey Bhaskar Gokuldham, Gokuldham Colony, Goregaon, Mumbai", "photos": [{"photo_reference": "CmRaAAAAMEFg6uGvCrFo0Kl9BPqNTAT7_uRdQbRwzV4fRbX72t9h9gVlq2RBU4aDyh0FFr4qqXuPMOfUDRU1hTE2Yk85OXazyfN5F3TOOHHAax-3iz2heRHlRxykJpI06JbRAVXMEhAphA5cijaElka7VvzWzEwfGhTJQEmRcR3J8qFdU2HEpE0JE36X3A", "width": 2448, "html_attributions": ["<a href=\"https://maps.google.com/maps/contrib/114670176738134176978\">vinay srivastava</a>"], "height": 3264}], "scope": "GOOGLE", "business_status": "OPERATIONAL", "types": ["physiotherapist", "hospital", "health", "point_of_interest", "establishment"], "icon": "https://maps.gstatic.com/mapfiles/place_api/icons/v1/png_71/generic_business-71.png"}, {"rating": 4.3, "user_ratings_total": 3, "name": "Vidya Medical", "reference": "ChIJ20tK-5i35zsRql0SXv42KT4", "geometry": {"location": {"lat": 19.1691376, "lng": 72.877681}, "viewport": {"northeast": {"lat": 19.1704902802915, "lng": 72.8790715802915}, "southwest": {"lat": 19.1677923197085, "lng": 72.87637361970849}}}, "opening_hours": {"open_now": false}, "place_id": "ChIJ20tK-5i35zsRql0SXv42KT4", "plus_code": {"global_code": "7JFJ5V9H+M3", "compound_code": "5V9H+M3 Mumbai, Maharashtra, India"}, "vicinity": "Krishna Nagar, 242, Swami Vivekananda Road, Santosh Nagar, Shivdarshan Nagar, Goregaon, Mumbai", "scope": "GOOGLE", "business_status": "OPERATIONAL", "types": ["hospital", "health", "point_of_interest", "establishment"], "icon": "https://maps.gstatic.com/mapfiles/place_api/icons/v1/png_71/doctor-71.png"}, {"name": "Yadav Health Care Center", "reference": "ChIJSVfAjxK35zsRLmmGHplopXM", "geometry": {"location": {"lat": 19.18879859999999, "lng": 72.8728706}, "viewport": {"northeast": {"lat": 19.1901477302915, "lng": 72.8742305302915}, "southwest": {"lat": 19.1874497697085, "lng": 72.87153256970848}}}, "place_id": "ChIJSVfAjxK35zsRLmmGHplopXM", "plus_code": {"global_code": "7JFJ5VQF+G4", "compound_code": "5VQF+G4 Mumbai, Maharashtra, India"}, "vicinity": "Datta Krupa Chawl, Appa Pada Road, Appa Pada, Maharashtra Nagar, Kurar Village, Malad East, Mumbai", "scope": "GOOGLE", "business_status": "OPERATIONAL", "types": ["hospital", "health", "point_of_interest", "establishment"], "icon": "https://maps.gstatic.com/mapfiles/place_api/icons/v1/png_71/generic_business-71.png"}, {"rating": 5, "user_ratings_total": 1, "name": "Shri Bharat Medical", "reference": "ChIJEWAumgm35zsRy0jtljWqz1Y", "geometry": {"location": {"lat": 19.17846, "lng": 72.8681983}, "viewport": {"northeast": {"lat": 19.1797878302915, "lng": 72.86952368029151}, "southwest": {"lat": 19.1770898697085, "lng": 72.8668257197085}}}, "place_id": "ChIJEWAumgm35zsRy0jtljWqz1Y", "plus_code": {"global_code": "7JFJ5VH9+97", "compound_code": "5VH9+97 Mumbai, Maharashtra, India"}, "vicinity": "9 Valentine Apartments Wing A-A/1, Pathanwadi Road, Malad East, Mumbai", "photos": [{"photo_reference": "CmRaAAAAVt3VNJZGLbISfNI8aGF3fvsw8zlWEnLDATc6yCjS44W-pnnChUsEwZ1idA7qtqhn4zGImSFZcpqq37R-oaYjpVtZjjxw4ZQ57nij7ZHUCEo-vqzg4EiNAG8Q0dLQ5LDBEhA8nqvMl4_tNgUynKgzN3A0GhTC0d4ycctPpqHt2Th10DFK_Fh8Qw", "width": 4160, "html_attributions": ["<a href=\"https://maps.google.com/maps/contrib/106121919225282918259\">Vijay Singh</a>"], "height": 2352}], "scope": "GOOGLE", "business_status": "OPERATIONAL", "types": ["hospital", "health", "point_of_interest", "establishment"], "icon": "https://maps.gstatic.com/mapfiles/place_api/icons/v1/png_71/doctor-71.png"}, {"rating": 4.9, "user_ratings_total": 7, "name": "Gayatri Healthcare Clinic", "reference": "ChIJxzYleAC35zsRt9nlnznyLcg", "geometry": {"location": {"lat": 19.1750192, "lng": 72.8690309}, "viewport": {"northeast": {"lat": 19.1766393302915, "lng": 72.8703788802915}, "southwest": {"lat": 19.1739413697085, "lng": 72.86768091970849}}}, "opening_hours": {"open_now": false}, "place_id": "ChIJxzYleAC35zsRt9nlnznyLcg", "plus_code": {"global_code": "7JFJ5VG9+2J", "compound_code": "5VG9+2J Goregaon, Mumbai, Maharashtra, India"}, "vicinity": "Shop.No.19,Shivaji Nagar, Gokuldham Market,Behind.Classic Comfort Hotel Gen, General Arun Kumar Vaidya Marg, Goregaon", "photos": [{"photo_reference": "CmRaAAAAqF5c9Zv5NN4PPaDIP9HpVZ_AZExkZs7JTLB_5C-wcTgqe3aEvBDbtwmHON_QL6C6-fP1h90Il1vIxAlThsU9Wx8J7z7KvglvI1Oc1rm_Fisg0HsdFoU4Xz9OYyH6JP5HEhAAd2n78y5JGB1JwPsmfPXMGhStVsKJ4Rhb9YiuLDzP4BMraTCeSA", "width": 958, "html_attributions": ["<a href=\"https://maps.google.com/maps/contrib/107137925319965807788\">Dr.Krishna Upadhyay</a>"], "height": 1280}], "scope": "GOOGLE", "business_status": "OPERATIONAL", "types": ["hospital", "health", "point_of_interest", "establishment"], "icon": "https://maps.gstatic.com/mapfiles/place_api/icons/v1/png_71/doctor-71.png"}, {"name": "Aman Medical", "reference": "ChIJjUB2mAm35zsR_8uwhDOTgYE", "geometry": {"location": {"lat": 19.1783888, "lng": 72.8678003}, "viewport": {"northeast": {"lat": 19.1797635302915, "lng": 72.8691459802915}, "southwest": {"lat": 19.1770655697085, "lng": 72.8664480197085}}}, "place_id": "ChIJjUB2mAm35zsR_8uwhDOTgYE", "plus_code": {"global_code": "7JFJ5VH9+94", "compound_code": "5VH9+94 Mumbai, Maharashtra, India"}, "vicinity": "Pathanwadi Road, Mira Nagar, Dindoshi, Malad East, Mumbai", "scope": "GOOGLE", "business_status": "OPERATIONAL", "types": ["hospital", "health", "point_of_interest", "establishment"], "icon": "https://maps.gstatic.com/mapfiles/place_api/icons/v1/png_71/doctor-71.png"}, {"rating": 3, "user_ratings_total": 1, "name": "Daya Medicals", "reference": "ChIJVVVVFaG35zsRp_gUGY3SkAc", "geometry": {"location": {"lat": 19.1720842, "lng": 72.87074799999999}, "viewport": {"northeast": {"lat": 19.1734322802915, "lng": 72.87209693029149}, "southwest": {"lat": 19.1707343197085, "lng": 72.86939896970848}}}, "place_id": "ChIJVVVVFaG35zsRp_gUGY3SkAc", "vicinity": "Daya Sagar, Gokuldham Road, Goregaon East, Goregaon East, Mumbai", "scope": "GOOGLE", "business_status": "OPERATIONAL", "types": ["hospital", "health", "point_of_interest", "establishment"], "icon": "https://maps.gstatic.com/mapfiles/place_api/icons/v1/png_71/doctor-71.png"}, {"rating": 5, "user_ratings_total": 2, "name": "Vidhya Dental Clinic", "reference": "ChIJpfrz6-y35zsRTG7HUiqyXL8", "geometry": {"location": {"lat": 19.1763203, "lng": 72.8679428}, "viewport": {"northeast": {"lat": 19.1776785802915, "lng": 72.86928813029151}, "southwest": {"lat": 19.1749806197085, "lng": 72.86659016970849}}}, "opening_hours": {"open_now": false}, "place_id": "ChIJpfrz6-y35zsRTG7HUiqyXL8", "plus_code": {"global_code": "7JFJ5VG9+G5", "compound_code": "5VG9+G5 Mumbai, Maharashtra, India"}, "vicinity": "Unnamed Road, Mira Nagar, Dindoshi, Malad East, Mumbai", "photos": [{"photo_reference": "CmRaAAAA7lktrKjbFLKQTpg-v6ZsYoEspqNx8ziFC7mHZ0MtL-DfBGNeCwJhlWJcl7vxPWWN5jKH9F1KlIQY-Sed2AYMD0A5Ct4tWrcOjGI_vW64H8c09mnIzCxbueXymexsum_kEhDhC2U6l12TVhaa0iZAGZhmGhTovB9mBmpJ_mGcLZX2BKdwKzoL_Q", "width": 2472, "html_attributions": ["<a href=\"https://maps.google.com/maps/contrib/114421318770632366318\">Shankar Swaminathan</a>"], "height": 1468}], "scope": "GOOGLE", "business_status": "OPERATIONAL", "types": ["hospital", "health", "point_of_interest", "establishment"], "icon": "https://maps.gstatic.com/mapfiles/place_api/icons/v1/png_71/doctor-71.png"}]}