{"status": "OK", "next_page_token": "CqQCGgEAAHF1yxiRkCsph9JiuttfOFkhAgHyfEVNTSiccmfa9NQfG2uL9_9FNKur8EmyEUwRsQYIy0c0nzdaedjAwGmXDwfwg0j6ES4UeNJPIMEUu_1Wp7_7RqTHCN6ZhXcBdrYRIwdhzhs4N3nxn-gMVA4tBCMRx4W1nbu1S3lhJKVNL9VdOZ4NSSrodKr5QYOtICP1NSzb4zluL5GwiEqiE8HqRvAagZgWSlq98tpG3N9fiQdcjWMlFw6VIpUKPAniYs8hLa8DvKApr7AcgeMUSiBTKahtuxYewL2kKOGj_dbWJJN2kFpJZQrH8dosI5YwZlj1PapFpp60D45wvXW_Mn3SDnbyBPr-p6V7eEoxPXu5KsEz7udNxhojs4-twrxIkNFfGBIQusqzQz4pyZk5t8F75TsjlBoUHBdt3c0b4yeXaRc0cA2LEYvompg", "html_attributions": [], "results": [{"rating": 4.6, "user_ratings_total": 16, "name": "Shreeji Hospital", "reference": "ChIJx2Q4fyzG5zsRG3rid8qeCHQ", "geometry": {"location": {"lat": 19.0844212, "lng": 72.9046563}, "viewport": {"northeast": {"lat": 19.0857236302915, "lng": 72.90602468029151}, "southwest": {"lat": 19.0830256697085, "lng": 72.9033267197085}}}, "place_id": "ChIJx2Q4fyzG5zsRG3rid8qeCHQ", "plus_code": {"global_code": "7JFJ3WM3+QV", "compound_code": "3WM3+QV Mumbai, Maharashtra, India"}, "vicinity": "1 st floor, Nilkanth Shopping Centre, Opp. SNDT College, Cama Lane, Corner, Ghatkopar (W, Mumbai", "scope": "GOOGLE", "business_status": "OPERATIONAL", "types": ["hospital", "health", "point_of_interest", "establishment"], "icon": "https://maps.gstatic.com/mapfiles/place_api/icons/v1/png_71/generic_business-71.png"}, {"rating": 3.1, "user_ratings_total": 53, "name": "Grooming Minds - Dr. Dipti Shah (Gada)", "reference": "ChIJTTr15tLH5zsRNuXz3H2WN0k", "geometry": {"location": {"lat": 19.083876, "lng": 72.906144}, "viewport": {"northeast": {"lat": 19.0852820302915, "lng": 72.9074627302915}, "southwest": {"lat": 19.0825840697085, "lng": 72.90476476970848}}}, "opening_hours": {"open_now": false}, "place_id": "ChIJTTr15tLH5zsRNuXz3H2WN0k", "plus_code": {"global_code": "7JFJ3WM4+HF", "compound_code": "3WM4+HF Mumbai, Maharashtra, India"}, "vicinity": "909, G Square, Next to BMC office, Jawahar Road, Ghatkopar East, Mumbai", "photos": [{"photo_reference": "CmRZAAAAKmr9jX7kxGY0a0VgJ7dC-bWxNEDf-zLZypA01hy6ZxpPUCQRO6CkU4FXzYd08fqM3jaAxOqXdvA1APLDsvXduVR3rPhiE78BnKTj2Gm54ObKt1iljJfDi_fHjf-uK-jBEhDbVsElPddVNqCHYUeSYnjjGhRgAE0VwZiOKh4UemG2cartcvcL3Q", "width": 3264, "html_attributions": ["<a href=\"https://maps.google.com/maps/contrib/117216697736386488345\">Sanjay Chavan</a>"], "height": 1840}], "scope": "GOOGLE", "business_status": "OPERATIONAL", "types": ["hospital", "doctor", "health", "point_of_interest", "establishment"], "icon": "https://maps.gstatic.com/mapfiles/place_api/icons/v1/png_71/doctor-71.png"}, {"rating": 4.7, "user_ratings_total": 86, "name": "Wellness Diabetes Speciality Clinics", "reference": "ChIJsdU0CSbG5zsRX9YKYWPSMtc", "geometry": {"location": {"lat": 19.077418, "lng": 72.907065}, "viewport": {"northeast": {"lat": 19.07873668029151, "lng": 72.90849923029151}, "southwest": {"lat": 19.0760387197085, "lng": 72.9058012697085}}}, "opening_hours": {"open_now": false}, "place_id": "ChIJsdU0CSbG5zsRX9YKYWPSMtc", "plus_code": {"global_code": "7JFJ3WG4+XR", "compound_code": "3WG4+XR Mumbai, Maharashtra, India"}, "vicinity": "101, Dhoot business centre, R.B mehta marg, (60ft road),, Above Janata Sahakari bank, Ghatkopar East, Greater Mumbai", "photos": [{"photo_reference": "CmRZAAAARrlKYHhRmLYKPRvj24oH83fh3PTOBmXxIBHPeJv-SpjwuAPIxdKTcsPwY4me2PEnXMDwdYJRkGE2rVDu7-va85fdQTlC1NCHPbHxvWYI7QLs9jbcXmcof3SRX1XnbeOyEhDHm6vfgxALy3TJ5IyeH3gyGhQ3itg9ctYPNO5A3djLOHmIql-TTg", "width": 2048, "html_attributions": ["<a href=\"https://maps.google.com/maps/contrib/106441644910687159918\">Wellness Diabetes Speciality Clinics</a>"], "height": 1077}], "scope": "GOOGLE", "business_status": "OPERATIONAL", "types": ["hospital", "health", "point_of_interest", "establishment"], "icon": "https://maps.gstatic.com/mapfiles/place_api/icons/v1/png_71/doctor-71.png"}, {"rating": 4.8, "user_ratings_total": 5, "name": "Tara Neo-Surg. Hospital", "reference": "ChIJOzyzJCbG5zsRyaqTKK4KljQ", "geometry": {"location": {"lat": 19.0756919, "lng": 72.9029647}, "viewport": {"northeast": {"lat": 19.0769924302915, "lng": 72.90450378029149}, "southwest": {"lat": 19.0742944697085, "lng": 72.90180581970849}}}, "opening_hours": {"open_now": false}, "place_id": "ChIJOzyzJCbG5zsRyaqTKK4KljQ", "plus_code": {"global_code": "7JFJ3WG3+75", "compound_code": "3WG3+75 Mumbai, Maharashtra, India"}, "vicinity": "C-5, Satyam Shopping Centre, Mahatma Gandhi Road, Ghatkopar (E), Ghatkopar East, Mumbai", "photos": [{"photo_reference": "CmRaAAAAukURfW5dvLnShhilZztBujptLGg12PT8Mne_3WzbToGQcQKFQaUGTzZ6QIhOB7O6Cw87HOcy02keko3bzN2XQFdfYz5_7h_eBkHMhXB1t1QTbFjW1DKthlmODTjmpDEuEhCwZUip4cCmunyoEY0lt_9xGhT2sN50qivqa2T0mrj2CVTTYGJx1g", "width": 4928, "html_attributions": ["<a href=\"https://maps.google.com/maps/contrib/106315388256358699146\">Support directindia</a>"], "height": 3264}], "scope": "GOOGLE", "business_status": "OPERATIONAL", "types": ["hospital", "health", "point_of_interest", "establishment"], "icon": "https://maps.gstatic.com/mapfiles/place_api/icons/v1/png_71/doctor-71.png"}, {"rating": 4.8, "user_ratings_total": 124, "name": "Dr. Jatin Ashar", "reference": "ChIJP9lPUxbJ5zsRtXfFlP21DI4", "geometry": {"location": {"lat": 19.074813, "lng": 72.905418}, "viewport": {"northeast": {"lat": 19.0761730302915, "lng": 72.9066656802915}, "southwest": {"lat": 19.07347506970849, "lng": 72.90396771970849}}}, "opening_hours": {"open_now": false}, "place_id": "ChIJP9lPUxbJ5zsRtXfFlP21DI4", "plus_code": {"global_code": "7JFJ3WF4+W5", "compound_code": "3WF4+W5 Mumbai, Maharashtra, India"}, "vicinity": "nr. Vikrant Circle, Sai Vaibhav CHS, nr. Vikrant Circle, Ghatkopar East, Mumbai", "photos": [{"photo_reference": "CmRaAAAAitH9YecBkxxnqqlO_2Mo36X9CILpNS2RmyQ2d0wWTJNoqR84mnXzj8SoHNQiAfjFX9DXvRvotjS6pxZQt4mgDKDDprscLDFD6ZbXu8UrHwTtSYWZ0-TU8YozhDfRxWJQEhAQJL3TZPpBAIcAOk5EMCZqGhTYWM-b6jf6snwr03tVsjhuJ2sTug", "width": 5312, "html_attributions": ["<a href=\"https://maps.google.com/maps/contrib/104192962466946244332\">Dr. Jatin Ashar</a>"], "height": 2988}], "scope": "GOOGLE", "business_status": "OPERATIONAL", "types": ["hospital", "doctor", "health", "point_of_interest", "establishment"], "icon": "https://maps.gstatic.com/mapfiles/place_api/icons/v1/png_71/generic_business-71.png"}, {"name": "Siddhivinayak medical", "reference": "ChIJq1361inG5zsRZTNrsvLBf5E", "geometry": {"location": {"lat": 19.0789964, "lng": 72.899017}, "viewport": {"northeast": {"lat": 19.0802690302915, "lng": 72.90026078029152}, "southwest": {"lat": 19.07757106970849, "lng": 72.8975628197085}}}, "opening_hours": {"open_now": true}, "place_id": "ChIJq1361inG5zsRZTNrsvLBf5E", "plus_code": {"global_code": "7JFJ3VHX+HJ", "compound_code": "3VHX+HJ Mumbai, Maharashtra, India"}, "vicinity": "Near Rajawadi hospital (E), Vidyavihar, Mumbai", "scope": "GOOGLE", "business_status": "OPERATIONAL", "types": ["hospital", "health", "point_of_interest", "establishment"], "icon": "https://maps.gstatic.com/mapfiles/place_api/icons/v1/png_71/doctor-71.png"}, {"name": "Palash Homoeopathic Consultancy", "reference": "ChIJmWDkQi_G5zsRR_wHA9DYSpU", "geometry": {"location": {"lat": 19.0793514, "lng": 72.90146610000001}, "viewport": {"northeast": {"lat": 19.0808068802915, "lng": 72.90283368029151}, "southwest": {"lat": 19.0781089197085, "lng": 72.9001357197085}}}, "place_id": "ChIJmWDkQi_G5zsRR_wHA9DYSpU", "plus_code": {"global_code": "7JFJ3WH2+PH", "compound_code": "3WH2+PH Mumbai, Maharashtra, India"}, "vicinity": "Shop No 10 Savani Apartment, Rajawadi Naka, Ghatkopar East, Mumbai", "scope": "GOOGLE", "business_status": "OPERATIONAL", "types": ["hospital", "health", "point_of_interest", "establishment"], "icon": "https://maps.gstatic.com/mapfiles/place_api/icons/v1/png_71/doctor-71.png"}, {"rating": 3.6, "user_ratings_total": 5, "name": "Seth V.C Gandhi & M.A. Vora Municipal General Hospital", "reference": "ChIJgVAxqCnG5zsRaOThTAgo-Lc", "geometry": {"location": {"lat": 19.0793049, "lng": 72.9016939}, "viewport": {"northeast": {"lat": 19.0807657302915, "lng": 72.90306238029152}, "southwest": {"lat": 19.0780677697085, "lng": 72.9003644197085}}}, "place_id": "ChIJgVAxqCnG5zsRaOThTAgo-Lc", "plus_code": {"global_code": "7JFJ3WH2+PM", "compound_code": "3WH2+PM Mumbai, Maharashtra, India"}, "vicinity": "Chittranjan Nagar, Rajawadi Colony, Ghatkopar East, Mumbai", "scope": "GOOGLE", "business_status": "OPERATIONAL", "types": ["hospital", "health", "point_of_interest", "establishment"], "icon": "https://maps.gstatic.com/mapfiles/place_api/icons/v1/png_71/doctor-71.png"}, {"rating": 3.5, "user_ratings_total": 194, "name": "H. J. Doshi Ghatkopar Hindu Sabha Hospital", "reference": "ChIJr2Wr9CzG5zsRTK7q8R0TTQA", "geometry": {"location": {"lat": 19.0852596, "lng": 72.90620720000001}, "viewport": {"northeast": {"lat": 19.0865113302915, "lng": 72.90763493029151}, "southwest": {"lat": 19.0838133697085, "lng": 72.9049369697085}}}, "opening_hours": {"open_now": true}, "place_id": "ChIJr2Wr9CzG5zsRTK7q8R0TTQA", "plus_code": {"global_code": "7JFJ3WP4+4F", "compound_code": "3WP4+4F Mumbai, Maharashtra, India"}, "vicinity": "opp. Railway Station, Shraddhanand Road, Kapol wadi, Ghatkopar West, Mumbai", "photos": [{"photo_reference": "CmRaAAAAago2PIKekEqEqPC5Uai7SL_t-LiTGjMrKTjaBXu-Op0TQIssB6XtmDtLhIcHuts4uS33tHQEqmohW3EXUB_BUlg2XWSMujJEv-RfazzhY02Gd6EggzzfdJy8Sn8I6MvAEhAor21fmN_sv7nn7PRrspsOGhRFKMvhW2uShqIR1Rf9n7ipC1DryQ", "width": 4608, "html_attributions": ["<a href=\"https://maps.google.com/maps/contrib/110854211348346214087\">Abdul Rub Shaikh</a>"], "height": 3456}], "scope": "GOOGLE", "business_status": "OPERATIONAL", "types": ["hospital", "health", "point_of_interest", "establishment"], "icon": "https://maps.gstatic.com/mapfiles/place_api/icons/v1/png_71/doctor-71.png"}, {"rating": 3.2, "user_ratings_total": 39, "name": "Bakul Parekh Children's Hospital", "reference": "ChIJMRnSJynG5zsRDXuNMDG1rf0", "geometry": {"location": {"lat": 19.079211, "lng": 72.9037361}, "viewport": {"northeast": {"lat": 19.0806217802915, "lng": 72.90509143029152}, "southwest": {"lat": 19.0779238197085, "lng": 72.9023934697085}}}, "place_id": "ChIJMRnSJynG5zsRDXuNMDG1rf0", "plus_code": {"global_code": "7JFJ3WH3+MF", "compound_code": "3WH3+MF Mumbai, Maharashtra, India"}, "vicinity": "4th Floor, Jayant Arcade, Near Rajawadi Signal, M.G.Road, Ghatkopar East, Mumbai", "scope": "GOOGLE", "business_status": "OPERATIONAL", "types": ["hospital", "health", "point_of_interest", "establishment"], "icon": "https://maps.gstatic.com/mapfiles/place_api/icons/v1/png_71/doctor-71.png"}, {"rating": 4.7, "user_ratings_total": 9, "name": "Devang Multispecialty Eye Care", "reference": "ChIJpYY6TynG5zsRfdqW2z4Zyo8", "geometry": {"location": {"lat": 19.080925, "lng": 72.904074}, "viewport": {"northeast": {"lat": 19.0822793302915, "lng": 72.90542428029151}, "southwest": {"lat": 19.0795813697085, "lng": 72.9027263197085}}}, "opening_hours": {"open_now": false}, "place_id": "ChIJpYY6TynG5zsRfdqW2z4Zyo8", "plus_code": {"global_code": "7JFJ3WJ3+9J", "compound_code": "3WJ3+9J Mumbai, Maharashtra, India"}, "vicinity": "near Pooja Hotel, 2nd floor, Bhaveshwar Market, M. G. Road,, near Pooja Hotel, Ghatkopar East, Mumbai", "photos": [{"photo_reference": "CmRaAAAAPq_iJRJqeclhCnvwa88c_gbqUviDcgWh6rvNuRkPvxLjJU7PC-QlxVT2peh3K05w0502S4X-xMx2G1OrrKtDIDSo7TFdoVpLK4Rs1DRa0ba1AILfWAQzlcOUjB8YeJDdEhD83Prf28tOAnoYr3Uw6EKGGhQvG6XazM1BiQLMghcSMRQ0YkmVZw", "width": 4752, "html_attributions": ["<a href=\"https://maps.google.com/maps/contrib/111492203713756746662\">Devang Multispecialty Eye Care</a>"], "height": 3168}], "scope": "GOOGLE", "business_status": "OPERATIONAL", "types": ["hospital", "health", "point_of_interest", "establishment"], "icon": "https://maps.gstatic.com/mapfiles/place_api/icons/v1/png_71/doctor-71.png"}, {"name": "SMIQ PHARMA", "reference": "ChIJoRT8VCrG5zsRrburj6VYFLg", "geometry": {"location": {"lat": 19.0842836, "lng": 72.9016042}, "viewport": {"northeast": {"lat": 19.0856497302915, "lng": 72.9029005302915}, "southwest": {"lat": 19.0829517697085, "lng": 72.9002025697085}}}, "opening_hours": {"open_now": false}, "place_id": "ChIJoRT8VCrG5zsRrburj6VYFLg", "plus_code": {"global_code": "7JFJ3WM2+PJ", "compound_code": "3WM2+PJ Mumbai, Maharashtra, India"}, "vicinity": "Flat No. 211, Bhaveshwar Complex,, Station Road, Nathani Road, Vidyavihar Society, Ghatkopar West, Mumbai", "scope": "GOOGLE", "business_status": "OPERATIONAL", "types": ["hospital", "health", "point_of_interest", "establishment"], "icon": "https://maps.gstatic.com/mapfiles/place_api/icons/v1/png_71/doctor-71.png"}, {"rating": 4.7, "user_ratings_total": 420, "name": "QI Spine Clinic - The Back & Neck Pain Specialists in Ghatkopar, Mumbai", "reference": "ChIJH_zrECbG5zsRPn5fU5dns5Q", "geometry": {"location": {"lat": 19.0753372, "lng": 72.9028506}, "viewport": {"northeast": {"lat": 19.0766480302915, "lng": 72.9044021302915}, "southwest": {"lat": 19.07395006970849, "lng": 72.90170416970848}}}, "opening_hours": {"open_now": false}, "place_id": "ChIJH_zrECbG5zsRPn5fU5dns5Q", "plus_code": {"global_code": "7JFJ3WG3+44", "compound_code": "3WG3+44 Mumbai, Maharashtra, India"}, "vicinity": "Unit No 2, B Wing, Satyam Shopping Complex, Mahatma Gandhi Road, Ghatkopar East, Mumbai", "photos": [{"photo_reference": "CmRaAAAAdT4r02_akogQbULoUlh6c_qEE4nRY3jOUZiztwmo2Ns3tyqo6TQlzbSt2x0xIABq3aDAxBJ0-4_iYXcJZ9Clq5LOKGSWCnyhwejf6sDEuAXJL1YyBtH92hgWiH6Af6ZtEhAdHOPG5DSBcur1eetmQ2wBGhQlC58R_W2_JrAOCUX0diO-JE1Ogw", "width": 2000, "html_attributions": ["<a href=\"https://maps.google.com/maps/contrib/100902842158840797088\">QI Spine Clinic - The Back &amp; Neck Pain Specialists in Ghatkopar, Mumbai</a>"], "height": 1125}], "scope": "GOOGLE", "business_status": "OPERATIONAL", "types": ["physiotherapist", "hospital", "doctor", "health", "point_of_interest", "establishment"], "icon": "https://maps.gstatic.com/mapfiles/place_api/icons/v1/png_71/generic_business-71.png"}, {"rating": 2.3, "user_ratings_total": 3, "name": "Dr. Trivedi's Maternity Nursing Home & Aakar IVF Test Tube Baby Centre", "reference": "ChIJC15AOy_G5zsRBmKxyecA5fA", "geometry": {"location": {"lat": 19.0783269, "lng": 72.9057349}, "viewport": {"northeast": {"lat": 19.0796871802915, "lng": 72.9070208302915}, "southwest": {"lat": 19.0769892197085, "lng": 72.9043228697085}}}, "place_id": "ChIJC15AOy_G5zsRBmKxyecA5fA", "plus_code": {"global_code": "7JFJ3WH4+87", "compound_code": "3WH4+87 Mumbai, Maharashtra, India"}, "vicinity": "above Axis Bank, 5th Sai Heritage, above Axis Bank, Tilak Road, Ghatkopar East, Mumbai", "photos": [{"photo_reference": "CmRaAAAAxlB6b46oDUTR4ZBja-Ws8mwNMhvlgcL3kx5ZoD20CiOG81aJe2_kcUyezItN5fnziesnuIsJAA4HHd8tY7Dlx6Z--ib7LgOyxD_3CpJ68Oo5lz2BgX6farn1uJYlO69YEhAnL6Smw_yOd0nEI1lIlgo1GhSwaB-sBzY7KNwngubXrOV9kv4cEg", "width": 4608, "html_attributions": ["<a href=\"https://maps.google.com/maps/contrib/103695598531537004509\">Dr Gorakh Bobde</a>"], "height": 1265}], "scope": "GOOGLE", "business_status": "OPERATIONAL", "types": ["hospital", "doctor", "health", "point_of_interest", "establishment"], "icon": "https://maps.gstatic.com/mapfiles/place_api/icons/v1/png_71/doctor-71.png"}, {"rating": 3.4, "user_ratings_total": 5, "name": "Jitendra Medical & General stores", "reference": "ChIJxS2Tqy_G5zsR_OALy4eZCUo", "geometry": {"location": {"lat": 19.0789598, "lng": 72.9059259}, "viewport": {"northeast": {"lat": 19.0803261302915, "lng": 72.90720573029151}, "southwest": {"lat": 19.0776281697085, "lng": 72.9045077697085}}}, "opening_hours": {"open_now": true}, "place_id": "ChIJxS2Tqy_G5zsR_OALy4eZCUo", "plus_code": {"global_code": "7JFJ3WH4+H9", "compound_code": "3WH4+H9 Mumbai, Maharashtra, India"}, "vicinity": "opp. Cafe Coffeeday est, Shop no 1 Mahesh kunj, opp. Cafe Coffeeday est, Tilak Road, Ghatkopar, Sindhu Wadi, Ghatkopar East, Mumbai", "scope": "GOOGLE", "business_status": "OPERATIONAL", "types": ["hospital", "health", "point_of_interest", "establishment"], "icon": "https://maps.gstatic.com/mapfiles/place_api/icons/v1/png_71/doctor-71.png"}, {"rating": 4.9, "user_ratings_total": 21, "name": "Parekh Eye & Child Clinic", "reference": "ChIJw7oTUyzG5zsRjoYg4rQe0Xg", "geometry": {"location": {"lat": 19.0846482, "lng": 72.90762889999999}, "viewport": {"northeast": {"lat": 19.0860534802915, "lng": 72.9089410802915}, "southwest": {"lat": 19.08335551970849, "lng": 72.90624311970849}}}, "opening_hours": {"open_now": false}, "place_id": "ChIJw7oTUyzG5zsRjoYg4rQe0Xg", "plus_code": {"global_code": "7JFJ3WM5+V3", "compound_code": "3WM5+V3 Mumbai, Maharashtra, India"}, "vicinity": "above Hotel Samrat, 301, Madhv Apartment, above Hotel Samrat, opposite Railway Station, Ghatkopar East, Mumbai", "photos": [{"photo_reference": "CmRZAAAAU4uT5p6mxfpOxIxVn2Y44GfVKxDEHPJrdL0ir2xB4Tp-5aqMTJFEcPzOZfnKZcJ60UpYZwjZ_kPBqTLRWPWmMK6MQe0ib4rZqZQ6E3E0UOgs40aIeFBs4a-Uoannrz8HEhDaASFWauz0KJihB4WM4H9IGhTvJ_MwIw2grHkHIAG2IL7cUpi9Kw", "width": 6016, "html_attributions": ["<a href=\"https://maps.google.com/maps/contrib/117354262697449159467\">Support directindia</a>"], "height": 4016}], "scope": "GOOGLE", "business_status": "OPERATIONAL", "types": ["hospital", "doctor", "health", "point_of_interest", "establishment"], "icon": "https://maps.gstatic.com/mapfiles/place_api/icons/v1/png_71/generic_business-71.png"}, {"rating": 4.9, "user_ratings_total": 902, "name": "Mumbai Eye Care - Eye Clinic & Eye Hospital", "reference": "ChIJoefjwzHG5zsRw-vaOkZvTo4", "geometry": {"location": {"lat": 19.074794, "lng": 72.905408}, "viewport": {"northeast": {"lat": 19.0761536302915, "lng": 72.90665943029151}, "southwest": {"lat": 19.07345566970849, "lng": 72.90396146970849}}}, "opening_hours": {"open_now": false}, "place_id": "ChIJoefjwzHG5zsRw-vaOkZvTo4", "plus_code": {"global_code": "7JFJ3WF4+W5", "compound_code": "3WF4+W5 Mumbai, Maharashtra, India"}, "vicinity": "101/102, Sai Vaibhav CHS,, Nr. Vikrant Circle, Ghatkopar East, Mumbai", "photos": [{"photo_reference": "CmRaAAAA1kSjbHRK3BfCsGBs5BltAjejoySa445cNaWyYpS7ZGtKbvzfds-e0U1zL5eSVYVNT1A9LklXE_ulU1wRiE-FDdsmXZ-dLIOWlsV_HmfDfjgPjVk5uKHKqx9JNTYoAOtjEhDIDq3Ts12kgCdIFK2cohqrGhRTuwrZyh0O8cyyxu53HjQyJjiVYw", "width": 4928, "html_attributions": ["<a href=\"https://maps.google.com/maps/contrib/105874894088074146728\">Support directindia</a>"], "height": 3264}], "scope": "GOOGLE", "business_status": "OPERATIONAL", "types": ["hospital", "doctor", "health", "point_of_interest", "establishment"], "icon": "https://maps.gstatic.com/mapfiles/place_api/icons/v1/png_71/generic_business-71.png"}, {"name": "Creative Engineers", "reference": "ChIJCb0XisXH5zsR9xB-dyUhCJM", "geometry": {"location": {"lat": 19.087525, "lng": 72.90257489999999}, "viewport": {"northeast": {"lat": 19.0888664802915, "lng": 72.9038876302915}, "southwest": {"lat": 19.0861685197085, "lng": 72.9011896697085}}}, "place_id": "ChIJCb0XisXH5zsR9xB-dyUhCJM", "plus_code": {"global_code": "7JFJ3WQ3+22", "compound_code": "3WQ3+22 Mumbai, Maharashtra, India"}, "vicinity": "B-101, Ghatkopar Industrial Estate, L B S Marg, L B S Marg, Mumbai", "scope": "GOOGLE", "business_status": "OPERATIONAL", "types": ["hospital", "health", "point_of_interest", "establishment"], "icon": "https://maps.gstatic.com/mapfiles/place_api/icons/v1/png_71/generic_business-71.png"}, {"rating": 4.2, "user_ratings_total": 64, "name": "Neptune Diagnostics", "reference": "ChIJQ1c_wi3G5zsR2bFyGb3LUOs", "geometry": {"location": {"lat": 19.0832945, "lng": 72.9090439}, "viewport": {"northeast": {"lat": 19.0846381802915, "lng": 72.91045983029152}, "southwest": {"lat": 19.0819402197085, "lng": 72.9077618697085}}}, "opening_hours": {"open_now": false}, "place_id": "ChIJQ1c_wi3G5zsR2bFyGb3LUOs", "plus_code": {"global_code": "7JFJ3WM5+8J", "compound_code": "3WM5+8J Mumbai, Maharashtra, India"}, "vicinity": "above Bharat Bank, 201, Khodal chambers, Patel chowk , Next to Vodafone store, above Bharat Bank, RB Mehta Marg, Ghatkopar East, Mumbai", "photos": [{"photo_reference": "CmRaAAAAnCF11OcNXvKrt8X9gGq_W8DQinIrpsW6Vz09LDy_OsrTlN0wf_yqkwFxl8oO07cwZQdCv54rG-j2CFtPeMwloAffgOsGw_8iQumMd-p986HVPFMRkjQENOFq9OOekgMkEhC7c9Zj0jIMIx0TBVNk71uGGhSFVlH7pemPvEB9zfyGJ6O5sB154Q", "width": 1080, "html_attributions": ["<a href=\"https://maps.google.com/maps/contrib/113262117256129364509\">Neptune Diagnostics</a>"], "height": 810}], "scope": "GOOGLE", "business_status": "OPERATIONAL", "types": ["hospital", "doctor", "health", "point_of_interest", "establishment"], "icon": "https://maps.gstatic.com/mapfiles/place_api/icons/v1/png_71/generic_business-71.png"}, {"rating": 5, "user_ratings_total": 277, "name": "Sharan Hospital - Orthopaedic | Opthalmologist | Dental | Maxillofacial", "reference": "ChIJl_gVStPH5zsR6ZTvDCBOdxo", "geometry": {"location": {"lat": 19.0878502, "lng": 72.90609909999999}, "viewport": {"northeast": {"lat": 19.0891316802915, "lng": 72.9073026802915}, "southwest": {"lat": 19.0864337197085, "lng": 72.90460471970849}}}, "opening_hours": {"open_now": true}, "place_id": "ChIJl_gVStPH5zsR6ZTvDCBOdxo", "plus_code": {"global_code": "7JFJ3WQ4+4C", "compound_code": "3WQ4+4C Mumbai, Maharashtra, India"}, "vicinity": "Dipti Solitaire, 101, First floor, above Axis Bank, Mahatma Gandhi Road, Kapol wadi, Ghatkopar West, Mumbai", "photos": [{"photo_reference": "CmRaAAAAu3P_HsPLUSFtfYlISQIHZ_6xRWuKUkej3EQxDZW6KsCzEN3gIFcuQbX0udoYEBT3k3a1VEPE6BEicqJQ7sII0tRQkedDfYFzF_eRb5q-Sfn8wURyGF6nYKjSDOZBgyrKEhBMqQTBLDLLmMPduK74-FHeGhS-PrudPV__76Cf-lmT2_i354ECHg", "width": 1032, "html_attributions": ["<a href=\"https://maps.google.com/maps/contrib/116696738686635879053\">Sharan Hospital - Orthopaedic | Opthalmologist | Dental | Maxillofacial</a>"], "height": 580}], "scope": "GOOGLE", "business_status": "OPERATIONAL", "types": ["hospital", "doctor", "dentist", "health", "point_of_interest", "establishment"], "icon": "https://maps.gstatic.com/mapfiles/place_api/icons/v1/png_71/doctor-71.png"}]}