{"status": "OK", "next_page_token": "CqQCGgEAAFM-YMBN-7FsofdKDoCkWnVWkL6at7XY7vaVeHDAk83HDd0CfHiNsbuPxEsenCZ92DY4ukBSe0t7IGBTZzQ-EDntb9elSC2F7YjrAdPtfvoUGV8xaLjwBZ31DIg8xGyhLPe1IP3TmZVLCCjJktxuoSkpI1YMjEC9FlQfg2QlyjBK2vgUJt8v9g1P7hHdRqOGLMyBfRJr1FF2ylIyKjzsrLGWd8NzogKB7h7y9QvgqckUx2AljHQzj-vP4P_RCTeks_WyCPGYWloElxNfCKUTo6VIyMGzwNGFAaPq5nHqsfHxWFvp2delhAOfE-tNqHVVNQxtX6njnOUajbjbqoNKABW2R7KbBjGsCbUJbiPc1PV0WKMB_XxoLtael-_ae-utMBIQ0Xx9D0Ia9gHN40gFbVKFmhoUNOvfElV9woc7J-8Gm84ocOM0T1U", "html_attributions": [], "results": [{"rating": 3, "user_ratings_total": 2, "name": "Life Care Medical Systems", "reference": "ChIJM4S9cFy45zsRYYSppxm0rRg", "geometry": {"location": {"lat": 19.1654517, "lng": 72.9372491}, "viewport": {"northeast": {"lat": 19.1667272802915, "lng": 72.93856628029151}, "southwest": {"lat": 19.1640293197085, "lng": 72.93586831970849}}}, "opening_hours": {"open_now": false}, "place_id": "ChIJM4S9cFy45zsRYYSppxm0rRg", "plus_code": {"global_code": "7JFJ5W8P+5V", "compound_code": "5W8P+5V Mumbai, Maharashtra, India"}, "vicinity": "near Shoppers Stop, 303/304, The Corporate Centre, Nirmal Life Style, L.B.S Marg,Mulund (W), near Shoppers Stop, Mumbai", "scope": "GOOGLE", "business_status": "OPERATIONAL", "types": ["hospital", "health", "point_of_interest", "establishment"], "icon": "https://maps.gstatic.com/mapfiles/place_api/icons/v1/png_71/generic_business-71.png"}, {"rating": 4, "user_ratings_total": 2, "name": "Ventilator dealing companies", "reference": "ChIJVVVVVVa45zsRx_AXAoQSAzM", "geometry": {"location": {"lat": 19.1657252, "lng": 72.9373368}, "viewport": {"northeast": {"lat": 19.1668691302915, "lng": 72.9385969802915}, "southwest": {"lat": 19.1641711697085, "lng": 72.9358990197085}}}, "place_id": "ChIJVVVVVVa45zsRx_AXAoQSAzM", "plus_code": {"global_code": "7JFJ5W8P+7W", "compound_code": "5W8P+7W Mulund, Mumbai, Maharashtra, India"}, "vicinity": "Lifecare Medical Systems, 303, The corporate centre , Near Nirmal LifeStyle,L.B.S marg, mulund west, Mulund", "scope": "GOOGLE", "business_status": "OPERATIONAL", "types": ["hospital", "health", "point_of_interest", "establishment"], "icon": "https://maps.gstatic.com/mapfiles/place_api/icons/v1/png_71/doctor-71.png"}, {"name": "Hospital", "reference": "ChIJO42_QV645zsRxAXulrGFl4k", "geometry": {"location": {"lat": 19.1614516, "lng": 72.9415434}, "viewport": {"northeast": {"lat": 19.1630586802915, "lng": 72.9426073802915}, "southwest": {"lat": 19.1603607197085, "lng": 72.93990941970848}}}, "opening_hours": {"open_now": true}, "place_id": "ChIJO42_QV645zsRxAXulrGFl4k", "plus_code": {"global_code": "7JFJ5W6R+HJ", "compound_code": "5W6R+HJ Mumbai, Maharashtra, India"}, "vicinity": "Industrial Area, Bhandup West, Mumbai", "scope": "GOOGLE", "business_status": "OPERATIONAL", "types": ["hospital", "health", "point_of_interest", "establishment"], "icon": "https://maps.gstatic.com/mapfiles/place_api/icons/v1/png_71/doctor-71.png"}, {"rating": 4.3, "user_ratings_total": 1588, "name": "Fortis Hospital Mulund", "reference": "ChIJYdMKQV645zsRluAWkv57qWw", "geometry": {"location": {"lat": 19.1620779, "lng": 72.9419882}, "viewport": {"northeast": {"lat": 19.1635366302915, "lng": 72.94338313029151}, "southwest": {"lat": 19.1608386697085, "lng": 72.9406851697085}}}, "opening_hours": {"open_now": true}, "place_id": "ChIJYdMKQV645zsRluAWkv57qWw", "plus_code": {"global_code": "7JFJ5W6R+RQ", "compound_code": "5W6R+RQ Mumbai, Maharashtra, India"}, "vicinity": "Mulund Goregaon Link Road, Nahur West, Industrial Area, Mumbai", "photos": [{"photo_reference": "CmRaAAAAXRqSREMkZ-7lQ4SvKC2lxi4XuOHC1XCXyC9D5k81bH6R2hOrKY5hxlzVjTfSezuHqnKE5UIUxW3TbZa7eDwYKcSZ8ITuRiH2xceoA_tRz6eTJdP_ClAP21fdY2ISCZQ-EhBcGVADwYGl8WeDE-RXm2WoGhQ-GYLEqXaHAKWFsxXICsZqvqTQQA", "width": 4288, "html_attributions": ["<a href=\"https://maps.google.com/maps/contrib/108720124010303376524\">Fortis Hospital Mulund</a>"], "height": 2848}], "scope": "GOOGLE", "business_status": "OPERATIONAL", "types": ["hospital", "health", "point_of_interest", "establishment"], "icon": "https://maps.gstatic.com/mapfiles/place_api/icons/v1/png_71/doctor-71.png"}, {"rating": 5, "user_ratings_total": 1, "name": "Ayufit Wellness Club", "reference": "ChIJVa36tVy45zsR-EzFRIkZa5o", "geometry": {"location": {"lat": 19.1638429, "lng": 72.9345709}, "viewport": {"northeast": {"lat": 19.1653917302915, "lng": 72.93598898029151}, "southwest": {"lat": 19.1626937697085, "lng": 72.9332910197085}}}, "opening_hours": {"open_now": true}, "place_id": "ChIJVa36tVy45zsR-EzFRIkZa5o", "plus_code": {"global_code": "7JFJ5W7M+GR", "compound_code": "5W7M+GR Mumbai, Maharashtra, India"}, "vicinity": "RM NO-7, Dargah Road, Sonapur, Bhandup West, Mumbai", "photos": [{"photo_reference": "CmRaAAAA8M1we9nTjsgevfjS6yyp33H8zzPx_4H6qgNpUCKTjyxpVUz7XdwcBlT5CRWSSxuxbvNMs3GOl7IhkNoIvIFVCL7oe9Sq2Lsl9-4gdXKNHBDYHWtw7QJbEB7znkA3jIIDEhCjhq0hINKTO561gKkJ6ZeeGhRXcEApWJGwZAf3_98S_traN6iFgQ", "width": 4160, "html_attributions": ["<a href=\"https://maps.google.com/maps/contrib/102796338007274363990\">Mohd Mubarak</a>"], "height": 3120}], "scope": "GOOGLE", "business_status": "OPERATIONAL", "types": ["hospital", "health", "point_of_interest", "establishment"], "icon": "https://maps.gstatic.com/mapfiles/place_api/icons/v1/png_71/doctor-71.png"}, {"rating": 3.8, "user_ratings_total": 22, "name": "DR BHATIA\u2019S HOSPITAL,BHANDUP", "reference": "ChIJyY9UdmS45zsR8TYwATge-8M", "geometry": {"location": {"lat": 19.1522254, "lng": 72.9399613}, "viewport": {"northeast": {"lat": 19.1536491802915, "lng": 72.9413127302915}, "southwest": {"lat": 19.1509512197085, "lng": 72.9386147697085}}}, "opening_hours": {"open_now": true}, "place_id": "ChIJyY9UdmS45zsR8TYwATge-8M", "plus_code": {"global_code": "7JFJ5W2Q+VX", "compound_code": "5W2Q+VX Mumbai, Maharashtra, India"}, "vicinity": "Shraddha Building, Bhandup Village Road, Bhandup West, Mumbai", "photos": [{"photo_reference": "CmRaAAAAa_Ie4r6M5kSpQ_yp5BWSPF1nQbbykGEzBEZUJZyLbJslLbpaGz5AqkMKjrcY3lzf8yI8JncEm97zpIj_F6WvijRTOidS9xTQOQHTU82IFvxKp07indL2sCNBO9lxnwCZEhBFB3Jni0e4uH9soBqgRA4HGhQ2z5upUpLvNdD7D5EWnPX0Mzw3vg", "width": 3120, "html_attributions": ["<a href=\"https://maps.google.com/maps/contrib/106529802403864699633\">drvishal mohite</a>"], "height": 4160}], "scope": "GOOGLE", "business_status": "OPERATIONAL", "types": ["hospital", "health", "point_of_interest", "establishment"], "icon": "https://maps.gstatic.com/mapfiles/place_api/icons/v1/png_71/doctor-71.png"}, {"name": "Smile Care And Implant Center", "reference": "ChIJrwbwxFi45zsRxZb1xpRL7D8", "geometry": {"location": {"lat": 19.16705319999999, "lng": 72.9441805}, "viewport": {"northeast": {"lat": 19.1684178302915, "lng": 72.9455383802915}, "southwest": {"lat": 19.1657198697085, "lng": 72.94284041970849}}}, "opening_hours": {"open_now": false}, "place_id": "ChIJrwbwxFi45zsRxZb1xpRL7D8", "plus_code": {"global_code": "7JFJ5W8V+RM", "compound_code": "5W8V+RM Mumbai, Maharashtra, India"}, "vicinity": "Shop no C/S \u2013 3, Saidham Complex CHS, Near St.Mary\u2019s High School, Adjacent Sai Super Market, Purushottam Kheraj Road Extension, Keshav Pada, St.Plus Road, Asha Nagar, Mulund West, Mumbai", "scope": "GOOGLE", "business_status": "OPERATIONAL", "types": ["hospital", "dentist", "health", "point_of_interest", "establishment"], "icon": "https://maps.gstatic.com/mapfiles/place_api/icons/v1/png_71/generic_business-71.png"}, {"rating": 4.4, "user_ratings_total": 203, "name": "RichFeel Trichology Center", "reference": "ChIJT2hFM1q45zsR3piWJ9k3R6E", "geometry": {"location": {"lat": 19.1679799, "lng": 72.939533}, "viewport": {"northeast": {"lat": 19.1691876802915, "lng": 72.9408129802915}, "southwest": {"lat": 19.1664897197085, "lng": 72.93811501970849}}}, "opening_hours": {"open_now": true}, "place_id": "ChIJT2hFM1q45zsR3piWJ9k3R6E", "plus_code": {"global_code": "7JFJ5W9Q+5R", "compound_code": "5W9Q+5R Mumbai, Maharashtra, India"}, "vicinity": "Bus stop, 554/D, Ground Floor, Friends C.H Education Charity Trust LBS marg Opp.Vasant Oscar,Behind Dunncan Company, Asha Nagar, Mulund West, Mumbai", "photos": [{"photo_reference": "CmRaAAAASSTOvXI0zm6OpuxGsmWN-Ap_JcayH87VOnk9udO_x2nSaBaNt5-nUVaAgBaxQ3lSMLAlRhBnsTt_yHqT5BeUbKSPcUfzrghLcMjqCMTWXxkb08AOG_fFWeIRZ6RigvqfEhDggVDR3A3qT9lMjS8GqFqHGhRpts0sOMM4l1pcQmSU_tqg6OiyNQ", "width": 4608, "html_attributions": ["<a href=\"https://maps.google.com/maps/contrib/105548294800817171278\">RichFeel Trichology Center</a>"], "height": 3456}], "scope": "GOOGLE", "business_status": "OPERATIONAL", "types": ["beauty_salon", "hair_care", "hospital", "health", "point_of_interest", "establishment"], "icon": "https://maps.gstatic.com/mapfiles/place_api/icons/v1/png_71/generic_business-71.png"}, {"rating": 5, "user_ratings_total": 1, "name": "Shivaani Mother And Child Care", "reference": "ChIJrW14y1u45zsRkjtuLWKGIuw", "geometry": {"location": {"lat": 19.1683855, "lng": 72.9389849}, "viewport": {"northeast": {"lat": 19.1695506302915, "lng": 72.9401693302915}, "southwest": {"lat": 19.16685266970849, "lng": 72.93747136970848}}}, "place_id": "ChIJrW14y1u45zsRkjtuLWKGIuw", "plus_code": {"global_code": "7JFJ5W9Q+9H", "compound_code": "5W9Q+9H Mumbai, Maharashtra, India"}, "vicinity": "Hallmark Complex, Marathon Avenue, Vasant Oscar, Mumbai", "scope": "GOOGLE", "business_status": "OPERATIONAL", "types": ["hospital", "health", "point_of_interest", "establishment"], "icon": "https://maps.gstatic.com/mapfiles/place_api/icons/v1/png_71/doctor-71.png"}, {"rating": 3.2, "user_ratings_total": 17, "name": "Chandan Charitable Hospital", "reference": "ChIJAS94fWS45zsReGZ49S1dltY", "geometry": {"location": {"lat": 19.1513645, "lng": 72.9395833}, "viewport": {"northeast": {"lat": 19.15271133029151, "lng": 72.9409409802915}, "southwest": {"lat": 19.1500133697085, "lng": 72.9382430197085}}}, "opening_hours": {"open_now": false}, "place_id": "ChIJAS94fWS45zsReGZ49S1dltY", "plus_code": {"global_code": "7JFJ5W2Q+GR", "compound_code": "5W2Q+GR Mumbai, Maharashtra, India"}, "vicinity": "10, Chandan Niwas, Sai Baug, Bhandup Village Road, Mumbai", "photos": [{"photo_reference": "CmRaAAAAGTwYEHuD2lwZfh_ccWc5FaheTWLNvFA8j2gkiVGgprd7rhmpmDXuqjZc-yE1V-356Kq8NJDXGf07mnhhHxmY7INGAMcT51w1hgOCy56pVD-nJL-n8IPXbKl4JktlJHlREhCiiBLff2ajwXu0fACjPO-2GhRYKEPQYjsEOWiOdmVUg_Vl_i7mkQ", "width": 1920, "html_attributions": ["<a href=\"https://maps.google.com/maps/contrib/116316295380601703275\">ram sawant</a>"], "height": 1080}], "scope": "GOOGLE", "business_status": "OPERATIONAL", "types": ["hospital", "health", "point_of_interest", "establishment"], "icon": "https://maps.gstatic.com/mapfiles/place_api/icons/v1/png_71/doctor-71.png"}, {"rating": 4.9, "user_ratings_total": 23, "name": "Dr Vivek Jadhav Ear Nose Throat Care Center", "reference": "ChIJVfV-8GS45zsRxWkalbmiG_o", "geometry": {"location": {"lat": 19.1512443, "lng": 72.9377818}, "viewport": {"northeast": {"lat": 19.1525835302915, "lng": 72.9390520802915}, "southwest": {"lat": 19.1498855697085, "lng": 72.93635411970848}}}, "opening_hours": {"open_now": false}, "place_id": "ChIJVfV-8GS45zsRxWkalbmiG_o", "plus_code": {"global_code": "7JFJ5W2Q+F4", "compound_code": "5W2Q+F4 Bhandup West, Mumbai, Maharashtra, India"}, "vicinity": "Raju Sadan A-wing 1st floor, opposite Madhuban garden, LBS Marg, Bhandup West", "scope": "GOOGLE", "business_status": "OPERATIONAL", "types": ["hospital", "health", "point_of_interest", "establishment"], "icon": "https://maps.gstatic.com/mapfiles/place_api/icons/v1/png_71/doctor-71.png"}, {"rating": 4, "user_ratings_total": 1, "name": "Akash Medical", "reference": "ChIJmcbzo0O45zsRtMMcvQYpbOM", "geometry": {"location": {"lat": 19.1631142, "lng": 72.93084929999999}, "viewport": {"northeast": {"lat": 19.1642288802915, "lng": 72.9326449302915}, "southwest": {"lat": 19.1615309197085, "lng": 72.92994696970848}}}, "opening_hours": {"open_now": true}, "place_id": "ChIJmcbzo0O45zsRtMMcvQYpbOM", "plus_code": {"global_code": "7JFJ5W7J+68", "compound_code": "5W7J+68 Mumbai, Maharashtra, India"}, "vicinity": "tulset, Bhandup Pipeline Railway Line Road, Tulshet Pada, Bhandup West, Mumbai", "scope": "GOOGLE", "business_status": "OPERATIONAL", "types": ["hospital", "health", "point_of_interest", "establishment"], "icon": "https://maps.gstatic.com/mapfiles/place_api/icons/v1/png_71/doctor-71.png"}, {"rating": 3.6, "user_ratings_total": 13, "name": "Pooja Diagnostic Centre & Healthcare Pvt ltd", "reference": "ChIJiVrKjVi45zsRi4_K9SGidwg", "geometry": {"location": {"lat": 19.168574, "lng": 72.944948}, "viewport": {"northeast": {"lat": 19.1698627802915, "lng": 72.9464079302915}, "southwest": {"lat": 19.1671648197085, "lng": 72.9437099697085}}}, "opening_hours": {"open_now": true}, "place_id": "ChIJiVrKjVi45zsRi4_K9SGidwg", "plus_code": {"global_code": "7JFJ5W9V+CX", "compound_code": "5W9V+CX Mumbai, Maharashtra, India"}, "vicinity": "1st Floor, Aroto House, P K Road, Mulund West, Besides Surya Eye care, Mumbai", "photos": [{"photo_reference": "CmRaAAAAySkxwXpKB8QdbW7bOSv6SssmshQtDQMHnkkGepLv0xBVor69RTWYgIpN2Y1mpRKiqpTc5DH1zDYm4uOJIvsueRyf2fB7QZLgzPHTQ9EACA_M9QUt3cbN-tM5UHdkXTUZEhCkOrT_OxNLvvcZF99Bd4PaGhQ_lrcNWwYWQqY6681Y1W2rkpJEHw", "width": 1600, "html_attributions": ["<a href=\"https://maps.google.com/maps/contrib/111887738995353869231\">Pooja Diagnostic Centre &amp; Healthcare Pvt ltd</a>"], "height": 1200}], "scope": "GOOGLE", "business_status": "OPERATIONAL", "types": ["hospital", "health", "point_of_interest", "establishment"], "icon": "https://maps.gstatic.com/mapfiles/place_api/icons/v1/png_71/generic_business-71.png"}, {"rating": 4.1, "user_ratings_total": 17, "name": "Surya Eye", "reference": "ChIJzQL8jli45zsRONVkAw8Eof4", "geometry": {"location": {"lat": 19.1685981, "lng": 72.9451136}, "viewport": {"northeast": {"lat": 19.1699176802915, "lng": 72.94651678029152}, "southwest": {"lat": 19.1672197197085, "lng": 72.94381881970851}}}, "opening_hours": {"open_now": false}, "place_id": "ChIJzQL8jli45zsRONVkAw8Eof4", "plus_code": {"global_code": "7JFJ5W9W+C2", "compound_code": "5W9W+C2 Mumbai, Maharashtra, India"}, "vicinity": "Aroto House, Purushottam Kheraj Road, Mulund West, Mumbai", "scope": "GOOGLE", "business_status": "OPERATIONAL", "types": ["hospital", "health", "point_of_interest", "establishment"], "icon": "https://maps.gstatic.com/mapfiles/place_api/icons/v1/png_71/doctor-71.png"}, {"rating": 4.3, "user_ratings_total": 28, "name": "Dr. Malwankar's Romeen Nursing Home", "reference": "ChIJr_7ne2-45zsRc-tCUEB97LE", "geometry": {"location": {"lat": 19.15116009999999, "lng": 72.9337145}, "viewport": {"northeast": {"lat": 19.1526226302915, "lng": 72.93513018029151}, "southwest": {"lat": 19.14992466970849, "lng": 72.9324322197085}}}, "opening_hours": {"open_now": true}, "place_id": "ChIJr_7ne2-45zsRc-tCUEB97LE", "plus_code": {"global_code": "7JFJ5W2M+FF", "compound_code": "5W2M+FF Mumbai, Maharashtra, India"}, "vicinity": "Ground Floor, Gautamdham Building, Opp Gama House Co, Gamdevi Road, Bhandup West, Mumbai", "photos": [{"photo_reference": "CmRaAAAA83VYppLS2p8iv6WiYQcEW6md5TPfl-GWsp_KZkOnJtbw-ObiyOONla0daA0laRuZZLxinXd9RV_0WU1IhBWnsZHg7WD7msnxmtK5ADl9X4M2Wg7jF14ICErAafm5aqXCEhAIfeWXUDXLmTmMn2BCNbFmGhTJiB3UEGe1C5l1ovJ-m0ZIaQtSmg", "width": 1080, "html_attributions": ["<a href=\"https://maps.google.com/maps/contrib/116564998513908447729\">Yogesh Tiwari</a>"], "height": 1920}], "scope": "GOOGLE", "business_status": "OPERATIONAL", "types": ["hospital", "health", "point_of_interest", "establishment"], "icon": "https://maps.gstatic.com/mapfiles/place_api/icons/v1/png_71/doctor-71.png"}, {"rating": 3.5, "user_ratings_total": 20, "name": "Pooja Nursing Home Pvt Ltd.", "reference": "ChIJeVkWl_a45zsRLtvic0nLFMQ", "geometry": {"location": {"lat": 19.1674222, "lng": 72.95024169999999}, "viewport": {"northeast": {"lat": 19.1686157302915, "lng": 72.9517637802915}, "southwest": {"lat": 19.1659177697085, "lng": 72.9490658197085}}}, "opening_hours": {"open_now": true}, "place_id": "ChIJeVkWl_a45zsRLtvic0nLFMQ", "plus_code": {"global_code": "7JFJ5X82+X3", "compound_code": "5X82+X3 Mumbai, Maharashtra, India"}, "vicinity": "Shree Ram Apartments, 1st Floor, Pandit Jawaharlal Nehru Road, Mulund West, Mumbai", "scope": "GOOGLE", "business_status": "OPERATIONAL", "types": ["hospital", "health", "point_of_interest", "establishment"], "icon": "https://maps.gstatic.com/mapfiles/place_api/icons/v1/png_71/doctor-71.png"}, {"rating": 4.2, "user_ratings_total": 13, "name": "Krishna Nursing Home", "reference": "ChIJ72wQ_mS45zsR4M-DyI2qDvE", "geometry": {"location": {"lat": 19.1506624, "lng": 72.93734189999999}, "viewport": {"northeast": {"lat": 19.1520370802915, "lng": 72.9388296802915}, "southwest": {"lat": 19.1493391197085, "lng": 72.9361317197085}}}, "opening_hours": {"open_now": true}, "place_id": "ChIJ72wQ_mS45zsR4M-DyI2qDvE", "plus_code": {"global_code": "7JFJ5W2P+7W", "compound_code": "5W2P+7W Mumbai, Maharashtra, India"}, "vicinity": "opposite Badwaik Hospital, Neha Apartment, opposite Badwaik Hospital, LBS Marg, Battipada, Bhandup West, Mumbai", "photos": [{"photo_reference": "CmRaAAAAB8HbnnfSbwZMT61UdmnbPwn4fvzkQzwDOO7XBS9i1s3Eezwn3uz18tdAF6GQsMm2AO888r91UqODAU0UMXHa63uLB3pFGkDIjCOBJF6jwskFfN3q4brxDoQAqqdZPSeUEhDD0buGnobd9B8XTH9Lxf9GGhSHtdOkKLJBw4uQB5x6xBVlhVJ_BQ", "width": 3264, "html_attributions": ["<a href=\"https://maps.google.com/maps/contrib/110086520325202941921\">Rajesh Agarwal</a>"], "height": 2448}], "scope": "GOOGLE", "business_status": "OPERATIONAL", "types": ["hospital", "health", "point_of_interest", "establishment"], "icon": "https://maps.gstatic.com/mapfiles/place_api/icons/v1/png_71/doctor-71.png"}, {"rating": 3.8, "user_ratings_total": 36, "name": "Shivani Maternity Hospital", "reference": "ChIJ7TRmy1u45zsRnSSAX8Q_n8U", "geometry": {"location": {"lat": 19.168446, "lng": 72.9390348}, "viewport": {"northeast": {"lat": 19.1697652802915, "lng": 72.9404675302915}, "southwest": {"lat": 19.1670673197085, "lng": 72.9377695697085}}}, "place_id": "ChIJ7TRmy1u45zsRnSSAX8Q_n8U", "plus_code": {"global_code": "7JFJ5W9Q+9J", "compound_code": "5W9Q+9J Mumbai, Maharashtra, India"}, "vicinity": "Hallmark, LBS Marg, Mulund Colony, Mulund West, Mumbai", "scope": "GOOGLE", "business_status": "OPERATIONAL", "types": ["hospital", "health", "point_of_interest", "establishment"], "icon": "https://maps.gstatic.com/mapfiles/place_api/icons/v1/png_71/doctor-71.png"}, {"rating": 3.8, "user_ratings_total": 13, "name": "Dr. Pankaj Maheshwari - Urologist Specialist Doctor in Mumbai, Thane, Fortis Hospital Mulund, India", "reference": "ChIJ563lXJW55zsRhXX1GM1cvEM", "geometry": {"location": {"lat": 19.1614887, "lng": 72.9414367}, "viewport": {"northeast": {"lat": 19.16307723029151, "lng": 72.94255403029149}, "southwest": {"lat": 19.1603792697085, "lng": 72.93985606970848}}}, "opening_hours": {"open_now": false}, "place_id": "ChIJ563lXJW55zsRhXX1GM1cvEM", "plus_code": {"global_code": "7JFJ5W6R+HH", "compound_code": "5W6R+HH Mumbai, Maharashtra, India"}, "vicinity": "1209, Urologist OPD, Fortis Hospital, Mulund Goregaon Link Road, Industrial Area, Mulund West, Mumbai", "photos": [{"photo_reference": "CmRaAAAAToELQwwpn_SWZNXLaGCw9FvO_EZ-5YvWIkziOgDMQlm8osePFutVs2iclhZ7srP1V2-HUR9oA7wLqjY4CJSEFOrpZvFu7qucUzNCKrhDA-uQMijVFRuGklM7y7Fc9tiEEhAmeisq1k6nJxQ4YRq7pn-mGhRrzdVHicSz57-eu85MOdNDaZs1Yw", "width": 600, "html_attributions": ["<a href=\"https://maps.google.com/maps/contrib/107494132722040013909\">Dr. Pankaj Maheshwari - Urologist Specialist Doctor in Mumbai, Thane, Fortis Hospital Mulund, India</a>"], "height": 450}], "scope": "GOOGLE", "business_status": "OPERATIONAL", "types": ["hospital", "doctor", "health", "point_of_interest", "establishment"], "icon": "https://maps.gstatic.com/mapfiles/place_api/icons/v1/png_71/generic_business-71.png"}, {"rating": 3.7, "user_ratings_total": 3, "name": "Medirent Services Pvt Ltd", "reference": "ChIJ7X0cIxm55zsRPhgV6AEbwPE", "geometry": {"location": {"lat": 19.161762, "lng": 72.9422486}, "viewport": {"northeast": {"lat": 19.1633152302915, "lng": 72.9436830802915}, "southwest": {"lat": 19.1606172697085, "lng": 72.94098511970849}}}, "opening_hours": {"open_now": true}, "place_id": "ChIJ7X0cIxm55zsRPhgV6AEbwPE", "plus_code": {"global_code": "7JFJ5W6R+PV", "compound_code": "5W6R+PV Mumbai, Maharashtra, India"}, "vicinity": "Fortis, Mulund West, Mumbai", "photos": [{"photo_reference": "CmRaAAAAdKvQmsEOxwzFuQ4fA7B1bGE8OJJfa46k3-lImA2k1yGpVJiwfirVM8zBu4XPKZGIRuU1W9VIlm86eNtRAfUQ4z81BlLAyBm6Zkvf9xuBz3ixIzF3z9k892UH16h4L0woEhAgFcLpr90-n-23Cjgseyt7GhRq84_yZkh1lhstYystQcSGiWE4EA", "width": 2976, "html_attributions": ["<a href=\"https://maps.google.com/maps/contrib/101782711203196691471\">Medirent Services Pvt Ltd</a>"], "height": 3968}], "scope": "GOOGLE", "business_status": "OPERATIONAL", "types": ["hospital", "health", "point_of_interest", "establishment"], "icon": "https://maps.gstatic.com/mapfiles/place_api/icons/v1/png_71/generic_business-71.png"}]}