{"status": "OK", "next_page_token": "CsQDugEAAB4WFDysGprV3__MWjpm3NHe44K4i2PIziKb2Mr0hKK3TuwOnWbv7AKXHLl6X4Kna1sIFKa2DXZ03sriAy1OHPylhDBPhcMDCqBoqmgrjeyk7yRBbei5SD1tXyqBCVOVVGx6UpsNwigitAZfuFBd8p3dpYCuNHQ-lI7KUnSGdttbjr94n7T2sgHmu1lOhsL_NFpWnV2EmY5c4c1t-bd2V-bwXpDO0iARdaTrAFAWHRtX0ppIDZsp1u15IK43zhRLVi3T1hu6vUVX7Fbj3gv-ZcPMnMiXWadeEt4VPd-oa56mEDkiMZEGD_Q0AdTMmUr3k14EHaRXua0AEaUWy9vTX-v1z8FJEQQZZ7uPPssBoslZcM2IzWBRWFpJeZcMKDpJ6BCm1IuS2SacE0JadAt9D8rGtgjuYc6_dL46wk22ZeaGLnOCCBx_mXkIuHHUpNg6Mj54G5vVZT9OYWv2vjFMxlULQsrMdAZbSHZrJDOG2jj5fJZW_oKjm1DoYF_DJMt8HITVzSuY7nJCDgNvMV0XG-OKcI9NtN4vEipWlKulCsZvT_qUYpiKJ1LLubUFSN3dBYdeIdXLyteZXhoXiqM2fVASEE88aE9l5rBpNvmZ19kjdjIaFGezaVRBnD9ojhBN2FIlC4rpeska", "html_attributions": [], "results": [{"name": "Niwara", "reference": "ChIJHdJF0yO55zsRGbTAeaI5e-o", "geometry": {"location": {"lat": 19.1922906, "lng": 72.9726867}, "viewport": {"northeast": {"lat": 19.1936859302915, "lng": 72.9740202302915}, "southwest": {"lat": 19.19098796970849, "lng": 72.9713222697085}}}, "opening_hours": {"open_now": false}, "place_id": "ChIJHdJF0yO55zsRGbTAeaI5e-o", "plus_code": {"global_code": "7JFJ5XRF+W3", "compound_code": "5XRF+W3 Thane, Maharashtra, India"}, "vicinity": "Gadkari Road, Naupada, Thane West, Thane", "scope": "GOOGLE", "business_status": "OPERATIONAL", "types": ["hospital", "health", "point_of_interest", "establishment"], "icon": "https://maps.gstatic.com/mapfiles/place_api/icons/v1/png_71/doctor-71.png"}, {"rating": 4.8, "user_ratings_total": 11, "name": "Saaol Heart Center Thane", "reference": "ChIJfUYGZSG55zsRWJow2nU23Ns", "geometry": {"location": {"lat": 19.1913025, "lng": 72.97379240000001}, "viewport": {"northeast": {"lat": 19.19268583029151, "lng": 72.9751311802915}, "southwest": {"lat": 19.1899878697085, "lng": 72.97243321970849}}}, "opening_hours": {"open_now": false}, "place_id": "ChIJfUYGZSG55zsRWJow2nU23Ns", "plus_code": {"global_code": "7JFJ5XRF+GG", "compound_code": "5XRF+GG Thane, Maharashtra, India"}, "vicinity": "behind New English School, Sutravihar Bldg B-002 Grd flr, Ram Maruti Road, Near Shubham Karoti hall, Thane west, behind New English School, Thane", "photos": [{"photo_reference": "CmRaAAAAbv3CBhXs2gp_0iqOj-PLxpDpTm1-AzsUAItkG3fivvlsnPYhxJMxIKRABwPcViZHQThnO7tqqiSB9ekPbB1tjVPLd2R3ldrRAsJVba5MjsORaKufJsIYiACMWmdNyVSPEhCSNcBlPgBM-6WZV7ort5zNGhRcpTU9fy4VjuN2hrl0kVVlhvjmbQ", "width": 2976, "html_attributions": ["<a href=\"https://maps.google.com/maps/contrib/103938099575660332590\">Shivraj Naik</a>"], "height": 3968}], "scope": "GOOGLE", "business_status": "OPERATIONAL", "types": ["hospital", "health", "point_of_interest", "establishment"], "icon": "https://maps.gstatic.com/mapfiles/place_api/icons/v1/png_71/doctor-71.png"}, {"rating": 4.5, "user_ratings_total": 8, "name": "National Hospital DrArun Deshpande", "reference": "ChIJzUSZp0e55zsRohABT-ug9WM", "geometry": {"location": {"lat": 19.1934346, "lng": 72.9706157}, "viewport": {"northeast": {"lat": 19.1947116302915, "lng": 72.9720330302915}, "southwest": {"lat": 19.1920136697085, "lng": 72.96933506970849}}}, "opening_hours": {"open_now": false}, "place_id": "ChIJzUSZp0e55zsRohABT-ug9WM", "vicinity": "3rd Floor, Ajit Darshan, Petrol Pump Road, Naupada, Thane West, Thane", "photos": [{"photo_reference": "CmRZAAAADXggqTbAA_GZX6Mhp7az54QHT3QMTeKDpalsPzBuv3pMFX8URCNyB2aaW7XhWFjCWhJOatqxiq6Eeg9nBImnc1HgHbBu_juHXSLde-zX-r85WFuWlaNjNh80XLJpfZiMEhB9kLGl4Ce6430oinX1s7g1GhTgDvKAWyHhDNVRmpRiXVxSVh470g", "width": 6016, "html_attributions": ["<a href=\"https://maps.google.com/maps/contrib/117354262697449159467\">Support directindia</a>"], "height": 4016}], "scope": "GOOGLE", "business_status": "OPERATIONAL", "types": ["hospital", "health", "point_of_interest", "establishment"], "icon": "https://maps.gstatic.com/mapfiles/place_api/icons/v1/png_71/doctor-71.png"}, {"rating": 4.2, "user_ratings_total": 47, "name": "Chiranjeevi Hospital", "reference": "ChIJAQAAAFy55zsReY89JEIH9M8", "geometry": {"location": {"lat": 19.1980388, "lng": 72.9683191}, "viewport": {"northeast": {"lat": 19.1992429302915, "lng": 72.9696338302915}, "southwest": {"lat": 19.1965449697085, "lng": 72.9669358697085}}}, "opening_hours": {"open_now": false}, "place_id": "ChIJAQAAAFy55zsReY89JEIH9M8", "plus_code": {"global_code": "7JFJ5XX9+68", "compound_code": "5XX9+68 Thane, Maharashtra, India"}, "vicinity": "1st Floor, Anand Chambers, Opposite T. M. C Building, Almeda Road, Ganeshwadi, Thane West, Thane", "photos": [{"photo_reference": "CmRaAAAA21ch7KcD074AymjQcBVUTQnQBw8kj7op4wpTIdlUUOZF3Ioyy2_ltsOMkWu2bbhtuPGnLNsyn6HabTL496ukQQ1wsjxOMRLyCZcblZPumxCyxfTWmj-TBSoTJsJsAQwREhBiKxDYEsxI0h0HARicrPayGhQmhqlIcSBx8by1xIer-edQ1wlkRQ", "width": 5312, "html_attributions": ["<a href=\"https://maps.google.com/maps/contrib/106105915170624095432\">Shibbi Johnny</a>"], "height": 2988}], "scope": "GOOGLE", "business_status": "OPERATIONAL", "types": ["hospital", "health", "point_of_interest", "establishment"], "icon": "https://maps.gstatic.com/mapfiles/place_api/icons/v1/png_71/doctor-71.png"}, {"rating": 4.7, "user_ratings_total": 9, "name": "Madhavbaug Kalwa Clinic : Blockage & Weight Loss Treatment | Diabetes Care Clinic & Specialist | High Cholesterol , High Blood Pressure , Thyroid Treatment | Ayurvedic Treatment | Diagnostic Centre | Cardiologist | Diabetologist | Heart Care Clinic in Thane", "reference": "ChIJ17luXiu55zsR2aHZMqxGKmo", "geometry": {"location": {"lat": 19.1950866, "lng": 72.9903239}, "viewport": {"northeast": {"lat": 19.1964705802915, "lng": 72.99167208029151}, "southwest": {"lat": 19.1937726197085, "lng": 72.9889741197085}}}, "opening_hours": {"open_now": true}, "place_id": "ChIJ17luXiu55zsR2aHZMqxGKmo", "plus_code": {"global_code": "7JFJ5XWR+24", "compound_code": "5XWR+24 Thane, Maharashtra, India"}, "vicinity": "Sahakar bazaar building, 1st floor, Kalwa Market, Kalwa Station Road Bypass, w, Thane", "photos": [{"photo_reference": "CmRaAAAA0j3df4-8woBFcHUZqg8qPXiXAu0Dhq_A-ysI38Km6FpEKRTfAa4D1X4uNZleVV_yruns0ZxfiAHvlISziQfdCW871yyyztmSQ9KkSGvzPI8zpbsGcTv5rabIPFKHkYsYEhD0swbF9oT5jgGXmhhaTn6dGhTUTMDlf6fCJyOtUNk8V1mBfHEsTA", "width": 3264, "html_attributions": ["<a href=\"https://maps.google.com/maps/contrib/104510842475085626856\">Madhavbaug Kalwa Clinic : Blockage &amp; Weight Loss Treatment | Diabetes Care Clinic &amp; Specialist | High Cholesterol , High Blood Pressure , Thyroid Treatment | Ayurvedic Treatment | Diagnostic Centre | Cardiologist | Diabetologist | Heart Care Clinic in Thane</a>"], "height": 4928}], "scope": "GOOGLE", "business_status": "OPERATIONAL", "types": ["hospital", "doctor", "health", "point_of_interest", "establishment"], "icon": "https://maps.gstatic.com/mapfiles/place_api/icons/v1/png_71/doctor-71.png"}, {"name": "Dr Vijay Kulkarni", "reference": "ChIJT2YZlEe55zsRwiieQTbjTrM", "geometry": {"location": {"lat": 19.2109347, "lng": 72.9796722}, "viewport": {"northeast": {"lat": 19.2124201802915, "lng": 72.9810464302915}, "southwest": {"lat": 19.2097222197085, "lng": 72.97834846970848}}}, "place_id": "ChIJT2YZlEe55zsRwiieQTbjTrM", "plus_code": {"global_code": "7JFJ6X6H+9V", "compound_code": "6X6H+9V Thane, Maharashtra, India"}, "vicinity": "Panchsheel Nagar, Thane West, Thane", "scope": "GOOGLE", "business_status": "OPERATIONAL", "types": ["hospital", "health", "point_of_interest", "establishment"], "icon": "https://maps.gstatic.com/mapfiles/place_api/icons/v1/png_71/doctor-71.png"}, {"rating": 4.7, "user_ratings_total": 42, "name": "Aasha Cancer Hospital & Children First Hospital", "reference": "ChIJZwXdbSK55zsRe4OiP_TX0eM", "geometry": {"location": {"lat": 19.1933402, "lng": 72.97061029999999}, "viewport": {"northeast": {"lat": 19.1947174802915, "lng": 72.9718206302915}, "southwest": {"lat": 19.1920195197085, "lng": 72.96912266970848}}}, "opening_hours": {"open_now": true}, "place_id": "ChIJZwXdbSK55zsRe4OiP_TX0eM", "plus_code": {"global_code": "7JFJ5XVC+86", "compound_code": "5XVC+86 Thane, Maharashtra, India"}, "vicinity": "1st Floor, Ajit Darshan Building, Near 3 Petrol Pump, LBS Marg, Naupada, Thane West, Thane", "photos": [{"photo_reference": "CmRaAAAAnK8ho1O43GEpYTrTXSf7pZX0GsmsgqPb5w-Cu5Ky3LzUSMjiQ-fJ3CPU8uZLEw9uD2p11wZ096KuINrjOgujT9s7Qjj3nnb0HMdYkgQ_cy91ljImo7YTCYvjXAtMsDBhEhDPl-WVKnNkrNkUDQCr26EVGhTKwcYq74i0nLXOYsYS0gEkZQaMQg", "width": 2048, "html_attributions": ["<a href=\"https://maps.google.com/maps/contrib/102823395525196265337\">Aasha Cancer Hospital &amp; Children First Hospital</a>"], "height": 1365}], "scope": "GOOGLE", "business_status": "OPERATIONAL", "types": ["hospital", "health", "point_of_interest", "establishment"], "icon": "https://maps.gstatic.com/mapfiles/place_api/icons/v1/png_71/generic_business-71.png"}, {"name": "RaMaa- Ayurveda healthcare for women", "reference": "ChIJd7jrECK55zsRVOZnQ2-YVN4", "geometry": {"location": {"lat": 19.192501, "lng": 72.97067799999999}, "viewport": {"northeast": {"lat": 19.1937580302915, "lng": 72.9720399802915}, "southwest": {"lat": 19.1910600697085, "lng": 72.96934201970849}}}, "place_id": "ChIJd7jrECK55zsRVOZnQ2-YVN4", "plus_code": {"global_code": "7JFJ5XVC+27", "compound_code": "5XVC+27 Thane, Maharashtra, India"}, "vicinity": "Shop no. 3, Konark Towers, Opposite Sainath Mandir, Mandir Road, Naupada, 400602, Ghantali, Thane West, Thane", "scope": "GOOGLE", "business_status": "OPERATIONAL", "types": ["hospital", "health", "point_of_interest", "establishment"], "icon": "https://maps.gstatic.com/mapfiles/place_api/icons/v1/png_71/doctor-71.png"}, {"name": "Lohiya Acupuncture Center", "reference": "ChIJm83eKie55zsRWJdWQRJNNVI", "geometry": {"location": {"lat": 19.189107, "lng": 72.975653}, "viewport": {"northeast": {"lat": 19.1905195802915, "lng": 72.9770056802915}, "southwest": {"lat": 19.1878216197085, "lng": 72.97430771970848}}}, "opening_hours": {"open_now": false}, "place_id": "ChIJm83eKie55zsRWJdWQRJNNVI", "plus_code": {"global_code": "7JFJ5XQG+J7", "compound_code": "5XQG+J7 Mumbai, Maharashtra, India"}, "vicinity": "149, MCCH, Opposite Tawa Hotel, Near Shivaji Chowk, Old Panvel, Mumbai", "photos": [{"photo_reference": "CmRaAAAA7BohYrJ_MT_LeylaYKkriqerGq53eum1WjVn5gXrBaW5hU2_RAG-wovr_wsBeuEb1xf7sgaTr54OYShC99Ys1xCWu-V3qv7NVin6kX1BeWDbCN6w3Owc6hRwYg4zk0xEEhDf_ZwzgZKi1-NEWJDGGBohGhQzBGlAEE9rgHFQIXB_tnQZS9GAyg", "width": 4752, "html_attributions": ["<a href=\"https://maps.google.com/maps/contrib/117940335478570904790\">Indiacom Ltd</a>"], "height": 3168}], "scope": "GOOGLE", "business_status": "OPERATIONAL", "types": ["hospital", "health", "point_of_interest", "establishment"], "icon": "https://maps.gstatic.com/mapfiles/place_api/icons/v1/png_71/doctor-71.png"}, {"rating": 4.4, "user_ratings_total": 36, "name": "ORTHO CENTRE Dr. Jayesh Nayak", "reference": "ChIJG5ma9SG55zsRF0Rfe8GX0q8", "geometry": {"location": {"lat": 19.1916475, "lng": 72.97092549999999}, "viewport": {"northeast": {"lat": 19.1930010302915, "lng": 72.9723095302915}, "southwest": {"lat": 19.1903030697085, "lng": 72.96961156970849}}}, "opening_hours": {"open_now": false}, "place_id": "ChIJG5ma9SG55zsRF0Rfe8GX0q8", "plus_code": {"global_code": "7JFJ5XRC+M9", "compound_code": "5XRC+M9 Thane, Maharashtra, India"}, "vicinity": "1st Floor, Ananya Building, Ghantali Devi Road, Naupada, Thane West", "photos": [{"photo_reference": "CmRaAAAAdL6Hn-ITP9PK0muDzxHx3Np7ePveIPZha7YaMnQeGSODXsyEi_GPjB7U-7uwV2mZyhYROwZP81X1gn-uiJlm6KuqdkP0qzQ8r9jvNeJaUiGayNr_wdQb0FDH6RhwiM6mEhBcC7c2v5P7YXngKFc2uBkHGhTzE-b-SmGIUWCglHNWei6P7Rfi6Q", "width": 1920, "html_attributions": ["<a href=\"https://maps.google.com/maps/contrib/112020228986149347422\">Karan Singh</a>"], "height": 1080}], "scope": "GOOGLE", "business_status": "OPERATIONAL", "types": ["hospital", "health", "point_of_interest", "establishment"], "icon": "https://maps.gstatic.com/mapfiles/place_api/icons/v1/png_71/doctor-71.png"}, {"rating": 5, "user_ratings_total": 4, "name": "vedicure healthcare and wellness center", "reference": "ChIJ7_DaOye55zsRcUOsM-dm9lY", "geometry": {"location": {"lat": 19.1883157, "lng": 72.97655979999999}, "viewport": {"northeast": {"lat": 19.1897008302915, "lng": 72.97791793029151}, "southwest": {"lat": 19.1870028697085, "lng": 72.97521996970849}}}, "place_id": "ChIJ7_DaOye55zsRcUOsM-dm9lY", "plus_code": {"global_code": "7JFJ5XQG+8J", "compound_code": "5XQG+8J Thane, Maharashtra, India"}, "vicinity": "Jambli Naka, Thane West, Thane", "photos": [{"photo_reference": "CmRaAAAAzSTvSXCNkF52Ej7agURPS-CFDbrl0PQiU8qZgDiI-inijJFQrcIxtQSeG9rFgXXHldJmZZzFkwxzIRGPKDfgd-d-DKTX58VaBz8jfSYQ3HY3Rpr-QDpvZhvv6lypsHS-EhBjkkSDG87ldBXAsAGpvE_QGhSLMpr-iWPqgIkkjyK6zqV6IfOnJQ", "width": 3120, "html_attributions": ["<a href=\"https://maps.google.com/maps/contrib/110763951514843196566\">Sandip #</a>"], "height": 4208}], "scope": "GOOGLE", "business_status": "OPERATIONAL", "types": ["hospital", "health", "point_of_interest", "establishment"], "icon": "https://maps.gstatic.com/mapfiles/place_api/icons/v1/png_71/doctor-71.png"}, {"rating": 4.9, "user_ratings_total": 264, "name": "Ayushakti Ayurved Health Centre", "reference": "ChIJBTQl8yG55zsRo8EOB6OFHW0", "geometry": {"location": {"lat": 19.1911735, "lng": 72.9711717}, "viewport": {"northeast": {"lat": 19.1925172802915, "lng": 72.97245658029149}, "southwest": {"lat": 19.1898193197085, "lng": 72.96975861970849}}}, "opening_hours": {"open_now": true}, "place_id": "ChIJBTQl8yG55zsRo8EOB6OFHW0", "plus_code": {"global_code": "7JFJ5XRC+FF", "compound_code": "5XRC+FF Thane, Maharashtra, India"}, "vicinity": "opposite Ghantali Temple, 301, 3rd Floor, Anmol House, opposite Ghantali Temple, Naupada, Thane West, Thane", "photos": [{"photo_reference": "CmRaAAAAz6VHtRv52XqCJ0NU1CP5nZvkg9wpi8t1PCTCzfzGCk5AEzWKEgVeInX7KQjrCwP6LlIyVtxD2czNKyUokoYguFd77BnB7xcfXzkFXJwzpahmsOIdkwBQWLi7ePlboa4LEhC4b_yMchADR1BDa4f45aC5GhQeRq36R0-q-W7kdtNI-sMyc_W8OQ", "width": 3000, "html_attributions": ["<a href=\"https://maps.google.com/maps/contrib/102812989435314258292\">Ayushakti Ayurved Health Centre</a>"], "height": 1110}], "scope": "GOOGLE", "business_status": "OPERATIONAL", "types": ["hospital", "doctor", "health", "point_of_interest", "store", "establishment"], "icon": "https://maps.gstatic.com/mapfiles/place_api/icons/v1/png_71/doctor-71.png"}, {"rating": 4.4, "user_ratings_total": 97, "name": "Dr Bedekar Hospital for Women and Children", "reference": "ChIJGc4uHCG55zsRKbGryqn4zNQ", "geometry": {"location": {"lat": 19.1894246, "lng": 72.97349369999999}, "viewport": {"northeast": {"lat": 19.1908018802915, "lng": 72.9749403802915}, "southwest": {"lat": 19.1881039197085, "lng": 72.9722424197085}}}, "opening_hours": {"open_now": true}, "place_id": "ChIJGc4uHCG55zsRKbGryqn4zNQ", "plus_code": {"global_code": "7JFJ5XQF+Q9", "compound_code": "5XQF+Q9 Thane, Maharashtra, India"}, "vicinity": "Shivashakti Building, Naupada, M Karve Road, Ghantali, Thane", "photos": [{"photo_reference": "CmRaAAAAEoA-tJMlHPoNnfaUlBTKAivp6MLixkK3a5XoVQ2T37L30jr_pt2WyuEW83GJ_NAJCcvuMVJngvmYvJJc9p6EUxI9KLH7xG31XlRZh9wUBB4ZQ3LSfRuK4PckZdxIWs7ZEhD9FJ6M-zxnrj9moOunF4zGGhTe3qg152AR4Got72HsWTGIYlnBqg", "width": 480, "html_attributions": ["<a href=\"https://maps.google.com/maps/contrib/114658894904228482685\">Dr Bedekar Hospital for Women and Children</a>"], "height": 270}], "scope": "GOOGLE", "business_status": "OPERATIONAL", "types": ["hospital", "doctor", "health", "point_of_interest", "establishment"], "icon": "https://maps.gstatic.com/mapfiles/place_api/icons/v1/png_71/doctor-71.png"}, {"rating": 3.9, "user_ratings_total": 45, "name": "Dr. Bhanushali Hospital and Center for Lung Surgery", "reference": "ChIJ7_csMSe55zsR0_19eFEl7YI", "geometry": {"location": {"lat": 19.188248, "lng": 72.97610499999999}, "viewport": {"northeast": {"lat": 19.1896212302915, "lng": 72.9773244302915}, "southwest": {"lat": 19.1869232697085, "lng": 72.97462646970848}}}, "opening_hours": {"open_now": true}, "place_id": "ChIJ7_csMSe55zsR0_19eFEl7YI", "plus_code": {"global_code": "7JFJ5XQG+7C", "compound_code": "5XQG+7C Thane, Maharashtra, India"}, "vicinity": "Kaushalya, Railway Station, near Thane, Shivaji Path, Jambli Naka, Thane West, Thane", "photos": [{"photo_reference": "CmRaAAAAKt84stFcbdghlE_mA8ZHJCPhI2vnZFrH10a4VJ_0NkrwX8GrB577wmWOPws2hMJiBAexonGldcSs_22X4w8MpHabiIaw9Awy_BnnMRiHOuR0jBs_GONfMbQwcE0XqjIsEhBfAR5uvaloDugM6jio9eQZGhQ7cnJDxCLK-yMxI7649IG7VZ8HzQ", "width": 6016, "html_attributions": ["<a href=\"https://maps.google.com/maps/contrib/114999149944791771059\">Dr. Bhanushali Hospital and Center for Lung Surgery</a>"], "height": 4000}], "scope": "GOOGLE", "business_status": "OPERATIONAL", "types": ["hospital", "health", "point_of_interest", "establishment"], "icon": "https://maps.gstatic.com/mapfiles/place_api/icons/v1/png_71/doctor-71.png"}, {"rating": 3.7, "user_ratings_total": 22, "name": "Healthspring Panchpakhadi", "reference": "ChIJVfDypxC55zsRaxeexqXt5zw", "geometry": {"location": {"lat": 19.198251, "lng": 72.9670245}, "viewport": {"northeast": {"lat": 19.1995316802915, "lng": 72.96834418029151}, "southwest": {"lat": 19.1968337197085, "lng": 72.96564621970849}}}, "opening_hours": {"open_now": false}, "place_id": "ChIJVfDypxC55zsRaxeexqXt5zw", "plus_code": {"global_code": "7JFJ5XX8+8R", "compound_code": "5XX8+8R Thane, Maharashtra, India"}, "vicinity": "TMC Office, Ground floor b wing , mohan heritage, Almeda Road, near, Thane West, Thane", "photos": [{"photo_reference": "CmRaAAAABE97JliQ3RVVwO-WSq1NrIUgwK3KnWsT_oDkzfDG2pCiP8CImthtkZlpzQP7BhZE1a3oCAGDeYXyAmLdE_5XASKXjc7T0PpWG2FXVf5aahL7hIwuRlvKNJUtFlfjC3tXEhAhatb-wpOODWjcnJXGilHwGhQsytzUXDFw0ul78RtFrOfL-Uu8Tw", "width": 2048, "html_attributions": ["<a href=\"https://maps.google.com/maps/contrib/117525948294185054310\">zuzar padghawala</a>"], "height": 1713}], "scope": "GOOGLE", "business_status": "OPERATIONAL", "types": ["hospital", "health", "point_of_interest", "establishment"], "icon": "https://maps.gstatic.com/mapfiles/place_api/icons/v1/png_71/doctor-71.png"}, {"name": "Gayatri Hospital & ICCU", "reference": "ChIJRRqwnxe55zsRHYC10oXaFfE", "geometry": {"location": {"lat": 19.1983634, "lng": 72.9668614}, "viewport": {"northeast": {"lat": 19.1996297802915, "lng": 72.96816738029152}, "southwest": {"lat": 19.1969318197085, "lng": 72.9654694197085}}}, "opening_hours": {"open_now": true}, "place_id": "ChIJRRqwnxe55zsRHYC10oXaFfE", "plus_code": {"global_code": "7JFJ5XX8+8P", "compound_code": "5XX8+8P Thane, Maharashtra, India"}, "vicinity": "Mohan Heritage Building, 1st Floor, Opp. T.M.C Office, Mahapalika Bhavan Road, Ramabai Ambedkar Nagar, Panch Pakhdi, Thane West, Thane", "scope": "GOOGLE", "business_status": "OPERATIONAL", "types": ["hospital", "health", "point_of_interest", "establishment"], "icon": "https://maps.gstatic.com/mapfiles/place_api/icons/v1/png_71/doctor-71.png"}, {"rating": 3.4, "user_ratings_total": 17, "name": "Thane Eye Care Hospital", "reference": "ChIJ_88kPHO55zsRjcr320459RI", "geometry": {"location": {"lat": 19.1984454, "lng": 72.96668149999999}, "viewport": {"northeast": {"lat": 19.1997123802915, "lng": 72.96798778029151}, "southwest": {"lat": 19.1970144197085, "lng": 72.96528981970849}}}, "opening_hours": {"open_now": false}, "place_id": "ChIJ_88kPHO55zsRjcr320459RI", "plus_code": {"global_code": "7JFJ5XX8+9M", "compound_code": "5XX8+9M Thane, Maharashtra, India"}, "vicinity": "First Floor, opposite TMC, Almeda Road, Panch Pakhdi, Thane West, Thane", "photos": [{"photo_reference": "CmRaAAAACgmQ3gmiJURuyB8894Yv_jpSCqkP6qWuvnT24Ts8_cWJPPopJV0FjmZQvbBooaWESZVllDiY54QNwc9co3NUKm5fmvjeLNcAPMUuhRWa15ZwwqQEj5Oe9K7nSTHIvaAIEhB3oNLtoi_gNfU4WIPAPAx2GhRPmP2xvEoxYVOrxeFXIRMSMr1dqA", "width": 1080, "html_attributions": ["<a href=\"https://maps.google.com/maps/contrib/112949498181742855377\">Manish Patil</a>"], "height": 1920}], "scope": "GOOGLE", "business_status": "OPERATIONAL", "types": ["hospital", "health", "point_of_interest", "establishment"], "icon": "https://maps.gstatic.com/mapfiles/place_api/icons/v1/png_71/doctor-71.png"}, {"rating": 4.7, "user_ratings_total": 6, "name": "SAI SMILE CARE", "reference": "ChIJRRrluCy55zsROIa0YL2J0JI", "geometry": {"location": {"lat": 19.1948991, "lng": 72.99223359999999}, "viewport": {"northeast": {"lat": 19.1962514802915, "lng": 72.9936700302915}, "southwest": {"lat": 19.19355351970849, "lng": 72.99097206970849}}}, "place_id": "ChIJRRrluCy55zsROIa0YL2J0JI", "plus_code": {"global_code": "7JFJ5XVR+XV", "compound_code": "5XVR+XV Thane, Maharashtra, India"}, "vicinity": "Aditya CHS, SAI SMILE CARE CENTER, SHOP NO 9, WEST Station road, Kalwa West, Gunsagar Nagar, Thane", "scope": "GOOGLE", "business_status": "OPERATIONAL", "types": ["hospital", "health", "point_of_interest", "establishment"], "icon": "https://maps.gstatic.com/mapfiles/place_api/icons/v1/png_71/doctor-71.png"}, {"rating": 5, "user_ratings_total": 1, "name": "Swayam Rehabilitation Centre", "reference": "ChIJG67f_ha55zsR8BjvelIrkZE", "geometry": {"location": {"lat": 19.20018659999999, "lng": 72.966531}, "viewport": {"northeast": {"lat": 19.2015992302915, "lng": 72.9679492802915}, "southwest": {"lat": 19.19890126970849, "lng": 72.9652513197085}}}, "opening_hours": {"open_now": false}, "place_id": "ChIJG67f_ha55zsR8BjvelIrkZE", "plus_code": {"global_code": "7JFJ6X28+3J", "compound_code": "6X28+3J Thane, Maharashtra, India"}, "vicinity": "37, Ramabai Ambedkar Nagar, Ganeshwadi, Thane West, Thane", "scope": "GOOGLE", "business_status": "OPERATIONAL", "types": ["hospital", "health", "point_of_interest", "establishment"], "icon": "https://maps.gstatic.com/mapfiles/place_api/icons/v1/png_71/doctor-71.png"}, {"rating": 3.8, "user_ratings_total": 65, "name": "Thane Skin Centre", "reference": "ChIJ7SSy7iK55zsR7HtEJjBWK2s", "geometry": {"location": {"lat": 19.195695, "lng": 72.971577}, "viewport": {"northeast": {"lat": 19.1970702802915, "lng": 72.97294248029151}, "southwest": {"lat": 19.1943723197085, "lng": 72.9702445197085}}}, "opening_hours": {"open_now": false}, "place_id": "ChIJ7SSy7iK55zsR7HtEJjBWK2s", "plus_code": {"global_code": "7JFJ5XWC+7J", "compound_code": "5XWC+7J Thane, Maharashtra, India"}, "vicinity": "Nxt to andhra bank, 1, Yogesh society Ext Rammaruti road, Near Vandana talkies, Thane", "photos": [{"photo_reference": "CmRaAAAAykroslKkYiMTtt0wf_yDn401pJsqcldokHwKcc-F9_Wxbpw9fASZWsLvd-5YGLJu4LL4zVs2W2_-rG7_fAtPzVDb8FYP668HeDRPcbYpbg--AxsFU6xxiWdd9eevmffsEhBWTcxolZM2UNPT2rNWi26sGhThtn_yhwlnjYcMbVDPYpa_IASugw", "width": 720, "html_attributions": ["<a href=\"https://maps.google.com/maps/contrib/114395734849813393436\">soumyajeet phadke</a>"], "height": 1280}], "scope": "GOOGLE", "business_status": "OPERATIONAL", "types": ["beauty_salon", "hair_care", "hospital", "doctor", "health", "point_of_interest", "establishment"], "icon": "https://maps.gstatic.com/mapfiles/place_api/icons/v1/png_71/generic_business-71.png"}]}