{"status": "OK", "next_page_token": "CsQDugEAAEAx53sOq2efiWZqhwGX475GmtpsHgjbUtO7744wOVsu_baApTmFmM7rzsKiOSdDE1D9UJwkqcZAUCVJTsfTlhKysgRJp8nWHkMWHKr-PNNlsihBG0BCJan52zQIbLTAh-08CAG8jVpXYRAHry86WHW8AB1haBLaW21Ze7CfeXsxljLfcX99_G4hVU4KIDqmMAEoObfagdhEg1xNa0W30AU6J2bmo8Vffbsn8mFpTNeT6YQKHeFkgk6DUttv84AaIaGFegO4Gme4bArlQGKstt2wA-GapWjwdyNZcY87BeSbp3iFgA4xaVGnGM7aO1gfrvynBv6zd8w1FJf3Ejnk1Ud5ILR08p-yi4cR7H2G92_2qkOJawXOWimbv8b5DtM-BcFPwbCa8VLTUtMFb5BywpjSdy8Y49kgsyZNdUzM9f7X24Lkq_GRjONYoz40pk-eDrSnFoIdEuQpypCwL82frmxJwP8HJZpWYFF7OLJ-8AbTPQu4YR1nWnPKz1aW8HvrewZI1OtvKqETBwU1FwqGNcQ3z5r7nYWOI0-McOM212tvJv-QHb3VozyZg_VnTbOoTyqOtcLnk9MhNXtBCxZB-pESENhIGDl5iZmhfRCDwBPUHDcaFK5D817w7bHdA1j5Kaa8kWjAppk_", "html_attributions": [], "results": [{"rating": 2.5, "user_ratings_total": 2, "name": "Shri Niketan", "reference": "ChIJf130VB7O5zsRfynnB-J6CrE", "geometry": {"location": {"lat": 18.9447586, "lng": 72.8247933}, "viewport": {"northeast": {"lat": 18.9461237302915, "lng": 72.8261708802915}, "southwest": {"lat": 18.9434257697085, "lng": 72.8234729197085}}}, "place_id": "ChIJf130VB7O5zsRfynnB-J6CrE", "plus_code": {"global_code": "7JCJWRVF+WW", "compound_code": "WRVF+WW Mumbai, Maharashtra, India"}, "vicinity": "Maharshi Karve Road, Chandan Wadi, Sonapur, Marine Lines, Mumbai", "scope": "GOOGLE", "business_status": "OPERATIONAL", "types": ["hospital", "health", "point_of_interest", "establishment"], "icon": "https://maps.gstatic.com/mapfiles/place_api/icons/v1/png_71/doctor-71.png"}, {"name": "Queen Chamber Clinic", "reference": "ChIJ_0ebHuDR5zsRPyV0iInJJPM", "geometry": {"location": {"lat": 18.9421033, "lng": 72.8267783}, "viewport": {"northeast": {"lat": 18.9434193802915, "lng": 72.82813953029151}, "southwest": {"lat": 18.9407214197085, "lng": 72.8254415697085}}}, "place_id": "ChIJ_0ebHuDR5zsRPyV0iInJJPM", "plus_code": {"global_code": "7JCJWRRG+RP", "compound_code": "WRRG+RP Mumbai, Maharashtra, India"}, "vicinity": "New Marine Lines, Marine Lines, Mumbai", "scope": "GOOGLE", "business_status": "OPERATIONAL", "types": ["hospital", "health", "point_of_interest", "establishment"], "icon": "https://maps.gstatic.com/mapfiles/place_api/icons/v1/png_71/doctor-71.png"}, {"name": "Iscador Mistletoe Therapy for Cancer", "reference": "ChIJf7h1KkPR5zsR-Uo2vGfB8Q0", "geometry": {"location": {"lat": 18.9420151, "lng": 72.827038}, "viewport": {"northeast": {"lat": 18.9434385302915, "lng": 72.82835933029152}, "southwest": {"lat": 18.9407405697085, "lng": 72.82566136970851}}}, "opening_hours": {"open_now": false}, "place_id": "ChIJf7h1KkPR5zsR-Uo2vGfB8Q0", "plus_code": {"global_code": "7JCJWRRG+RR", "compound_code": "WRRG+RR Mumbai, Maharashtra, India"}, "vicinity": "Lotus House, 503, near \u092c\u0949\u092e\u094d\u092c\u0947 \u0939\u0949\u0938\u094d\u092a\u093f\u091f\u0932, Marine Lines, Mumbai", "photos": [{"photo_reference": "CmRaAAAAVwJlssYo7gihx3Lnb17Sc66_MBbexjTwcuLADZ9II8p3qOgel0d7ZVsFVqjAFpEqvIlhbD3kWdgOgLTTKsFZNtRuPTRngYVPi8QJ_o0_SsjeHbHHX6JMCM-qtaz-4CcyEhCoRwUPgYBcL-7wh1-EpEthGhQgV1ynash5lmQHlTRsYenVXOASTw", "width": 678, "html_attributions": ["<a href=\"https://maps.google.com/maps/contrib/115900908877452477684\">Iscador Mistletoe Therapy for Cancer</a>"], "height": 382}], "scope": "GOOGLE", "business_status": "OPERATIONAL", "types": ["hospital", "health", "point_of_interest", "establishment"], "icon": "https://maps.gstatic.com/mapfiles/place_api/icons/v1/png_71/doctor-71.png"}, {"name": "Bombay Hospital Trust", "reference": "ChIJkwIlDeDR5zsRzajNixoFpQA", "geometry": {"location": {"lat": 18.941002, "lng": 72.82732399999999}, "viewport": {"northeast": {"lat": 18.9423947302915, "lng": 72.8288209802915}, "southwest": {"lat": 18.9396967697085, "lng": 72.82612301970849}}}, "place_id": "ChIJkwIlDeDR5zsRzajNixoFpQA", "plus_code": {"global_code": "7JCJWRRG+CW", "compound_code": "WRRG+CW Mumbai, Maharashtra, India"}, "vicinity": "12, Vitthaldas Thackersey Marg, Marine Lines, Mumbai", "scope": "GOOGLE", "business_status": "OPERATIONAL", "types": ["hospital", "health", "point_of_interest", "establishment"], "icon": "https://maps.gstatic.com/mapfiles/place_api/icons/v1/png_71/doctor-71.png"}, {"name": "Bombay Oculoplastics", "reference": "ChIJkwIlDeDR5zsRkCSIjHnRPs4", "geometry": {"location": {"lat": 18.941002, "lng": 72.82732399999999}, "viewport": {"northeast": {"lat": 18.9423500302915, "lng": 72.8285677302915}, "southwest": {"lat": 18.9396520697085, "lng": 72.82586976970848}}}, "place_id": "ChIJkwIlDeDR5zsRkCSIjHnRPs4", "plus_code": {"global_code": "7JCJWRRG+CW", "compound_code": "WRRG+CW Mumbai, Maharashtra, India"}, "vicinity": "12, New MArine Lines, Mumbai", "scope": "GOOGLE", "business_status": "OPERATIONAL", "types": ["hospital", "health", "point_of_interest", "establishment"], "icon": "https://maps.gstatic.com/mapfiles/place_api/icons/v1/png_71/doctor-71.png"}, {"name": "Amresh Baliarsing", "reference": "ChIJq6qqfuDR5zsRRvkc8f5kKso", "geometry": {"location": {"lat": 18.9398132, "lng": 72.82757339999999}, "viewport": {"northeast": {"lat": 18.9412428302915, "lng": 72.8291472802915}, "southwest": {"lat": 18.9385448697085, "lng": 72.82644931970849}}}, "place_id": "ChIJq6qqfuDR5zsRRvkc8f5kKso", "plus_code": {"global_code": "7JCJWRQH+W2", "compound_code": "WRQH+W2 Mumbai, Maharashtra, India"}, "vicinity": "136, Mrc Building, 12, New Marine Lines, Maharashtra, Mumbai, 400020", "scope": "GOOGLE", "business_status": "OPERATIONAL", "types": ["hospital", "health", "point_of_interest", "establishment"], "icon": "https://maps.gstatic.com/mapfiles/place_api/icons/v1/png_71/doctor-71.png"}, {"rating": 4.8, "user_ratings_total": 5, "name": "Central Government Health Scheme Dispensary", "reference": "ChIJ6VuXf-DR5zsRQ9S9j8BSRfQ", "geometry": {"location": {"lat": 18.9396732, "lng": 72.8277964}, "viewport": {"northeast": {"lat": 18.9408011802915, "lng": 72.8292299302915}, "southwest": {"lat": 18.9381032197085, "lng": 72.8265319697085}}}, "opening_hours": {"open_now": true}, "place_id": "ChIJ6VuXf-DR5zsRQ9S9j8BSRfQ", "plus_code": {"global_code": "7JCJWRQH+V4", "compound_code": "WRQH+V4 Mumbai, Maharashtra, India"}, "vicinity": "Ground Floor, Prathishtha Bhavan, UAH Khan Marg, New Marine Lines, Marine Lines, Mumbai", "photos": [{"photo_reference": "CmRaAAAAsrmqFYOBjBCs2xJ_c8HyLguHVP0dZZR-Rjf9REbBvK-zfW3yp6CrPvjXpYOCnjWpFOCfNeJlm-Ebe_SleFptqYkNE0lFXblv08rNd_Or_o-PmAFF0vywDj_tqATJ60-XEhA19RrUzoPJ3VYAl4vufMqUGhSDsIBzYUTO1Z9zgYk5zrmxjgIykw", "width": 4160, "html_attributions": ["<a href=\"https://maps.google.com/maps/contrib/105974764847530234739\">Birat Raj</a>"], "height": 3120}], "scope": "GOOGLE", "business_status": "OPERATIONAL", "types": ["hospital", "health", "point_of_interest", "establishment"], "icon": "https://maps.gstatic.com/mapfiles/place_api/icons/v1/png_71/doctor-71.png"}, {"name": "Enam medical center", "reference": "ChIJk4r_04XP5zsRvioGXzo3TwI", "geometry": {"location": {"lat": 18.9430864, "lng": 72.8271764}, "viewport": {"northeast": {"lat": 18.9444930302915, "lng": 72.8284964302915}, "southwest": {"lat": 18.94179506970849, "lng": 72.82579846970849}}}, "place_id": "ChIJk4r_04XP5zsRvioGXzo3TwI", "plus_code": {"global_code": "7JCJWRVG+6V", "compound_code": "WRVG+6V Mumbai, Maharashtra, India"}, "vicinity": "Marine Lines, Mumbai", "scope": "GOOGLE", "business_status": "OPERATIONAL", "types": ["hospital", "health", "point_of_interest", "establishment"], "icon": "https://maps.gstatic.com/mapfiles/place_api/icons/v1/png_71/doctor-71.png"}, {"rating": 5, "user_ratings_total": 1, "name": "Doctor D'Souza's Clinic", "reference": "ChIJRTzu5B_O5zsRNdHOY5dvLvo", "geometry": {"location": {"lat": 18.9429403, "lng": 72.8272918}, "viewport": {"northeast": {"lat": 18.9442139802915, "lng": 72.82844103029149}, "southwest": {"lat": 18.9415160197085, "lng": 72.82574306970848}}}, "place_id": "ChIJRTzu5B_O5zsRNdHOY5dvLvo", "plus_code": {"global_code": "7JCJWRVG+5W", "compound_code": "WRVG+5W Mumbai, Maharashtra, India"}, "vicinity": "opp. Gol Masjid, 1st Marine Street, opp. Gol Masjid, Doctor SC Fernandes Road, Marine Line, Dhobi Talao, Kalbadevi, Mumbai", "scope": "GOOGLE", "business_status": "OPERATIONAL", "types": ["hospital", "doctor", "health", "point_of_interest", "establishment"], "icon": "https://maps.gstatic.com/mapfiles/place_api/icons/v1/png_71/doctor-71.png"}, {"rating": 5, "user_ratings_total": 3, "name": "Parathyroid Center", "reference": "ChIJEWiJpuDR5zsRtbSF3ayUjcM", "geometry": {"location": {"lat": 18.9375967, "lng": 72.8276687}, "viewport": {"northeast": {"lat": 18.9389377302915, "lng": 72.82883918029151}, "southwest": {"lat": 18.9362397697085, "lng": 72.8261412197085}}}, "opening_hours": {"open_now": true}, "place_id": "ChIJEWiJpuDR5zsRtbSF3ayUjcM", "plus_code": {"global_code": "7JCJWRQH+23", "compound_code": "WRQH+23 Mumbai, Maharashtra, India"}, "vicinity": "Dr. Ritesh Agrawal , Roxana Building, 1/A, Adjacent to Income Tax Office Opposite Churchgate Station (E, Maharshi Karve Road, New Marine Lines, Mumbai", "scope": "GOOGLE", "business_status": "OPERATIONAL", "types": ["hospital", "doctor", "health", "point_of_interest", "establishment"], "icon": "https://maps.gstatic.com/mapfiles/place_api/icons/v1/png_71/doctor-71.png"}, {"name": "Bombay Hospital 1st floor/132", "reference": "ChIJHacqw4_R5zsRb2ddVxTm8X0", "geometry": {"location": {"lat": 18.9411374, "lng": 72.828051}, "viewport": {"northeast": {"lat": 18.9425771302915, "lng": 72.8293642802915}, "southwest": {"lat": 18.93987916970849, "lng": 72.8266663197085}}}, "place_id": "ChIJHacqw4_R5zsRb2ddVxTm8X0", "plus_code": {"global_code": "7JCJWRRH+F6", "compound_code": "WRRH+F6 Mumbai, Maharashtra, India"}, "vicinity": "RD Birla Tower, Bombay Hospital Avenue, New Marine Lines, Marine Lines, Mumbai", "scope": "GOOGLE", "business_status": "OPERATIONAL", "types": ["hospital", "health", "point_of_interest", "establishment"], "icon": "https://maps.gstatic.com/mapfiles/place_api/icons/v1/png_71/doctor-71.png"}, {"rating": 4.5, "user_ratings_total": 2, "name": "Drs Medical Centre", "reference": "ChIJBwAAQOfR5zsRZGBg_pQwtRU", "geometry": {"location": {"lat": 18.9351209, "lng": 72.82641339999999}, "viewport": {"northeast": {"lat": 18.93639548029151, "lng": 72.8277509302915}, "southwest": {"lat": 18.9336975197085, "lng": 72.8250529697085}}}, "place_id": "ChIJBwAAQOfR5zsRZGBg_pQwtRU", "plus_code": {"global_code": "7JCJWRPG+2H", "compound_code": "WRPG+2H Mumbai, Maharashtra, India"}, "vicinity": "98, Lady Ratan Tata Medical &, Near Churchgate, Churchgate, Mumbai", "scope": "GOOGLE", "business_status": "OPERATIONAL", "types": ["hospital", "health", "point_of_interest", "establishment"], "icon": "https://maps.gstatic.com/mapfiles/place_api/icons/v1/png_71/doctor-71.png"}, {"name": "Bhatia Medical Center", "reference": "ChIJn2UE_t_R5zsRHEiFhAbkt1Y", "geometry": {"location": {"lat": 18.9420476, "lng": 72.8280534}, "viewport": {"northeast": {"lat": 18.9434178302915, "lng": 72.8293420302915}, "southwest": {"lat": 18.9407198697085, "lng": 72.82664406970848}}}, "place_id": "ChIJn2UE_t_R5zsRHEiFhAbkt1Y", "plus_code": {"global_code": "7JCJWRRH+R6", "compound_code": "WRRH+R6 Mumbai, Maharashtra, India"}, "vicinity": "behind Metro Cinema, 5, Meghji Bhavan, 1st floor, behind Metro Cinema, Barrack Road, Mumbai", "scope": "GOOGLE", "business_status": "OPERATIONAL", "types": ["hospital", "health", "point_of_interest", "establishment"], "icon": "https://maps.gstatic.com/mapfiles/place_api/icons/v1/png_71/doctor-71.png"}, {"rating": 5, "user_ratings_total": 1, "name": "Child Development Centre", "reference": "ChIJz5g05N_R5zsRys7xtbBGwVo", "geometry": {"location": {"lat": 18.9414821, "lng": 72.8284626}, "viewport": {"northeast": {"lat": 18.9428060302915, "lng": 72.8298212802915}, "southwest": {"lat": 18.9401080697085, "lng": 72.82712331970849}}}, "opening_hours": {"open_now": false}, "place_id": "ChIJz5g05N_R5zsRys7xtbBGwVo", "plus_code": {"global_code": "7JCJWRRH+H9", "compound_code": "WRRH+H9 Mumbai, Maharashtra, India"}, "vicinity": "Bombay Hospital Avenue, Dhobi Talao, New Marine Lines, Marine Lines, Mumbai", "photos": [{"photo_reference": "CmRaAAAA34Y3YGITn1HgYI6ky5dYJDpCfvaqwgdnHxAWdR9Gw9QTJXWT9g6BpQaPIm52ZIKm1XygiC2ruMQ2RfDIcFHh6HL4zxknRKk2-wNN7mbLi8jmIcl4cGoS7V6zOtOvQpNQEhABdj1cKVZ8g_4ZmJNrPsJjGhRaAa5QbWHqfzSJVt7a4Ep0gCcG2Q", "width": 2204, "html_attributions": ["<a href=\"https://maps.google.com/maps/contrib/100928714310108872288\">sushmita dole</a>"], "height": 3920}], "scope": "GOOGLE", "business_status": "OPERATIONAL", "types": ["hospital", "health", "point_of_interest", "establishment"], "icon": "https://maps.gstatic.com/mapfiles/place_api/icons/v1/png_71/doctor-71.png"}, {"name": "MumbaiStrokeCentre", "reference": "ChIJxZg05N_R5zsRedJJEe3h8zw", "geometry": {"location": {"lat": 18.9414822, "lng": 72.8284626}, "viewport": {"northeast": {"lat": 18.9428061302915, "lng": 72.82982138029149}, "southwest": {"lat": 18.94010816970849, "lng": 72.82712341970849}}}, "place_id": "ChIJxZg05N_R5zsRedJJEe3h8zw", "plus_code": {"global_code": "7JCJWRRH+H9", "compound_code": "WRRH+H9 Mumbai, Maharashtra, India"}, "vicinity": "CATHLAB/DSA ROOM, THIRD FLOOR, NEW WING, BOMBAY HOSPITAL, MARINE LINES, Mumbai", "scope": "GOOGLE", "business_status": "OPERATIONAL", "types": ["hospital", "health", "point_of_interest", "establishment"], "icon": "https://maps.gstatic.com/mapfiles/place_api/icons/v1/png_71/doctor-71.png"}, {"rating": 5, "user_ratings_total": 1, "name": "Bombay hospital", "reference": "ChIJE-2W4QTR5zsRpfFnuaKzo_8", "geometry": {"location": {"lat": 18.9415016, "lng": 72.8285039}, "viewport": {"northeast": {"lat": 18.9428801302915, "lng": 72.8298413802915}, "southwest": {"lat": 18.94018216970849, "lng": 72.82714341970849}}}, "place_id": "ChIJE-2W4QTR5zsRpfFnuaKzo_8", "plus_code": {"global_code": "7JCJWRRH+JC", "compound_code": "WRRH+JC Mumbai, Maharashtra, India"}, "vicinity": "Bombay Hospital Avenue, Dhobi Talao, Chhatrapati Shivaji Terminus Area, Fort, Mumbai", "photos": [{"photo_reference": "CmRaAAAAwokeWkyQNPN7pYD8Jzo9xa8UT5laffKLXZAX9nHsuYjdXFZ411riytnMHhJ-GR7h0jwNFAZ2symHkbZAwq02444TfI2VSQPtiiKYl33Jq8ME5TYemTu_U7chpm8arThaEhAZaFKX8LRCi9Ye2tHDHbR9GhSotV0Pab_Dbg3NV0jdd3_QfxweMg", "width": 4032, "html_attributions": ["<a href=\"https://maps.google.com/maps/contrib/105746473417009601863\">Niranjan Mudholkar</a>"], "height": 2268}], "scope": "GOOGLE", "business_status": "OPERATIONAL", "types": ["hospital", "health", "point_of_interest", "establishment"], "icon": "https://maps.gstatic.com/mapfiles/place_api/icons/v1/png_71/doctor-71.png"}, {"rating": 1, "user_ratings_total": 1, "name": "Dr. Sanghvi Vikram", "reference": "ChIJqZgNGN7R5zsRsGeen7jRZN8", "geometry": {"location": {"lat": 18.9381532, "lng": 72.8285743}, "viewport": {"northeast": {"lat": 18.9395005302915, "lng": 72.8298928302915}, "southwest": {"lat": 18.93680256970849, "lng": 72.82719486970849}}}, "place_id": "ChIJqZgNGN7R5zsRsGeen7jRZN8", "vicinity": "Bombay Hospital, Sir Vithaldas Marg, Marine Lines, Mumbai - 400002", "scope": "GOOGLE", "business_status": "OPERATIONAL", "types": ["hospital", "health", "point_of_interest", "establishment"], "icon": "https://maps.gstatic.com/mapfiles/place_api/icons/v1/png_71/doctor-71.png"}, {"name": "Hindu Crematorium", "reference": "ChIJk5kAWxnO5zsR7QsIzqV4nDM", "geometry": {"location": {"lat": 18.9485883, "lng": 72.8225628}, "viewport": {"northeast": {"lat": 18.9498090302915, "lng": 72.82373468029151}, "southwest": {"lat": 18.9471110697085, "lng": 72.8210367197085}}}, "place_id": "ChIJk5kAWxnO5zsR7QsIzqV4nDM", "plus_code": {"global_code": "7JCJWRXF+C2", "compound_code": "WRXF+C2 Mumbai, Maharashtra, India"}, "vicinity": "Thakurdwar, Kalbadevi, Mumbai", "scope": "GOOGLE", "business_status": "OPERATIONAL", "types": ["hospital", "health", "point_of_interest", "establishment"], "icon": "https://maps.gstatic.com/mapfiles/place_api/icons/v1/png_71/doctor-71.png"}, {"rating": 5, "user_ratings_total": 1, "name": "Chandan Wadi Municipal School And Dispensary", "reference": "ChIJV1InQB_O5zsRz1LhMsqkvT4", "geometry": {"location": {"lat": 18.94662, "lng": 72.826554}, "viewport": {"northeast": {"lat": 18.9479232302915, "lng": 72.8279301802915}, "southwest": {"lat": 18.9452252697085, "lng": 72.8252322197085}}}, "place_id": "ChIJV1InQB_O5zsRz1LhMsqkvT4", "plus_code": {"global_code": "7JCJWRWG+JJ", "compound_code": "WRWG+JJ Mumbai, Maharashtra, India"}, "vicinity": "15-540, Chandan Wadi Road, Kamathi Wada, Sonapur, Marine Lines, Mumbai", "scope": "GOOGLE", "business_status": "OPERATIONAL", "types": ["hospital", "health", "point_of_interest", "establishment"], "icon": "https://maps.gstatic.com/mapfiles/place_api/icons/v1/png_71/doctor-71.png"}, {"name": "Gokuldas Tejpal Hospital", "reference": "ChIJsRYwtczR5zsRW61yrgz6coQ", "geometry": {"location": {"lat": 18.9394458, "lng": 72.829951}, "viewport": {"northeast": {"lat": 18.9407977802915, "lng": 72.8313168302915}, "southwest": {"lat": 18.9380998197085, "lng": 72.82861886970848}}}, "place_id": "ChIJsRYwtczR5zsRW61yrgz6coQ", "plus_code": {"global_code": "7JCJWRQH+QX", "compound_code": "WRQH+QX Mumbai, Maharashtra, India"}, "vicinity": "New Marine Lines, Marine Lines, Mumbai", "scope": "GOOGLE", "business_status": "OPERATIONAL", "types": ["hospital", "health", "point_of_interest", "establishment"], "icon": "https://maps.gstatic.com/mapfiles/place_api/icons/v1/png_71/doctor-71.png"}]}