{"status": "OK", "html_attributions": [], "results": [{"rating": 4.8, "user_ratings_total": 45, "name": "Apple diagnostics ( Sonography / X Ray / Pathology Laboratory )", "reference": "ChIJb-4_2BXJ5zsR32pHL_h2e6w", "geometry": {"location": {"lat": 19.06001699999999, "lng": 72.832756}, "viewport": {"northeast": {"lat": 19.0613896302915, "lng": 72.8341068302915}, "southwest": {"lat": 19.0586916697085, "lng": 72.83140886970848}}}, "opening_hours": {"open_now": false}, "place_id": "ChIJb-4_2BXJ5zsR32pHL_h2e6w", "plus_code": {"global_code": "7JFJ3R6M+24", "compound_code": "3R6M+24 Mumbai, Maharashtra, India"}, "vicinity": "above Talwalkars Gym, 101 Mangal Simran CHS , Behind Tavva Restaurant, above Talwalkars Gym, 28th Road, Mumbai", "photos": [{"photo_reference": "CmRaAAAAM-SZdV_1rJrZJXO9zih275jdp4ywqf6mHgb_5QlMvKFPrz1BDgAGSwbrnvt4NFQhe5GOD1RNsLdVLDT41qEh9QL6dMuulmDOJwHMF4Zb_Z3DnCoB6g7EEmLuEMJs5QHFEhC-85yKJeRdk0mD70tiZjyjGhQ1d-1y9gMvIbXKZOFnsAz1SFE9Lw", "width": 3926, "html_attributions": ["<a href=\"https://maps.google.com/maps/contrib/108749754045012884956\">Apple diagnostics ( Sonography / X Ray / Pathology Laboratory )</a>"], "height": 2209}], "scope": "GOOGLE", "business_status": "OPERATIONAL", "types": ["hospital", "doctor", "health", "point_of_interest", "establishment"], "icon": "https://maps.gstatic.com/mapfiles/place_api/icons/v1/png_71/generic_business-71.png"}, {"name": "Dr. Shafique Clinic", "reference": "ChIJZ6Fv9qTJ5zsRAKQp27mNtJY", "geometry": {"location": {"lat": 19.0568122, "lng": 72.8324207}, "viewport": {"northeast": {"lat": 19.0581465302915, "lng": 72.83369788029151}, "southwest": {"lat": 19.05544856970849, "lng": 72.8309999197085}}}, "opening_hours": {"open_now": true}, "place_id": "ChIJZ6Fv9qTJ5zsRAKQp27mNtJY", "plus_code": {"global_code": "7JFJ3R4J+PX", "compound_code": "3R4J+PX Mumbai, Maharashtra, India"}, "vicinity": "83, Almeida Park Marg, Ranwar, Bandra West, Mumbai", "scope": "GOOGLE", "business_status": "OPERATIONAL", "types": ["hospital", "health", "point_of_interest", "establishment"], "icon": "https://maps.gstatic.com/mapfiles/place_api/icons/v1/png_71/doctor-71.png"}, {"rating": 5, "user_ratings_total": 5, "name": "Dr.Shreedhar Archik | Best Orthopedic|Back & Neck Pain Treatment, Mumbai,India", "reference": "ChIJeQrusDjJ5zsRe3w27Dt2nhk", "geometry": {"location": {"lat": 19.0510898, "lng": 72.82888919999999}, "viewport": {"northeast": {"lat": 19.0526009802915, "lng": 72.8301742802915}, "southwest": {"lat": 19.04990301970849, "lng": 72.82747631970848}}}, "opening_hours": {"open_now": false}, "place_id": "ChIJeQrusDjJ5zsRe3w27Dt2nhk", "plus_code": {"global_code": "7JFJ3R2H+CH", "compound_code": "3R2H+CH Mumbai, Maharashtra, India"}, "vicinity": "Lilavati Hospital & Research Centre, Mount Mary, Bandra West, Mumbai", "scope": "GOOGLE", "business_status": "OPERATIONAL", "types": ["hospital", "doctor", "health", "point_of_interest", "establishment"], "icon": "https://maps.gstatic.com/mapfiles/place_api/icons/v1/png_71/generic_business-71.png"}, {"rating": 3, "user_ratings_total": 4, "name": "Neocare - Headache & Facial Pain Relief Center", "reference": "ChIJpdd2oazB5zsRv4jACdPgOkA", "geometry": {"location": {"lat": 19.053616, "lng": 72.83109999999999}, "viewport": {"northeast": {"lat": 19.0550975302915, "lng": 72.83241748029151}, "southwest": {"lat": 19.0523995697085, "lng": 72.82971951970849}}}, "opening_hours": {"open_now": false}, "place_id": "ChIJpdd2oazB5zsRv4jACdPgOkA", "plus_code": {"global_code": "7JFJ3R3J+CC", "compound_code": "3R3J+CC Mumbai, Maharashtra, India"}, "vicinity": "opp. mehboob studio, Vision 2020, Shop no. 9, opp. mehboob studio, Hill Road, Ranwar, Bandra West, Mumbai", "photos": [{"photo_reference": "CmRaAAAA0exw4XZP68w5dl7kMhMpvBMiGfnzJfS_cBpHaEolzc5x08qYS85ALDuLNxqb9MnZF0qcUjQ6gMbryXwu1ooA6nls8CR2caJvE0IcWrWPsqbEm3uEIDMTuwWLd4EuAUbIEhAn6xm8wsW8uQEoRjMoga9YGhSNfX8mj_wVQ2Buza4xbID_8ZAm3w", "width": 1152, "html_attributions": ["<a href=\"https://maps.google.com/maps/contrib/115159808710826650722\">Neocare - Headache &amp; Facial Pain Relief Center</a>"], "height": 528}], "scope": "GOOGLE", "business_status": "OPERATIONAL", "types": ["hospital", "health", "point_of_interest", "establishment"], "icon": "https://maps.gstatic.com/mapfiles/place_api/icons/v1/png_71/doctor-71.png"}, {"rating": 5, "user_ratings_total": 1, "name": "Lilavati paediatric service", "reference": "ChIJb_PRsDjJ5zsR2K2Rodit1rk", "geometry": {"location": {"lat": 19.0511277, "lng": 72.82899809999999}, "viewport": {"northeast": {"lat": 19.0526390802915, "lng": 72.8302830802915}, "southwest": {"lat": 19.0499411197085, "lng": 72.82758511970849}}}, "place_id": "ChIJb_PRsDjJ5zsR2K2Rodit1rk", "plus_code": {"global_code": "7JFJ3R2H+FH", "compound_code": "3R2H+FH Mumbai, Maharashtra, India"}, "vicinity": "General Arunkumar Vaidya Nagar, Bandra West, Mumbai", "photos": [{"photo_reference": "CmRaAAAABo5mHatPpx1wnxHf32HHSUI9zRwAP_DKqaw9wPZjuxK69DpuAYcBAvyCQ4yszKkmcizJ-kSW9CYGDLFrU8kbwU0rPr_bFgjr1LKclkJ211AeGLZgDVlOn5Jv1wQY2OBUEhCmRZM7sNcErVxvjl2qwvyZGhS51oLPhDXzsim7stUgFJtOuAae5w", "width": 2448, "html_attributions": ["<a href=\"https://maps.google.com/maps/contrib/108294379624981496083\">Rajnish Sethi</a>"], "height": 3264}], "scope": "GOOGLE", "business_status": "OPERATIONAL", "types": ["hospital", "health", "point_of_interest", "establishment"], "icon": "https://maps.gstatic.com/mapfiles/place_api/icons/v1/png_71/doctor-71.png"}, {"rating": 5, "user_ratings_total": 6, "name": "Dr. Thombre Clinic", "reference": "ChIJvQXNDUfJ5zsREj_xPSvhWLI", "geometry": {"location": {"lat": 19.049113, "lng": 72.8261079}, "viewport": {"northeast": {"lat": 19.0504440302915, "lng": 72.8275047302915}, "southwest": {"lat": 19.0477460697085, "lng": 72.82480676970849}}}, "opening_hours": {"open_now": false}, "place_id": "ChIJvQXNDUfJ5zsREj_xPSvhWLI", "plus_code": {"global_code": "7JFJ2RXG+JC", "compound_code": "2RXG+JC Mumbai, Maharashtra, India"}, "vicinity": "Opposite Bungalow 9, Mount Mary, Bandra West, Mumbai", "photos": [{"photo_reference": "CmRaAAAAAmfmBhdpQOQgGAM2nw4JLe-X5YMMpaETB7y5nJ7OnO_I98RXvJ-8qtYFXaxEDHSW_kfsxrxQyokulh_zxQqgc0Xj8KmqTyyAt5x6NsLsOY73NKIHOC3mye6pfUpW0ZcNEhDDV8IdtgDFSnEu7z6PXN-wGhQ9Gyeg2yvcDdrjxgtMUwpgmbmpGQ", "width": 4608, "html_attributions": ["<a href=\"https://maps.google.com/maps/contrib/113488773023032289206\">Anup Surendra Jaiswal</a>"], "height": 2592}], "scope": "GOOGLE", "business_status": "OPERATIONAL", "types": ["hospital", "health", "point_of_interest", "establishment"], "icon": "https://maps.gstatic.com/mapfiles/place_api/icons/v1/png_71/doctor-71.png"}, {"rating": 5, "user_ratings_total": 1, "name": "\u0627\u0644\u0645\u0633\u062a\u0634\u0641\u0649 \u0644\u064a\u0644\u0627 \u0641\u062a\u064a", "reference": "ChIJi1E3tzjJ5zsRKZ04V4_3D04", "geometry": {"location": {"lat": 19.05110519999999, "lng": 72.8290665}, "viewport": {"northeast": {"lat": 19.0524078302915, "lng": 72.8305612802915}, "southwest": {"lat": 19.0497098697085, "lng": 72.82786331970848}}}, "place_id": "ChIJi1E3tzjJ5zsRKZ04V4_3D04", "plus_code": {"global_code": "7JFJ3R2H+CJ", "compound_code": "3R2H+CJ Mumbai, Maharashtra, India"}, "vicinity": "A - 791, Krishna Chandra Marg, Reclamation, Bandra West, Mumbai", "scope": "GOOGLE", "business_status": "OPERATIONAL", "types": ["hospital", "health", "point_of_interest", "establishment"], "icon": "https://maps.gstatic.com/mapfiles/place_api/icons/v1/png_71/doctor-71.png"}, {"rating": 4.8, "user_ratings_total": 27, "name": "Dr. Anup Ramani - Lilavati Hospital", "reference": "ChIJA13qCfrJ5zsRcHFcVYswIXM", "geometry": {"location": {"lat": 19.0511316, "lng": 72.82920519999999}, "viewport": {"northeast": {"lat": 19.0524267802915, "lng": 72.8306336802915}, "southwest": {"lat": 19.0497288197085, "lng": 72.82793571970848}}}, "opening_hours": {"open_now": true}, "place_id": "ChIJA13qCfrJ5zsRcHFcVYswIXM", "plus_code": {"global_code": "7JFJ3R2H+FM", "compound_code": "3R2H+FM Mumbai, Maharashtra, India"}, "vicinity": "A-791, Bandra Reclamation Road, General Arunkumar Vaidya Nagar, Mumbai", "photos": [{"photo_reference": "CmRaAAAA_TfDAtfC9Af-Y59yUglB-ZBmwUvlQyWZ0LiQqlAuoNB6qhGHW309Z8FrGmPuuQ0oVYoHABtao-MZ9Ru6PtLEeqrUft7wcQtgdvPf1oioRSMy26h0bj9hvZSegnEdjfZeEhCOL05CIuqmORt0aBoQWT-zGhTUsL0XFdiS6TEEnyT_RPQw0I7P1w", "width": 300, "html_attributions": ["<a href=\"https://maps.google.com/maps/contrib/116145741024036750626\">Dr. Anup Ramani - Lilavati Hospital</a>"], "height": 428}], "scope": "GOOGLE", "business_status": "OPERATIONAL", "types": ["hospital", "doctor", "health", "point_of_interest", "establishment"], "icon": "https://maps.gstatic.com/mapfiles/place_api/icons/v1/png_71/generic_business-71.png"}, {"rating": 4.6, "user_ratings_total": 10, "name": "Gastrointestinal Surgeon - Dr. D. R. Kulkarni", "reference": "ChIJuSH8uTjJ5zsRWk-Newd5vbo", "geometry": {"location": {"lat": 19.0509964, "lng": 72.82906559999999}, "viewport": {"northeast": {"lat": 19.05232103029151, "lng": 72.8305541302915}, "southwest": {"lat": 19.0496230697085, "lng": 72.82785616970848}}}, "opening_hours": {"open_now": false}, "place_id": "ChIJuSH8uTjJ5zsRWk-Newd5vbo", "plus_code": {"global_code": "7JFJ3R2H+9J", "compound_code": "3R2H+9J Mumbai, Maharashtra, India"}, "vicinity": "C/O-- Dr. D.R. KULKARNI, Chamber / Consulting Room no 18, Lilavati Hospital, & Research Center, Bandra Reclamation, KC Road, Bandra West, Mumbai", "photos": [{"photo_reference": "CmRaAAAAJ8nzaA_DdXoON0tI8kGwS0kU4yx5PA0M4ypx054-EFBy-RgbLWI7Z6MG3cZL05h6KE0cRTd8y9VYA1YaJMzTfdzWGrU6cHt089ogs2FpQVT2LMFzhRHfKO-waqBhC9IpEhDUEOWUJIHlRRIbBwFxKLi7GhQtCpEVSt1LGQdc3jll1n7ffbbhzg", "width": 1080, "html_attributions": ["<a href=\"https://maps.google.com/maps/contrib/102029767311970518173\">Gastrointestinal Surgeon - Dr. D. R. Kulkarni</a>"], "height": 608}], "scope": "GOOGLE", "business_status": "OPERATIONAL", "types": ["hospital", "doctor", "health", "point_of_interest", "establishment"], "icon": "https://maps.gstatic.com/mapfiles/place_api/icons/v1/png_71/generic_business-71.png"}, {"rating": 5, "user_ratings_total": 1, "name": "Liver and Pancreas Clinic", "reference": "ChIJ-wy_88bO5zsRuK-PF5pKpq4", "geometry": {"location": {"lat": 19.05097589999999, "lng": 72.82904669999999}, "viewport": {"northeast": {"lat": 19.0522992802915, "lng": 72.8305424302915}, "southwest": {"lat": 19.0496013197085, "lng": 72.82784446970848}}}, "opening_hours": {"open_now": false}, "place_id": "ChIJ-wy_88bO5zsRuK-PF5pKpq4", "plus_code": {"global_code": "7JFJ3R2H+9J", "compound_code": "3R2H+9J Mumbai, Maharashtra, India"}, "vicinity": "C/O-- Dr D R KULKARNI, Chamber / Consulting Room no 18, Lilavati Hospital & Research Center, Bandra Reclamation, KC Road, Bandra West,, Mumbai", "photos": [{"photo_reference": "CmRaAAAAJhwiJRBVHSu0ri4y2umi93JBLC7WC5ZglR9NSTkQeEsO4EM8FoZU-retU7Y-lI0-Q1oWidT-pYDoK2IMyDknh_LCiG9BIpYhkXeNwxnD4-twoQKZevBDyln0I4sUI5y0EhBAiQoeEa6_PZADDt2-CsocGhSelNHYH8jhqfHozdKXmeYSj06ASA", "width": 1080, "html_attributions": ["<a href=\"https://maps.google.com/maps/contrib/112200786945075801491\">Liver and Pancreas Clinic</a>"], "height": 396}], "scope": "GOOGLE", "business_status": "OPERATIONAL", "types": ["hospital", "doctor", "health", "point_of_interest", "establishment"], "icon": "https://maps.gstatic.com/mapfiles/place_api/icons/v1/png_71/generic_business-71.png"}, {"rating": 5, "user_ratings_total": 2, "name": "Heart Affairs - Heart Surgeon", "reference": "ChIJaXo1fojJ5zsRugZob2MjFSg", "geometry": {"location": {"lat": 19.0509977, "lng": 72.8293161}, "viewport": {"northeast": {"lat": 19.0523458802915, "lng": 72.83066943029152}, "southwest": {"lat": 19.0496479197085, "lng": 72.8279714697085}}}, "opening_hours": {"open_now": false}, "place_id": "ChIJaXo1fojJ5zsRugZob2MjFSg", "plus_code": {"global_code": "7JFJ3R2H+9P", "compound_code": "3R2H+9P Mumbai, Maharashtra, India"}, "vicinity": "Consulting Room No. 22, Lilavati Hospital , A / 791, Bandra West, Mumbai", "photos": [{"photo_reference": "CmRaAAAAVfqUD81P1qrn1ouwcWEBsW60B3xomZCe0y7cmEte-KAh5qn8L6CSYHUJ3I8XOktrzhKSyK4fFPxnBFA69eTO6tj070ZEX4BWW7VYYybXf4Z_TNCpTWPRbUTPo2XkgTY4EhDIIWHNzMGpvtfOZ9GhKFz1GhT3uP_W0M72SRpQixhuqUmpvfWf7g", "width": 1200, "html_attributions": ["<a href=\"https://maps.google.com/maps/contrib/101928989099779050344\">Heart Affairs - Heart Surgeon</a>"], "height": 1200}], "scope": "GOOGLE", "business_status": "OPERATIONAL", "types": ["hospital", "doctor", "health", "point_of_interest", "establishment"], "icon": "https://maps.gstatic.com/mapfiles/place_api/icons/v1/png_71/generic_business-71.png"}, {"rating": 4.5, "user_ratings_total": 2, "name": "Generico - Generic Medicine Shop", "reference": "ChIJc_Q81cLJ5zsREBbpN44_idg", "geometry": {"location": {"lat": 19.0527404, "lng": 72.8240472}, "viewport": {"northeast": {"lat": 19.05409098029151, "lng": 72.8253727302915}, "southwest": {"lat": 19.0513930197085, "lng": 72.8226747697085}}}, "place_id": "ChIJc_Q81cLJ5zsREBbpN44_idg", "plus_code": {"global_code": "7JFJ3R3F+3J", "compound_code": "3R3F+3J Bandra West, Mumbai, Maharashtra, India"}, "vicinity": "Plot No, Liberty Building, Police Station, Shop No.3, near Vodafone Gallery, near Bandra, 98, Hill Road, Bandra West, W", "photos": [{"photo_reference": "CmRaAAAAK_j9ORaotlzHuWYkIfDvnzv6rHRTpJQV24gqH3seh1f3eNIuduUcDN09-75aEc0cWfJeub8Y2nKW6ICPzofPcxXrP4vWM4BaD-lfMKaIsC_Wfu4e2SvM4i20XvOps0DUEhB5DPUbSp7yOD4GuJwYRpc1GhT9buU_OaTwfrWD7PR34-e4A2Ym_Q", "width": 3120, "html_attributions": ["<a href=\"https://maps.google.com/maps/contrib/113491250237689585077\">Sunil Yadav</a>"], "height": 4160}], "scope": "GOOGLE", "business_status": "OPERATIONAL", "types": ["hospital", "health", "point_of_interest", "establishment"], "icon": "https://maps.gstatic.com/mapfiles/place_api/icons/v1/png_71/doctor-71.png"}, {"rating": 3.8, "user_ratings_total": 14, "name": "Solanki medical and general stores", "reference": "ChIJOU3oN1PJ5zsRH4xlUb9j6GA", "geometry": {"location": {"lat": 19.0626164, "lng": 72.82918149999999}, "viewport": {"northeast": {"lat": 19.0640390802915, "lng": 72.8305079802915}, "southwest": {"lat": 19.0613411197085, "lng": 72.8278100197085}}}, "opening_hours": {"open_now": true}, "place_id": "ChIJOU3oN1PJ5zsRH4xlUb9j6GA", "plus_code": {"global_code": "7JFJ3R7H+2M", "compound_code": "3R7H+2M Mumbai, Maharashtra, India"}, "vicinity": "Shop no. 14, Dheeraj Arcade, Pali Mala Road, Bandra West, Mumbai", "photos": [{"photo_reference": "CmRaAAAAPhy1os-fb6ukpbqsCzoFbiUYPoy8G8qrfKQwcmL7WbKNkIMaR23IwqEUcAdGWykAWZbK0A-4flmOmP7bAEQ6ek0wayITHKr9aS7rx24bz7DhjhpaH7XrHFcXT5dyalXeEhAGVvKTXOiRztynC1cz5yAUGhTTJdRflOdk4Wpn83ZYqK_u1uNJ5Q", "width": 3024, "html_attributions": ["<a href=\"https://maps.google.com/maps/contrib/106173115692342858643\">Natalie Mayroth</a>"], "height": 4032}], "scope": "GOOGLE", "business_status": "OPERATIONAL", "types": ["hospital", "health", "point_of_interest", "establishment"], "icon": "https://maps.gstatic.com/mapfiles/place_api/icons/v1/png_71/doctor-71.png"}, {"name": "Laparo Obeso Centre by Dr Shashank Shah , Mumbai", "reference": "ChIJpZk0wUnJ5zsR5Nm5KJSACtc", "geometry": {"location": {"lat": 19.0509793, "lng": 72.8291271}, "viewport": {"northeast": {"lat": 19.0523282802915, "lng": 72.8304760802915}, "southwest": {"lat": 19.04963031970849, "lng": 72.82777811970848}}}, "opening_hours": {"open_now": true}, "place_id": "ChIJpZk0wUnJ5zsR5Nm5KJSACtc", "plus_code": {"global_code": "7JFJ3R2H+9M", "compound_code": "3R2H+9M Mumbai, Maharashtra, India"}, "vicinity": "Ground Floor, Lilavati Hospital, A-791, Bandra Reclamation Road, Bandra West, Mumbai", "scope": "GOOGLE", "business_status": "OPERATIONAL", "types": ["hospital", "health", "point_of_interest", "establishment"], "icon": "https://maps.gstatic.com/mapfiles/place_api/icons/v1/png_71/doctor-71.png"}]}