{"status": "OK", "html_attributions": [], "results": [{"name": "Best Physiotherapy Clinic", "reference": "ChIJpxRPVXUiDTkRnxTgQEO_NOo", "geometry": {"location": {"lat": 28.4265233, "lng": 77.07943139999999}, "viewport": {"northeast": {"lat": 28.4278924802915, "lng": 77.08078363029149}, "southwest": {"lat": 28.4251945197085, "lng": 77.07808566970849}}}, "opening_hours": {"open_now": true}, "place_id": "ChIJpxRPVXUiDTkRnxTgQEO_NOo", "plus_code": {"global_code": "7JWVC3GH+JQ", "compound_code": "C3GH+JQ Gurugram, Haryana, India"}, "vicinity": "Gurugram, Block B1, Sector 57, Gurugram", "scope": "GOOGLE", "business_status": "OPERATIONAL", "types": ["doctor", "health", "point_of_interest", "establishment"], "icon": "https://maps.gstatic.com/mapfiles/place_api/icons/v1/png_71/generic_business-71.png"}, {"name": "B1/84, Sushant Lok 3, Sector 57, Gurgaon, 122003", "reference": "ChIJy3wArQoiDTkRId6Wz1I_DOM", "geometry": {"location": {"lat": 28.4260561, "lng": 77.0796476}, "viewport": {"northeast": {"lat": 28.42731898029151, "lng": 77.0809638802915}, "southwest": {"lat": 28.4246210197085, "lng": 77.07826591970849}}}, "place_id": "ChIJy3wArQoiDTkRId6Wz1I_DOM", "plus_code": {"global_code": "7JWVC3GH+CV", "compound_code": "C3GH+CV Gurugram, Haryana, India"}, "vicinity": "B1/84,, B1/85, Sushant Lok III, B1 Block, Sushant Lok III, Sector 57, Gurugram", "scope": "GOOGLE", "business_status": "OPERATIONAL", "types": ["doctor", "health", "point_of_interest", "establishment"], "icon": "https://maps.gstatic.com/mapfiles/place_api/icons/v1/png_71/generic_business-71.png"}, {"rating": 5, "user_ratings_total": 2, "name": "Dr. G. Arya Prakash", "reference": "ChIJP_6jrQoiDTkRddzWOI4P_lM", "geometry": {"location": {"lat": 28.42600049999999, "lng": 77.0796731}, "viewport": {"northeast": {"lat": 28.4272862802915, "lng": 77.0809884802915}, "southwest": {"lat": 28.42458831970849, "lng": 77.07829051970849}}}, "place_id": "ChIJP_6jrQoiDTkRddzWOI4P_lM", "plus_code": {"global_code": "7JWVC3GH+CV", "compound_code": "C3GH+CV Gurugram, Haryana, India"}, "vicinity": "Flat 84SF, sushant Lok 3, B1 Block, Sector 57, Gurugram", "scope": "GOOGLE", "business_status": "OPERATIONAL", "types": ["doctor", "health", "point_of_interest", "establishment"], "icon": "https://maps.gstatic.com/mapfiles/place_api/icons/v1/png_71/generic_business-71.png"}, {"rating": 5, "user_ratings_total": 7, "name": "Credence Super Specialty Clinic, Clinic in Gurgaon sector 52", "reference": "ChIJZ4hgWaUZDTkRqlZMSwO8rh0", "geometry": {"location": {"lat": 28.4308773, "lng": 77.0754879}, "viewport": {"northeast": {"lat": 28.43216053029151, "lng": 77.07680388029151}, "southwest": {"lat": 28.4294625697085, "lng": 77.07410591970849}}}, "opening_hours": {"open_now": true}, "place_id": "ChIJZ4hgWaUZDTkRqlZMSwO8rh0", "plus_code": {"global_code": "7JWVC3JG+95", "compound_code": "C3JG+95 Gurugram, Haryana, India"}, "vicinity": "Plot 668, Koyal Vihar, Sector 52, Gurugram", "photos": [{"photo_reference": "CmRaAAAAUvp4J3qZ8VfSjsFm1YnKoYqLxtdzz8HOx9zFMUVcDZ181E3id07x06OVmO1UZv5PNr4Mar0u1HH5uPf0W2Us3W6yXsCqxaKkTClHw7zSxyZpkMkjZtbuXOdlG-TA9cVVEhAxnsBZ-yuB9xLM5Lv6d8zLGhRRnrs6MGUOy0LUezh-9Oj5TyAd5A", "width": 912, "html_attributions": ["<a href=\"https://maps.google.com/maps/contrib/105114762498265560112\">Credence Super Specialty Clinic, Clinic in Gurgaon sector 52</a>"], "height": 700}], "scope": "GOOGLE", "business_status": "OPERATIONAL", "types": ["doctor", "health", "point_of_interest", "establishment"], "icon": "https://maps.gstatic.com/mapfiles/place_api/icons/v1/png_71/generic_business-71.png"}, {"rating": 5, "user_ratings_total": 1, "name": "Rajan dhingra", "reference": "ChIJnR4AcKMZDTkRh_dscQ5vX48", "geometry": {"location": {"lat": 28.4308413, "lng": 77.0754293}, "viewport": {"northeast": {"lat": 28.43215328029151, "lng": 77.07675168029151}, "southwest": {"lat": 28.4294553197085, "lng": 77.07405371970849}}}, "place_id": "ChIJnR4AcKMZDTkRh_dscQ5vX48", "plus_code": {"global_code": "7JWVC3JG+85", "compound_code": "C3JG+85 Gurugram, Haryana, India"}, "vicinity": "Credence clinic, Sector 52, Gurugram", "scope": "GOOGLE", "business_status": "OPERATIONAL", "types": ["doctor", "health", "point_of_interest", "establishment"], "icon": "https://maps.gstatic.com/mapfiles/place_api/icons/v1/png_71/generic_business-71.png"}, {"rating": 5, "user_ratings_total": 1, "name": "Mondal Clinic", "reference": "ChIJKQyVhZgYDTkR9S94XFtjV1w", "geometry": {"location": {"lat": 28.434677, "lng": 77.078834}, "viewport": {"northeast": {"lat": 28.4360443302915, "lng": 77.0801905302915}, "southwest": {"lat": 28.4333463697085, "lng": 77.0774925697085}}}, "place_id": "ChIJKQyVhZgYDTkR9S94XFtjV1w", "plus_code": {"global_code": "7JWVC3MH+VG", "compound_code": "C3MH+VG Gurugram, Haryana, India"}, "vicinity": "Wazirabad, Sector 52, Gurugram", "scope": "GOOGLE", "business_status": "OPERATIONAL", "types": ["doctor", "health", "point_of_interest", "establishment"], "icon": "https://maps.gstatic.com/mapfiles/place_api/icons/v1/png_71/generic_business-71.png"}, {"name": "Urologist In Gurgaon, Kidney Transplant, Uro Cancer Surgeon, Dr. Amit Goel", "reference": "ChIJ0XgPEmIZDTkR3A24rvFaRAg", "geometry": {"location": {"lat": 28.430639, "lng": 77.074277}, "viewport": {"northeast": {"lat": 28.4319871302915, "lng": 77.0756250802915}, "southwest": {"lat": 28.42928916970849, "lng": 77.0729271197085}}}, "opening_hours": {"open_now": false}, "place_id": "ChIJ0XgPEmIZDTkR3A24rvFaRAg", "plus_code": {"global_code": "7JWVC3JF+7P", "compound_code": "C3JF+7P Gurugram, Haryana, India"}, "vicinity": "Arzoo Apartments, Department Of Urology, Credence Superspecialty Plot No. 668/SP Sector 52 Opposite, Near Artemis Hospital, Gurugram", "photos": [{"photo_reference": "CmRaAAAAUWi1zYY_UzVnk_dw6akppTUOSpFpyzOARJJnqg17lswu31ECJarZogo1trRx00a7saUQnaCXp_-__e7M1JbsDU9TNiwPRZoi1q7vt1MpD2pXBn2kJUU6vBZOQd0yMOwEEhDE_NClELatKl-22mhk93teGhRjny7Mnkx6WgtrpsXtelX64sKVwA", "width": 4928, "html_attributions": ["<a href=\"https://maps.google.com/maps/contrib/115217852631655825886\">Kanika Aggarwal</a>"], "height": 3264}], "scope": "GOOGLE", "business_status": "OPERATIONAL", "types": ["doctor", "health", "point_of_interest", "establishment"], "icon": "https://maps.gstatic.com/mapfiles/place_api/icons/v1/png_71/generic_business-71.png"}, {"rating": 4.9, "user_ratings_total": 116, "name": "DENT-HORIZONZ DENTAL CLINIC", "reference": "ChIJP8xzZPUYDTkR__60mQJOWD4", "geometry": {"location": {"lat": 28.4254175, "lng": 77.07720979999999}, "viewport": {"northeast": {"lat": 28.4268036802915, "lng": 77.0785179302915}, "southwest": {"lat": 28.42410571970849, "lng": 77.07581996970849}}}, "opening_hours": {"open_now": false}, "place_id": "ChIJP8xzZPUYDTkR__60mQJOWD4", "plus_code": {"global_code": "7JWVC3GG+5V", "compound_code": "C3GG+5V Gurugram, Haryana, India"}, "vicinity": "3503, part 2, Sector 57, Gurugram", "photos": [{"photo_reference": "CmRaAAAACeZo0ORntqbdbdQNCADkvdOOgbM99F8ljuvWlrp1Lq7e4O7m-CVpNPZgYEBDxbmLuWQAmbXRLpdjCuw_KxTC6QWFLWLjFUJxXI0jo_BjwYkBNLghtoHQtQwJD5LNu8b4EhDouyHhnBDMfqwVLWPME5HyGhQjS2zhDOThnRJNng0ULdZrXAyWvw", "width": 1280, "html_attributions": ["<a href=\"https://maps.google.com/maps/contrib/109887482737192337718\">DENT-HORIZONZ DENTAL CLINIC</a>"], "height": 720}], "scope": "GOOGLE", "business_status": "OPERATIONAL", "types": ["hospital", "doctor", "dentist", "health", "point_of_interest", "establishment"], "icon": "https://maps.gstatic.com/mapfiles/place_api/icons/v1/png_71/hospital-71.png"}, {"name": "Dental implants", "reference": "ChIJbU6kZgcZDTkRWVUjFPk_nFg", "geometry": {"location": {"lat": 28.4253489, "lng": 77.07709179999999}, "viewport": {"northeast": {"lat": 28.4267262802915, "lng": 77.0784081802915}, "southwest": {"lat": 28.4240283197085, "lng": 77.0757102197085}}}, "place_id": "ChIJbU6kZgcZDTkRWVUjFPk_nFg", "plus_code": {"global_code": "7JWVC3GG+4R", "compound_code": "C3GG+4R Gurugram, Haryana, India"}, "vicinity": "3503, part 2, Sector 57, Gurugram", "photos": [{"photo_reference": "CmRaAAAAZoAeoMYNl0hX3lt3MFURvZ64K3DDP-EgeUOlpiJlF5Nw94OB5o0IncIYZQAz-DVa1Ta7uYn-X4Ad4YEMpAopbRLVGHCuhFRPEqqjP3UzDq8CZi6EXOogCKeh8IMHGrFwEhAvSKByQxWVaXgVRm2dPKhEGhTpjhKK7kuiiw9AghowvTp0Q6S8pg", "width": 984, "html_attributions": ["<a href=\"https://maps.google.com/maps/contrib/110195991840460233011\">Dental implants</a>"], "height": 1280}], "scope": "GOOGLE", "business_status": "OPERATIONAL", "types": ["doctor", "health", "point_of_interest", "establishment"], "icon": "https://maps.gstatic.com/mapfiles/place_api/icons/v1/png_71/generic_business-71.png"}, {"name": "healthy steps clinic", "reference": "ChIJdazL5LsZDTkRH7EHaRbZ-6c", "geometry": {"location": {"lat": 28.4308546, "lng": 77.08613989999999}, "viewport": {"northeast": {"lat": 28.4321581302915, "lng": 77.0875606802915}, "southwest": {"lat": 28.4294601697085, "lng": 77.08486271970848}}}, "place_id": "ChIJdazL5LsZDTkRH7EHaRbZ-6c", "plus_code": {"global_code": "7JWVC3JP+8F", "compound_code": "C3JP+8F Gurugram, Haryana, India"}, "vicinity": "Wazirabad, Sector 52, Gurugram", "scope": "GOOGLE", "business_status": "OPERATIONAL", "types": ["doctor", "health", "point_of_interest", "establishment"], "icon": "https://maps.gstatic.com/mapfiles/place_api/icons/v1/png_71/generic_business-71.png"}, {"rating": 5, "user_ratings_total": 3, "name": "Dr Asfar Ali - Best surgeon in Gurgaon", "reference": "ChIJy8YiyzEZDTkRSdh1uDRcw2g", "geometry": {"location": {"lat": 28.4313538, "lng": 77.07385}, "viewport": {"northeast": {"lat": 28.4327732302915, "lng": 77.0752714802915}, "southwest": {"lat": 28.4300752697085, "lng": 77.0725735197085}}}, "opening_hours": {"open_now": false}, "place_id": "ChIJy8YiyzEZDTkRSdh1uDRcw2g", "plus_code": {"global_code": "7JWVC3JF+GG", "compound_code": "C3JF+GG Gurugram, Haryana, India"}, "vicinity": "credence Super specialty Clinic 668/sp, Sector 52, Gurugram", "photos": [{"photo_reference": "CmRaAAAAmLWwT63nlk5KYxE80IJZaLpEvnvTQMGTwvDnT0fald9WmDLmg8pSW04dyqsQj3QqTJYq3G-uZxf_u2Dn_E8DPbsZsW_CII_U04RHr_uD9roaA1mXtpEVJ_oaG70EqsqNEhBeQDYmCgqR3aXd0Oy16Ti_GhTIFm3VWyuMbt2ta_C5_eLCQ052GA", "width": 2048, "html_attributions": ["<a href=\"https://maps.google.com/maps/contrib/101715187332457354680\">Dr Asfar Ali - Piles Treatment in Gurgaon , Plies Surgeon in Gurgaon, Genral surgeon in Gurgaon</a>"], "height": 1371}], "scope": "GOOGLE", "business_status": "OPERATIONAL", "types": ["doctor", "health", "point_of_interest", "establishment"], "icon": "https://maps.gstatic.com/mapfiles/place_api/icons/v1/png_71/generic_business-71.png"}, {"rating": 5, "user_ratings_total": 3, "name": "Doctor's Clinic", "reference": "ChIJTTb1TFIZDTkRTXDzrrI3Ek4", "geometry": {"location": {"lat": 28.4310727, "lng": 77.086388}, "viewport": {"northeast": {"lat": 28.4324363302915, "lng": 77.0877339302915}, "southwest": {"lat": 28.4297383697085, "lng": 77.08503596970849}}}, "opening_hours": {"open_now": true}, "place_id": "ChIJTTb1TFIZDTkRTXDzrrI3Ek4", "plus_code": {"global_code": "7JWVC3JP+CH", "compound_code": "C3JP+CH Gurugram, Haryana, India"}, "vicinity": "10, Wazirabad Road, Wazirabad, Sector 52, Gurugram", "photos": [{"photo_reference": "CmRaAAAAy-Y5eVwtvB6ZM4u_RSFpyNSl6N9SobBsAQiWtCZG5lejbBBGnvBFCxI4xvvSr4FHDWI_DSEPiDVKPc2c9bOEIN4aU2UynLWoZMwvdwCH5249Deb3Hc1RmyUvRrD30hx3EhCcnNnxdoFSuowrPYhAlFTPGhRUtI-l2ulc4Fif8h9OK5_QDxt6-g", "width": 720, "html_attributions": ["<a href=\"https://maps.google.com/maps/contrib/101000284996379171731\">Chetan Maan</a>"], "height": 1280}], "scope": "GOOGLE", "business_status": "OPERATIONAL", "types": ["doctor", "health", "point_of_interest", "establishment"], "icon": "https://maps.gstatic.com/mapfiles/place_api/icons/v1/png_71/generic_business-71.png"}, {"rating": 3.7, "user_ratings_total": 3, "name": "Dr Nitin Kumar", "reference": "ChIJq4cOurgaDTkRf2mlt2cSH7I", "geometry": {"location": {"lat": 28.4354721, "lng": 77.0823482}, "viewport": {"northeast": {"lat": 28.4368055302915, "lng": 77.0836693302915}, "southwest": {"lat": 28.4341075697085, "lng": 77.0809713697085}}}, "opening_hours": {"open_now": false}, "place_id": "ChIJq4cOurgaDTkRf2mlt2cSH7I", "plus_code": {"global_code": "7JWVC3PJ+5W", "compound_code": "C3PJ+5W Gurugram, Haryana, India"}, "vicinity": "Credence Superspecialty Clinic, Sector 52, Gurugram", "photos": [{"photo_reference": "CmRaAAAAcvtoUt_VZyRn02tL39E7IStTYyLLkSAJhhXf3rpBVN17swgVejTfTt7Vf2g-8o27KFfLw1tlrR2ZEPFesb_lnRetRm-gNhrZS7zLOPPAO8Wd9QtdcVWiO8XTk8RBO8hNEhBXpiGoNsIbPwxeUhHij6GcGhTXeVWlvV0Wmld1WKzLOjKl3qHE1A", "width": 2448, "html_attributions": ["<a href=\"https://maps.google.com/maps/contrib/100597883371727108120\">Boby Kumar</a>"], "height": 3264}], "scope": "GOOGLE", "business_status": "OPERATIONAL", "types": ["doctor", "health", "point_of_interest", "establishment"], "icon": "https://maps.gstatic.com/mapfiles/place_api/icons/v1/png_71/generic_business-71.png"}, {"rating": 5, "user_ratings_total": 18, "name": "Best Laparoscopic And Bariatric Surgeon : Centre of excellence by Dr Paritosh S Gupta", "reference": "ChIJNfuG5XgiDTkRVJr9WCGwlj0", "geometry": {"location": {"lat": 28.432135, "lng": 77.073313}, "viewport": {"northeast": {"lat": 28.4334678302915, "lng": 77.07464548029151}, "southwest": {"lat": 28.4307698697085, "lng": 77.07194751970849}}}, "opening_hours": {"open_now": true}, "place_id": "ChIJNfuG5XgiDTkRVJr9WCGwlj0", "plus_code": {"global_code": "7JWVC3JF+V8", "compound_code": "C3JF+V8 Gurugram, Haryana, India"}, "vicinity": "J - Block, Artemis Hospital, Gurugram", "photos": [{"photo_reference": "CmRaAAAAVdvSK8Y3HkYtWXEmQOO_cFmX_tcWxF3SrDMK36R_gAYd66lsaxEa3LdxRxjOqsW70Tniizw_tlJmTrSDNtMrjmQff_ToG3YuweByWRadW_rDtJjJlxrmANMpFxWaKMYNEhA2GuNFm061Znps_3GAN4q1GhSo0M1UQcPL8su-Z_mOYS-11D8stw", "width": 1463, "html_attributions": ["<a href=\"https://maps.google.com/maps/contrib/101726474993831180263\">Best Laparoscopic And Bariatric Surgeon : Centre of excellence by Dr Paritosh S Gupta</a>"], "height": 2048}], "scope": "GOOGLE", "business_status": "OPERATIONAL", "types": ["hospital", "doctor", "health", "point_of_interest", "establishment"], "icon": "https://maps.gstatic.com/mapfiles/place_api/icons/v1/png_71/hospital-71.png"}, {"rating": 5, "user_ratings_total": 3, "name": "Nu Life Care Clinic (Gynecologist) Dr. Swati Rathee MBBS DGO", "reference": "ChIJ6U6RlqYYDTkRVUk_mk3wySg", "geometry": {"location": {"lat": 28.432028, "lng": 77.08691}, "viewport": {"northeast": {"lat": 28.4333988302915, "lng": 77.0882602802915}, "southwest": {"lat": 28.43070086970849, "lng": 77.08556231970849}}}, "opening_hours": {"open_now": true}, "place_id": "ChIJ6U6RlqYYDTkRVUk_mk3wySg", "plus_code": {"global_code": "7JWVC3JP+RQ", "compound_code": "C3JP+RQ Gurugram, Haryana, India"}, "vicinity": "Primary Health Center, opposite Wazirabad, Wazirabad Road, Wazirabad, Sector 52, Gurugram", "photos": [{"photo_reference": "CmRaAAAAcugKGB4b_cy8YKZmPnc7ybRPbLmLpeR9qrE5pHlebegu46F61_HjDVvmZzo5jOOOVu-mPnYLt6FagqWd-Rzno3hi7O9sLr6kdcmVbKW_JuIkyUiehm3R3LOMjQRLE3G8EhCX4V8LpI0WZoCG07LDbvLLGhRdRLClGRf53V20gPd33_zFOn7x8Q", "width": 4032, "html_attributions": ["<a href=\"https://maps.google.com/maps/contrib/115811571585119623207\">Nu Life Care Clinic (Gynecologist) Dr. Swati Rathee MBBS DGO</a>"], "height": 2268}], "scope": "GOOGLE", "business_status": "OPERATIONAL", "types": ["doctor", "health", "point_of_interest", "establishment"], "icon": "https://maps.gstatic.com/mapfiles/place_api/icons/v1/png_71/generic_business-71.png"}, {"rating": 4.7, "user_ratings_total": 21, "name": "Dr. Ashutosh Shukla", "reference": "ChIJgwLhj0wfDTkRkajQ2MDF9Dk", "geometry": {"location": {"lat": 28.4309899, "lng": 77.07273339999999}, "viewport": {"northeast": {"lat": 28.4322972302915, "lng": 77.0740386802915}, "southwest": {"lat": 28.4295992697085, "lng": 77.07134071970847}}}, "place_id": "ChIJgwLhj0wfDTkRkajQ2MDF9Dk", "plus_code": {"global_code": "7JWVC3JF+93", "compound_code": "C3JF+93 Gurugram, Haryana, India"}, "vicinity": "Artemis Hospital, Sector 51, Gurugram", "scope": "GOOGLE", "business_status": "OPERATIONAL", "types": ["doctor", "health", "point_of_interest", "establishment"], "icon": "https://maps.gstatic.com/mapfiles/place_api/icons/v1/png_71/generic_business-71.png"}, {"rating": 3.8, "user_ratings_total": 17, "name": "Dr Ashu Kumar Jain", "reference": "ChIJZ2Aqzc0ZDTkRgiYkWe-bkTY", "geometry": {"location": {"lat": 28.4320258, "lng": 77.0729439}, "viewport": {"northeast": {"lat": 28.43335748029151, "lng": 77.0742754802915}, "southwest": {"lat": 28.4306595197085, "lng": 77.0715775197085}}}, "place_id": "ChIJZ2Aqzc0ZDTkRgiYkWe-bkTY", "plus_code": {"global_code": "7JWVC3JF+R5", "compound_code": "C3JF+R5 Gurugram, Haryana, India"}, "vicinity": "Wazirabad Road, Sector 51, Gurugram", "photos": [{"photo_reference": "CmRaAAAAEjrdmMgioMkkQxcjvh6TAjUaJFpWBfxlI0t2c5fImgvUUA-BDhYHtuJnSCdSXIBwoBN71s7vwzK-zujjue2jbPe-4CWh3vurYLwh_ESBgzHT-MyRn2sKRmOmAWRpqWOdEhBEv2HfX8iV61TIT441BNWwGhSD_sdHX-6k8FvvqF7V3F93c-ld0A", "width": 4032, "html_attributions": ["<a href=\"https://maps.google.com/maps/contrib/101054204766112940850\">Dr Ashu Kumar Jain</a>"], "height": 2268}], "scope": "GOOGLE", "business_status": "OPERATIONAL", "types": ["doctor", "health", "point_of_interest", "establishment"], "icon": "https://maps.gstatic.com/mapfiles/place_api/icons/v1/png_71/generic_business-71.png"}, {"rating": 5, "user_ratings_total": 6, "name": "Dr Chiwane Best Cardiologist in Gurgaon, Pacemaker Implant,Carotid Angioplasty,Heart Doctor", "reference": "ChIJ_2iD0H4ZDTkRvfY3a9uXBks", "geometry": {"location": {"lat": 28.4315033, "lng": 77.0727169}, "viewport": {"northeast": {"lat": 28.4328169302915, "lng": 77.0741112302915}, "southwest": {"lat": 28.43011896970849, "lng": 77.0714132697085}}}, "opening_hours": {"open_now": true}, "place_id": "ChIJ_2iD0H4ZDTkRvfY3a9uXBks", "plus_code": {"global_code": "7JWVC3JF+J3", "compound_code": "C3JF+J3 Gurugram, Haryana, India"}, "vicinity": "near Mayfield Garden, Artemis Hospital Road, Sector 51, Gurugram", "photos": [{"photo_reference": "CmRaAAAAtAnZSOKME1cykN96plkzV-j8Xc-t2--1KMvo2_c5xdaGb2TgFQFEwGKt6mbrqG3DZoqd7ZTm34shLaukMpPALRFCab11paYy2uiySLiGmqXLm2N0wEllH8KsVtwa63-qEhAU0VPUsXB-KgTjOOidf3zsGhRyYvC2eMR3ySgCFSSYpVwtHDDvLw", "width": 251, "html_attributions": ["<a href=\"https://maps.google.com/maps/contrib/116513243802526306463\">Dr Sanjat S Chiwane Best Cardiologist in Gurgaon, Pacemaker Implant,Carotid Angioplasty,Heart Doctor</a>"], "height": 316}], "scope": "GOOGLE", "business_status": "OPERATIONAL", "types": ["doctor", "health", "point_of_interest", "establishment"], "icon": "https://maps.gstatic.com/mapfiles/place_api/icons/v1/png_71/generic_business-71.png"}, {"rating": 5, "user_ratings_total": 1, "name": "Dr Priya Tiwari (Best oncologist in Gurgaon", "reference": "ChIJ6SH4-1wZDTkRRBc6le1basQ", "geometry": {"location": {"lat": 28.4314832, "lng": 77.0726997}, "viewport": {"northeast": {"lat": 28.4327974802915, "lng": 77.0740931802915}, "southwest": {"lat": 28.4300995197085, "lng": 77.07139521970849}}}, "place_id": "ChIJ6SH4-1wZDTkRRBc6le1basQ", "plus_code": {"global_code": "7JWVC3JF+H3", "compound_code": "C3JF+H3 Gurugram, Haryana, India"}, "vicinity": "Artemis Hospital Gurgaon, Sector 51, Gurugram", "scope": "GOOGLE", "business_status": "OPERATIONAL", "types": ["doctor", "health", "point_of_interest", "establishment"], "icon": "https://maps.gstatic.com/mapfiles/place_api/icons/v1/png_71/generic_business-71.png"}, {"rating": 5, "user_ratings_total": 124, "name": "AYUBLESS AYURVEDA Clinic & Panchakarma - 1985", "reference": "ChIJ_8Kv1fIZDTkRVeVHzMa5NK4", "geometry": {"location": {"lat": 28.4326018, "lng": 77.07304409999999}, "viewport": {"northeast": {"lat": 28.4342238302915, "lng": 77.0745216302915}, "southwest": {"lat": 28.4315258697085, "lng": 77.0718236697085}}}, "opening_hours": {"open_now": true}, "place_id": "ChIJ_8Kv1fIZDTkRVeVHzMa5NK4", "plus_code": {"global_code": "7JWVC3MF+26", "compound_code": "C3MF+26 Gurugram, Haryana, India"}, "vicinity": "opp. Artemis Hospital, 560 AP, opp. Artemis Hospital, Sector 52, Gurugram", "photos": [{"photo_reference": "CmRaAAAALpULK7y3GW_NAXTguc-4QiEGsnlNHGGQ1sSKke_DxKM6vq7v3W1_OgRPn0U3LU3LPPAoavyr8XYEEZfmzX2-FFQb4KtiGi_3a5xQmdwg_8Yy1arWStoR67jhz4u08VjKEhA929xu1PDcIF3BiIaK7ezdGhRnb_psiEcw7sMnBlryKx7EziLPiA", "width": 1280, "html_attributions": ["<a href=\"https://maps.google.com/maps/contrib/106380206257933829167\">AYUBLESS AYURVEDA Clinic &amp; Panchakarma - 1985</a>"], "height": 960}], "scope": "GOOGLE", "business_status": "OPERATIONAL", "types": ["pharmacy", "doctor", "health", "point_of_interest", "store", "establishment"], "icon": "https://maps.gstatic.com/mapfiles/place_api/icons/v1/png_71/generic_business-71.png"}]}