{"status": "OK", "html_attributions": [], "results": [{"name": "Govt Lower Primary School Ajjagondanahalli", "reference": "ChIJAQAArMMNrjsRl8DGWrDBXBE", "geometry": {"location": {"lat": 12.9611451, "lng": 77.7713133}, "viewport": {"northeast": {"lat": 12.9624812302915, "lng": 77.77265978029152}, "southwest": {"lat": 12.9597832697085, "lng": 77.7699618197085}}}, "place_id": "ChIJAQAArMMNrjsRl8DGWrDBXBE", "plus_code": {"global_code": "7J4VXQ6C+FG", "compound_code": "XQ6C+FG Ajjagondahalli, Karnataka, India"}, "vicinity": "Hosakote Block, Ajjagondahalli", "photos": [{"photo_reference": "ATtYBwI-JdvImxATk59e2vi99IAwH1_X8tzmwllE2Ow6XacW_Qp3p39tS3fL3Jy-5woIOhepheFN5g3lJUPoyZWSX8WCFqqnt4OohAOsIYTk8ltd8jppPllWzhsQhpbFGI_-IoFr2mzCNCnN0rye3yJ-O3b96F61ndzo5DHDXZ6XyHRm7Zep", "width": 3456, "html_attributions": ["<a href=\"https://maps.google.com/maps/contrib/115775759332713003696\">Nisith Palo</a>"], "height": 4608}], "scope": "GOOGLE", "business_status": "OPERATIONAL", "types": ["primary_school", "school", "point_of_interest", "establishment"], "icon": "https://maps.gstatic.com/mapfiles/place_api/icons/v1/png_71/school-71.png"}, {"name": "Government Lower Primary School", "reference": "ChIJOXN4AesNrjsRTstsX0OSZL8", "geometry": {"location": {"lat": 12.9552407, "lng": 77.7651046}, "viewport": {"northeast": {"lat": 12.9565926802915, "lng": 77.76637153029151}, "southwest": {"lat": 12.9538947197085, "lng": 77.76367356970849}}}, "place_id": "ChIJOXN4AesNrjsRTstsX0OSZL8", "plus_code": {"global_code": "7J4VXQ48+32", "compound_code": "XQ48+32 Sorahunase, Karnataka, India"}, "vicinity": "Sorahunase", "scope": "GOOGLE", "business_status": "OPERATIONAL", "types": ["primary_school", "school", "point_of_interest", "establishment"], "icon": "https://maps.gstatic.com/mapfiles/place_api/icons/v1/png_71/school-71.png"}, {"rating": 5, "user_ratings_total": 3, "name": "Madhuranagara Government Lower Primary School", "reference": "ChIJhVDLCZoNrjsRp995JMHE1nc", "geometry": {"location": {"lat": 12.9411285, "lng": 77.76133519999999}, "viewport": {"northeast": {"lat": 12.9424628302915, "lng": 77.7626200302915}, "southwest": {"lat": 12.9397648697085, "lng": 77.7599220697085}}}, "place_id": "ChIJhVDLCZoNrjsRp995JMHE1nc", "plus_code": {"global_code": "7J4VWQR6+FG", "compound_code": "WQR6+FG Madhuranagara, Karnataka, India"}, "vicinity": "Madhuranagara", "scope": "GOOGLE", "business_status": "OPERATIONAL", "types": ["primary_school", "school", "point_of_interest", "establishment"], "icon": "https://maps.gstatic.com/mapfiles/place_api/icons/v1/png_71/school-71.png"}]}