{"status": "OK", "html_attributions": [], "results": [{"name": "Government Higher Primary School Hale Nijagal", "reference": "ChIJ________uDsRv9zTK0JnI9o", "geometry": {"location": {"lat": 13.0874669, "lng": 77.411019}, "viewport": {"northeast": {"lat": 13.0888059802915, "lng": 77.4123410802915}, "southwest": {"lat": 13.0861080197085, "lng": 77.40964311970849}}}, "place_id": "ChIJ________uDsRv9zTK0JnI9o", "plus_code": {"global_code": "7J5V3CP6+XC", "compound_code": "3CP6+XC Nagarur, Karnataka, India"}, "vicinity": "Nelamangala Block, Bangalore, Halenijagallu", "scope": "GOOGLE", "business_status": "OPERATIONAL", "types": ["primary_school", "school", "point_of_interest", "establishment"], "icon": "https://maps.gstatic.com/mapfiles/place_api/icons/v1/png_71/school-71.png"}, {"name": "Government Lower Primary School Moodalapalya", "reference": "ChIJDW4mOg8lrjsR9Db3aZBCse8", "geometry": {"location": {"lat": 13.0874193, "lng": 77.4110065}, "viewport": {"northeast": {"lat": 13.0888018802915, "lng": 77.4123348302915}, "southwest": {"lat": 13.0861039197085, "lng": 77.40963686970848}}}, "place_id": "ChIJDW4mOg8lrjsR9Db3aZBCse8", "vicinity": "Bangalore, Nelamangala Town", "scope": "GOOGLE", "business_status": "OPERATIONAL", "types": ["primary_school", "school", "point_of_interest", "establishment"], "icon": "https://maps.gstatic.com/mapfiles/place_api/icons/v1/png_71/school-71.png"}, {"name": "Government Lower Primary School H.G. Palya", "reference": "ChIJDW4mOg8lrjsRthGGKu5T5Cc", "geometry": {"location": {"lat": 13.0874193, "lng": 77.4110065}, "viewport": {"northeast": {"lat": 13.0888018802915, "lng": 77.4123348302915}, "southwest": {"lat": 13.0861039197085, "lng": 77.40963686970848}}}, "place_id": "ChIJDW4mOg8lrjsRthGGKu5T5Cc", "vicinity": "Nelamangala Block, Nashik Rural District, Gundenahalli", "scope": "GOOGLE", "business_status": "OPERATIONAL", "types": ["primary_school", "school", "point_of_interest", "establishment"], "icon": "https://maps.gstatic.com/mapfiles/place_api/icons/v1/png_71/school-71.png"}, {"name": "Government Lower Primary School Pemmanahalli", "reference": "ChIJDW4mOg8lrjsRymYxJa24EwU", "geometry": {"location": {"lat": 13.0874193, "lng": 77.4110065}, "viewport": {"northeast": {"lat": 13.0888018802915, "lng": 77.4123348302915}, "southwest": {"lat": 13.0861039197085, "lng": 77.40963686970848}}}, "place_id": "ChIJDW4mOg8lrjsRymYxJa24EwU", "vicinity": "Pemmanahalli , Bangalore, Nelamangala Town", "scope": "GOOGLE", "business_status": "OPERATIONAL", "types": ["primary_school", "school", "point_of_interest", "establishment"], "icon": "https://maps.gstatic.com/mapfiles/place_api/icons/v1/png_71/school-71.png"}, {"name": "Government Lower Primary School Lakkuru", "reference": "ChIJDW4mOg8lrjsRNXjP03U7hkI", "geometry": {"location": {"lat": 13.0874193, "lng": 77.4110065}, "viewport": {"northeast": {"lat": 13.0888018802915, "lng": 77.4123348302915}, "southwest": {"lat": 13.0861039197085, "lng": 77.40963686970848}}}, "place_id": "ChIJDW4mOg8lrjsRNXjP03U7hkI", "vicinity": "Nelamangala,Bangalore, Lakkuru", "scope": "GOOGLE", "business_status": "OPERATIONAL", "types": ["primary_school", "school", "point_of_interest", "establishment"], "icon": "https://maps.gstatic.com/mapfiles/place_api/icons/v1/png_71/school-71.png"}, {"name": "Government Lower Primary School Karekal Palya", "reference": "ChIJDW4mOg8lrjsRGUBe4O-2Dp0", "geometry": {"location": {"lat": 13.0874193, "lng": 77.4110065}, "viewport": {"northeast": {"lat": 13.0888018802915, "lng": 77.4123348302915}, "southwest": {"lat": 13.0861039197085, "lng": 77.40963686970848}}}, "place_id": "ChIJDW4mOg8lrjsRGUBe4O-2Dp0", "vicinity": "Karekal Palya, Nelamangala, Bengaluru, Kodappanahalli", "scope": "GOOGLE", "business_status": "OPERATIONAL", "types": ["primary_school", "school", "point_of_interest", "establishment"], "icon": "https://maps.gstatic.com/mapfiles/place_api/icons/v1/png_71/school-71.png"}, {"name": "Government Lower Primary School Channohalli", "reference": "ChIJDW4mOg8lrjsRwTrx89K-6Y8", "geometry": {"location": {"lat": 13.0874193, "lng": 77.4110065}, "viewport": {"northeast": {"lat": 13.0888018802915, "lng": 77.4123348302915}, "southwest": {"lat": 13.0861039197085, "lng": 77.40963686970848}}}, "place_id": "ChIJDW4mOg8lrjsRwTrx89K-6Y8", "vicinity": "Nelamangala, Bengaluru", "scope": "GOOGLE", "business_status": "OPERATIONAL", "types": ["primary_school", "school", "point_of_interest", "establishment"], "icon": "https://maps.gstatic.com/mapfiles/place_api/icons/v1/png_71/school-71.png"}, {"name": "Govt Lower Primary School Yarranapalya", "reference": "ChIJVVVVVeLVsTsR46LUbjkNotU", "geometry": {"location": {"lat": 13.0874193, "lng": 77.4110065}, "viewport": {"northeast": {"lat": 13.0888018802915, "lng": 77.4123348302915}, "southwest": {"lat": 13.0861039197085, "lng": 77.40963686970848}}}, "place_id": "ChIJVVVVVeLVsTsR46LUbjkNotU", "vicinity": "Makanakuppe , Nelamangala, Bengaluru", "scope": "GOOGLE", "business_status": "OPERATIONAL", "types": ["primary_school", "school", "point_of_interest", "establishment"], "icon": "https://maps.gstatic.com/mapfiles/place_api/icons/v1/png_71/school-71.png"}, {"name": "Government Upper Primary School", "reference": "ChIJraMoOg8lrjsR6iKbJk31_FE", "geometry": {"location": {"lat": 13.0874104, "lng": 77.41100829999999}, "viewport": {"northeast": {"lat": 13.0887469802915, "lng": 77.4123243802915}, "southwest": {"lat": 13.0860490197085, "lng": 77.40962641970847}}}, "place_id": "ChIJraMoOg8lrjsR6iKbJk31_FE", "vicinity": "Nelamangala block, Bangalore, Muddalinganahalli", "scope": "GOOGLE", "business_status": "OPERATIONAL", "types": ["primary_school", "school", "point_of_interest", "establishment"], "icon": "https://maps.gstatic.com/mapfiles/place_api/icons/v1/png_71/school-71.png"}, {"name": "Government Lower Primary School Kodappanahalli", "reference": "ChIJDQx_OQ8lrjsRoyBBugssTEc", "geometry": {"location": {"lat": 13.0873631, "lng": 77.4110386}, "viewport": {"northeast": {"lat": 13.0886998302915, "lng": 77.41242168029152}, "southwest": {"lat": 13.0860018697085, "lng": 77.4097237197085}}}, "place_id": "ChIJDQx_OQ8lrjsRoyBBugssTEc", "plus_code": {"global_code": "7J5V3CP6+WC", "compound_code": "3CP6+WC Kodappanahalli, Karnataka, India"}, "vicinity": "Nelamangala, Bangalore, Kodappanahalli", "photos": [{"photo_reference": "ATtYBwJD0FL9hywSg9sFjW-fbuu8V9ryBWBJ-p8M6oNVij5VQ6AwUZxzPKfSGTY867WcAIKJTMSGRMHHjfrMYc5ykzYYt06MPQjmu2uylNDD00CfhchrEoOE4OBCp5YZKR3lbaelgDizXdNyy8Aw02xH5loibXBaWBoAVmWGdcyj2AckjaMD", "width": 711, "html_attributions": ["<a href=\"https://maps.google.com/maps/contrib/114036563394527755501\">Kishika Wala Babu</a>"], "height": 522}], "scope": "GOOGLE", "business_status": "OPERATIONAL", "types": ["primary_school", "school", "point_of_interest", "establishment"], "icon": "https://maps.gstatic.com/mapfiles/place_api/icons/v1/png_71/school-71.png"}, {"name": "Government Lower Primary School", "reference": "ChIJDW4mOg8lrjsRqgMYCDPXmy4", "geometry": {"location": {"lat": 13.086994, "lng": 77.4121345}, "viewport": {"northeast": {"lat": 13.0883200802915, "lng": 77.4133898802915}, "southwest": {"lat": 13.0856221197085, "lng": 77.4106919197085}}}, "place_id": "ChIJDW4mOg8lrjsRqgMYCDPXmy4", "plus_code": {"global_code": "7J5V3CP6+QV", "compound_code": "3CP6+QV Nagarur, Karnataka, India"}, "vicinity": "Belamangala, Hosakote Block, Bangalore Rural, Jadigenahalli", "scope": "GOOGLE", "business_status": "OPERATIONAL", "types": ["primary_school", "school", "point_of_interest", "establishment"], "icon": "https://maps.gstatic.com/mapfiles/place_api/icons/v1/png_71/school-71.png"}, {"name": "G Lps Thorepalya", "reference": "ChIJWfcmOg8lrjsRYTSSi3BRtko", "geometry": {"location": {"lat": 13.0874248, "lng": 77.4110118}, "viewport": {"northeast": {"lat": 13.0888046302915, "lng": 77.41233748029148}, "southwest": {"lat": 13.0861066697085, "lng": 77.40963951970848}}}, "place_id": "ChIJWfcmOg8lrjsRYTSSi3BRtko", "vicinity": "Nelamangala Block, Byrasandra Village, Bengaluru", "scope": "GOOGLE", "business_status": "OPERATIONAL", "types": ["primary_school", "school", "point_of_interest", "establishment"], "icon": "https://maps.gstatic.com/mapfiles/place_api/icons/v1/png_71/school-71.png"}, {"name": "Government Lower Primary School Thyagarahalli", "reference": "ChIJDW4mOg8lrjsRr44nyImJUBA", "geometry": {"location": {"lat": 13.0874193, "lng": 77.4110065}, "viewport": {"northeast": {"lat": 13.0888018802915, "lng": 77.4123348302915}, "southwest": {"lat": 13.0861039197085, "lng": 77.40963686970848}}}, "place_id": "ChIJDW4mOg8lrjsRr44nyImJUBA", "vicinity": "Nelamangala, Bengaluru", "scope": "GOOGLE", "business_status": "OPERATIONAL", "types": ["primary_school", "school", "point_of_interest", "establishment"], "icon": "https://maps.gstatic.com/mapfiles/place_api/icons/v1/png_71/school-71.png"}, {"name": "Government Lower Primary School Kenchanapura", "reference": "ChIJDW4mOg8lrjsRj7j74TouJpk", "geometry": {"location": {"lat": 13.0874193, "lng": 77.4110065}, "viewport": {"northeast": {"lat": 13.0888018802915, "lng": 77.4123348302915}, "southwest": {"lat": 13.0861039197085, "lng": 77.40963686970848}}}, "place_id": "ChIJDW4mOg8lrjsRj7j74TouJpk", "vicinity": "Kenchanapura Nelamangala, Bengaluru", "scope": "GOOGLE", "business_status": "OPERATIONAL", "types": ["primary_school", "school", "point_of_interest", "establishment"], "icon": "https://maps.gstatic.com/mapfiles/place_api/icons/v1/png_71/school-71.png"}, {"name": "Government Lower Primary School Baraguru Colony", "reference": "ChIJDW4mOg8lrjsRE8YdkysGEjI", "geometry": {"location": {"lat": 13.0874193, "lng": 77.4110065}, "viewport": {"northeast": {"lat": 13.0888018802915, "lng": 77.4123348302915}, "southwest": {"lat": 13.0861039197085, "lng": 77.40963686970848}}}, "place_id": "ChIJDW4mOg8lrjsRE8YdkysGEjI", "vicinity": "Nelamangala,Bangalore, Baragoor", "scope": "GOOGLE", "business_status": "OPERATIONAL", "types": ["primary_school", "school", "point_of_interest", "establishment"], "icon": "https://maps.gstatic.com/mapfiles/place_api/icons/v1/png_71/school-71.png"}, {"name": "Government Lower Primary School Guttepalya", "reference": "ChIJDW4mOg8lrjsRAg7Mjm4WGhw", "geometry": {"location": {"lat": 13.0874193, "lng": 77.4110065}, "viewport": {"northeast": {"lat": 13.0888018802915, "lng": 77.4123348302915}, "southwest": {"lat": 13.0861039197085, "lng": 77.40963686970848}}}, "place_id": "ChIJDW4mOg8lrjsRAg7Mjm4WGhw", "vicinity": "Guttepalya, Nelamangala, Bangalore Rural, Byrasettihalli", "scope": "GOOGLE", "business_status": "OPERATIONAL", "types": ["primary_school", "school", "point_of_interest", "establishment"], "icon": "https://maps.gstatic.com/mapfiles/place_api/icons/v1/png_71/school-71.png"}, {"name": "Government Lower Primary School Maddenahalli Palya", "reference": "ChIJDW4mOg8lrjsRNKzbp0wU_kI", "geometry": {"location": {"lat": 13.0874193, "lng": 77.4110065}, "viewport": {"northeast": {"lat": 13.0888018802915, "lng": 77.4123348302915}, "southwest": {"lat": 13.0861039197085, "lng": 77.40963686970848}}}, "place_id": "ChIJDW4mOg8lrjsRNKzbp0wU_kI", "vicinity": "Nelamangala, Bengaluru, Maddenahalli Palya", "scope": "GOOGLE", "business_status": "OPERATIONAL", "types": ["primary_school", "school", "point_of_interest", "establishment"], "icon": "https://maps.gstatic.com/mapfiles/place_api/icons/v1/png_71/school-71.png"}, {"name": "Government Lower Primary School Danojipalya", "reference": "ChIJDW4mOg8lrjsRgICaIk8UZGs", "geometry": {"location": {"lat": 13.0874193, "lng": 77.4110065}, "viewport": {"northeast": {"lat": 13.0888018802915, "lng": 77.4123348302915}, "southwest": {"lat": 13.0861039197085, "lng": 77.40963686970848}}}, "place_id": "ChIJDW4mOg8lrjsRgICaIk8UZGs", "vicinity": "Danojipalya,Nelamangala, Arasinakunte, Bengaluru", "scope": "GOOGLE", "business_status": "OPERATIONAL", "types": ["primary_school", "school", "point_of_interest", "establishment"], "icon": "https://maps.gstatic.com/mapfiles/place_api/icons/v1/png_71/school-71.png"}, {"name": "GLPS Anandanagara", "reference": "ChIJDW4mOg8lrjsR5yU5BLgo1n4", "geometry": {"location": {"lat": 13.0874193, "lng": 77.4110065}, "viewport": {"northeast": {"lat": 13.0888018802915, "lng": 77.4123348302915}, "southwest": {"lat": 13.0861039197085, "lng": 77.40963686970848}}}, "place_id": "ChIJDW4mOg8lrjsR5yU5BLgo1n4", "vicinity": "Ananda nagara, Nelamangala Town", "scope": "GOOGLE", "business_status": "OPERATIONAL", "types": ["school", "primary_school", "point_of_interest", "establishment"], "icon": "https://maps.gstatic.com/mapfiles/place_api/icons/v1/png_71/school-71.png"}, {"name": "G Hps Soladevanahalli", "reference": "ChIJDW4mOg8lrjsR6DbnAHZwAQI", "geometry": {"location": {"lat": 13.0874193, "lng": 77.4110065}, "viewport": {"northeast": {"lat": 13.0888018802915, "lng": 77.4123348302915}, "southwest": {"lat": 13.0861039197085, "lng": 77.40963686970848}}}, "place_id": "ChIJDW4mOg8lrjsR6DbnAHZwAQI", "vicinity": "Soladevanahalli, Nelamangala, Bengaluru", "scope": "GOOGLE", "business_status": "OPERATIONAL", "types": ["primary_school", "school", "point_of_interest", "establishment"], "icon": "https://maps.gstatic.com/mapfiles/place_api/icons/v1/png_71/school-71.png"}]}