{"status": "OK", "next_page_token": "ATtYBwLRNEIWTqegaSkWQfGIpU0M0khZXgOMsdx3-ygJ_K0HkksgdaGmdfmA3jfeb10TeaguyeDCTr6J3O33zFhXrCTkYA4aPPPZLhw2SWznokNmdFyTuuG5YH6QgheMuLjNQbPQLCyHV26zrSYx1VuphSljjBmh25RxXueSSVmdJ6fDyuzDhNdCVIi2IL86W-Qxn_cnH2WvjMtb15uwZVr1n8be72iS9V-_yK6txdxWod5dJuZrtZe8rc81l_YMX3nlsAHKFh8si4e1D5kmyz8mpr95Qw7fxcjuOs_K-1bW_SfMCsqX70huXNdQM1BJ7sN1wvxcLdTTHb01Bwqj_mYYzo3oxiAJT1G2IcOx4w4AJTZJuowM3dwbPL1jxj1Pe0wcXlCY6Yb_1hwnsZ0XYrD1IVfP5tPuXu8jKno3jSfmemZhcvEEHMPwJpEDtJ8oZqwuqOrmMxhYklS_uNwx_uwyydWz3kfQlMvN7yI-mhwDiOB7j3OIaoZdQW_zTzOpbBEQQ7cpKPcRBodAhh7aYqJbysN3gGZUagDjUQNCepnkOTr7UEuG-dS1PqxCvFI1a4vF9HLRlT3WrtrN_fth4Q8rF5aexm39ZsV2fdRXCr3LgEoe-ex8z6bhpFdR1Hg8CwOC4mwgsgkJfe6-S8gAPgHx1zLKAf_FPbw", "html_attributions": [], "results": [{"rating": 4, "user_ratings_total": 1, "name": "Masjid E Hussian Qureshi", "reference": "ChIJZ0Zv8rKZyzsRUB4MPia4kBU", "geometry": {"location": {"lat": 17.3849055, "lng": 78.5076413}, "viewport": {"northeast": {"lat": 17.3862547302915, "lng": 78.50901938029149}, "southwest": {"lat": 17.3835567697085, "lng": 78.50632141970848}}}, "opening_hours": {"open_now": true}, "place_id": "ChIJZ0Zv8rKZyzsRUB4MPia4kBU", "plus_code": {"global_code": "7J9W9GM5+X3", "compound_code": "9GM5+X3 Hyderabad, Telangana, India"}, "vicinity": "Unnamed Road, Afzal Nagar, Malakpet Extension, Old Malakpet, Hyderabad", "scope": "GOOGLE", "business_status": "OPERATIONAL", "types": ["local_government_office", "point_of_interest", "establishment"], "icon": "https://maps.gstatic.com/mapfiles/place_api/icons/v1/png_71/civic_building-71.png"}, {"rating": 5, "user_ratings_total": 1, "name": "Lucky Mobile Accessories", "reference": "ChIJN9t5bVSYyzsRHqm3vhgHLuQ", "geometry": {"location": {"lat": 17.3789034, "lng": 78.5157515}, "viewport": {"northeast": {"lat": 17.3801754802915, "lng": 78.51720718029149}, "southwest": {"lat": 17.3774775197085, "lng": 78.51450921970849}}}, "opening_hours": {"open_now": false}, "place_id": "ChIJN9t5bVSYyzsRHqm3vhgHLuQ", "plus_code": {"global_code": "7J9W9GH8+H8", "compound_code": "9GH8+H8 Hyderabad, Telangana, India"}, "vicinity": "Shop No. 16-11-16/U/25, Beside R.T.A Malakpet Office, Moosarambagh Road, Prasanth Nagar, Moosarambagh, Hyderabad", "photos": [{"photo_reference": "ATtYBwIzQFD6WzPg9jFvjQ5ytvP9UORWyCwZrzMKmBvkCZys672hfsOETLPNP2YWZMdXfmRBs3pBp7i42lHjcYyHFLTTuEAf89A5RLo1Wl4mPH1OYGnSUGZ-rrfHbyg1Y6eAopQArO8lGVDcjjA2ztRZdvRDBLw045QeDG_446hxTROB7EGA", "width": 1080, "html_attributions": ["<a href=\"https://maps.google.com/maps/contrib/109971818044664044374\">Akram Rasool Khan</a>"], "height": 1920}], "scope": "GOOGLE", "business_status": "OPERATIONAL", "types": ["insurance_agency", "local_government_office", "point_of_interest", "establishment"], "icon": "https://maps.gstatic.com/mapfiles/place_api/icons/v1/png_71/generic_business-71.png"}, {"rating": 4.2, "user_ratings_total": 6, "name": "Credo Visas", "reference": "ChIJf4MzSVGYyzsRV0WsaJjJ_Ow", "geometry": {"location": {"lat": 17.376126, "lng": 78.514501}, "viewport": {"northeast": {"lat": 17.3774745302915, "lng": 78.5159220302915}, "southwest": {"lat": 17.3747765697085, "lng": 78.5132240697085}}}, "opening_hours": {"open_now": false}, "place_id": "ChIJf4MzSVGYyzsRV0WsaJjJ_Ow", "plus_code": {"global_code": "7J9W9GG7+FR", "compound_code": "9GG7+FR Hyderabad, Telangana, India"}, "vicinity": "above Apollo Pharmacy, # plot no:62,sripuram colony, Moosarambagh, above Apollo Pharmacy, Hyderabad", "photos": [{"photo_reference": "ATtYBwKbyuBkM5EagMoe_0bMDlNE_gBGYNzj9Rx34cUWJsBDGlFblXicj4mSpt6DR6OaK0KqapCmhqoIUnCqziCBtYOrtH10uQ5xq4BmKOOe1Wk9aNRFDEx5xmmaQg93AjTJsXYZojtcD9XqGpgRpmVuSMAMJD_r4S1K8XBRYnCM85HjlhzQ", "width": 1536, "html_attributions": ["<a href=\"https://maps.google.com/maps/contrib/108091308102133576435\">Credo Visas</a>"], "height": 2048}], "scope": "GOOGLE", "business_status": "OPERATIONAL", "types": ["travel_agency", "local_government_office", "point_of_interest", "establishment"], "icon": "https://maps.gstatic.com/mapfiles/place_api/icons/v1/png_71/school-71.png"}, {"rating": 5, "user_ratings_total": 1, "name": "Sri Laxmi Narasimha Marriage Bureau", "reference": "ChIJQZmcsK2ZyzsRsyTAwvpUqNc", "geometry": {"location": {"lat": 17.3857733, "lng": 78.5106575}, "viewport": {"northeast": {"lat": 17.3874313302915, "lng": 78.5119413302915}, "southwest": {"lat": 17.3847333697085, "lng": 78.50924336970849}}}, "opening_hours": {"open_now": false}, "place_id": "ChIJQZmcsK2ZyzsRsyTAwvpUqNc", "plus_code": {"global_code": "7J9W9GP6+87", "compound_code": "9GP6+87 Hyderabad, Telangana, India"}, "vicinity": "Hno 2-3-720/c/14,Opp. D-Mart Super Market, kamalanagar,Amberpet., Hyderabad", "scope": "GOOGLE", "business_status": "OPERATIONAL", "types": ["local_government_office", "point_of_interest", "establishment"], "icon": "https://maps.gstatic.com/mapfiles/place_api/icons/v1/png_71/civic_building-71.png"}, {"name": "Osman & associates", "reference": "ChIJPSk6BhaZyzsRwhZ1X8MOfvk", "geometry": {"location": {"lat": 17.3741337, "lng": 78.5137111}, "viewport": {"northeast": {"lat": 17.3754750802915, "lng": 78.5150589302915}, "southwest": {"lat": 17.3727771197085, "lng": 78.5123609697085}}}, "place_id": "ChIJPSk6BhaZyzsRwhZ1X8MOfvk", "plus_code": {"global_code": "7J9W9GF7+MF", "compound_code": "9GF7+MF Hyderabad, Telangana, India"}, "vicinity": "16-11-20/13/A, Saleem Nagar Colony, Malakpet Extension, Old Malakpet, Hyderabad", "scope": "GOOGLE", "business_status": "OPERATIONAL", "types": ["local_government_office", "point_of_interest", "establishment"], "icon": "https://maps.gstatic.com/mapfiles/place_api/icons/v1/png_71/civic_building-71.png"}, {"rating": 3.9, "user_ratings_total": 29, "name": "TeluguMatrimony, a part of BharatMatrimony - Malakpet", "reference": "ChIJqb7vB0-YyzsRC3gBmePZ6s8", "geometry": {"location": {"lat": 17.372953, "lng": 78.50900399999999}, "viewport": {"northeast": {"lat": 17.3743037802915, "lng": 78.51035073029149}, "southwest": {"lat": 17.3716058197085, "lng": 78.50765276970849}}}, "opening_hours": {"open_now": false}, "place_id": "ChIJqb7vB0-YyzsRC3gBmePZ6s8", "plus_code": {"global_code": "7J9W9GF5+5J", "compound_code": "9GF5+5J Hyderabad, Telangana, India"}, "vicinity": "No 16-11-1/1L and 16-11-1/1/E/2 Upper Ground Floor, Saleem Nagar Colony, Malakpet, Hyderabad", "photos": [{"photo_reference": "ATtYBwLrlqBv3GmR4Bw0DSCCbgBNXCPygFL756k6XvnK6zT34SjJnAG4DtHm4FxZNfl6MgjMsqQvJLGx0OC-37Mfn21Fo4-_-1Q1vMXIxYp0b_J99nYFNsZf3ReZwkP-o_pHaKIdvQx6NyewIGhhDMDm5ArXkChZn3GBzXrgtz7d-lLUibka", "width": 4160, "html_attributions": ["<a href=\"https://maps.google.com/maps/contrib/102311238754537180499\">hasini dry fruits</a>"], "height": 3120}], "scope": "GOOGLE", "business_status": "OPERATIONAL", "types": ["local_government_office", "health", "point_of_interest", "establishment"], "icon": "https://maps.gstatic.com/mapfiles/place_api/icons/v1/png_71/civic_building-71.png"}, {"rating": 3.5, "user_ratings_total": 2, "name": "Gov. of TS Office of the SUB registration of Assurances and Marriage officer", "reference": "ChIJMZi83QmZyzsR7ERCpL7UmWk", "geometry": {"location": {"lat": 17.3740459, "lng": 78.5141718}, "viewport": {"northeast": {"lat": 17.3754119802915, "lng": 78.5155233302915}, "southwest": {"lat": 17.3727140197085, "lng": 78.5128253697085}}}, "place_id": "ChIJMZi83QmZyzsR7ERCpL7UmWk", "plus_code": {"global_code": "7J9W9GF7+JM", "compound_code": "9GF7+JM Hyderabad, Telangana, India"}, "vicinity": "beside Lane of Meghana Degree College, Shop # 3, Revenue Bhavan Bld., Adj. to Registration Office and Mandal Office, beside Lane of Meghana Degree College, Saleem Nagar Colony, Malakpet Extension, Moosarambagh, Hyderabad", "scope": "GOOGLE", "business_status": "OPERATIONAL", "types": ["local_government_office", "point_of_interest", "establishment"], "icon": "https://maps.gstatic.com/mapfiles/place_api/icons/v1/png_71/civic_building-71.png"}, {"name": "SRO Azampura", "reference": "ChIJpWwCoeOZyzsRsFQij3zbUzw", "geometry": {"location": {"lat": 17.373991, "lng": 78.5141453}, "viewport": {"northeast": {"lat": 17.3753927802915, "lng": 78.5155021802915}, "southwest": {"lat": 17.3726948197085, "lng": 78.51280421970849}}}, "place_id": "ChIJpWwCoeOZyzsRsFQij3zbUzw", "plus_code": {"global_code": "7J9W9GF7+HM", "compound_code": "9GF7+HM Hyderabad, Telangana, India"}, "vicinity": "near Sub- Registrar office, Saleem Nagar Colony, Moosarambagh, Hyderabad", "scope": "GOOGLE", "business_status": "OPERATIONAL", "types": ["local_government_office", "point_of_interest", "establishment"], "icon": "https://maps.gstatic.com/mapfiles/place_api/icons/v1/png_71/civic_building-71.png"}, {"rating": 5, "user_ratings_total": 14, "name": "KULDEEP ROADLINES HYDERABAD", "reference": "ChIJiRjkIFCYyzsRjWi3SdRMxmc", "geometry": {"location": {"lat": 17.372818, "lng": 78.509438}, "viewport": {"northeast": {"lat": 17.37417973029151, "lng": 78.5107972302915}, "southwest": {"lat": 17.3714817697085, "lng": 78.50809926970848}}}, "opening_hours": {"open_now": false}, "place_id": "ChIJiRjkIFCYyzsRjWi3SdRMxmc", "plus_code": {"global_code": "7J9W9GF5+4Q", "compound_code": "9GF5+4Q Hyderabad, Telangana, India"}, "vicinity": "16-11-41-42 Super Bazar Saleem Nagar Malakpet, Hyderabad", "scope": "GOOGLE", "business_status": "OPERATIONAL", "types": ["local_government_office", "point_of_interest", "establishment"], "icon": "https://maps.gstatic.com/mapfiles/place_api/icons/v1/png_71/civic_building-71.png"}, {"name": "SKILLED", "reference": "ChIJlbhX0lSYyzsRRHd6HGS9azw", "geometry": {"location": {"lat": 17.3830141, "lng": 78.5172608}, "viewport": {"northeast": {"lat": 17.3843244302915, "lng": 78.5185727302915}, "southwest": {"lat": 17.3816264697085, "lng": 78.51587476970849}}}, "opening_hours": {"open_now": false}, "place_id": "ChIJlbhX0lSYyzsRRHd6HGS9azw", "plus_code": {"global_code": "7J9W9GM8+6W", "compound_code": "9GM8+6W Hyderabad, Telangana, India"}, "vicinity": "near ali cafe, #2-3-692/1/A/1,anusri enclave, zindathilismath road,amberpet, near ali cafe, Hyderabad", "scope": "GOOGLE", "business_status": "OPERATIONAL", "types": ["local_government_office", "point_of_interest", "establishment"], "icon": "https://maps.gstatic.com/mapfiles/place_api/icons/v1/png_71/civic_building-71.png"}, {"name": "Sri Srinivasa Marriage Bureau", "reference": "ChIJyajSwAeZyzsRDTaSsyx8BqY", "geometry": {"location": {"lat": 17.38629479999999, "lng": 78.5157104}, "viewport": {"northeast": {"lat": 17.3876441802915, "lng": 78.51705003029149}, "southwest": {"lat": 17.3849462197085, "lng": 78.51435206970848}}}, "place_id": "ChIJyajSwAeZyzsRDTaSsyx8BqY", "plus_code": {"global_code": "7J9W9GP8+G7", "compound_code": "9GP8+G7 Hyderabad, Telangana, India"}, "vicinity": "2-3-444, Main Road, Amberpet, Hyderabad", "scope": "GOOGLE", "business_status": "OPERATIONAL", "types": ["local_government_office", "point_of_interest", "establishment"], "icon": "https://maps.gstatic.com/mapfiles/place_api/icons/v1/png_71/civic_building-71.png"}, {"name": "Crown Multipurpose Center, Malakpet Hyderabad", "reference": "ChIJS9ocf6yZyzsRYW0b26txnWc", "geometry": {"location": {"lat": 17.3796011, "lng": 78.50079099999999}, "viewport": {"northeast": {"lat": 17.3809413802915, "lng": 78.5021717302915}, "southwest": {"lat": 17.3782434197085, "lng": 78.49947376970849}}}, "opening_hours": {"open_now": false}, "place_id": "ChIJS9ocf6yZyzsRYW0b26txnWc", "plus_code": {"global_code": "7J9W9GH2+R8", "compound_code": "9GH2+R8 Hyderabad, Telangana, India"}, "vicinity": "near, Water Tank Road, Old Malakpet, Hyderabad", "photos": [{"photo_reference": "ATtYBwJLxhN7RI9DWbLnzixIK3aDNMJTVi-MpezTJcptVvdxRK9QBqACe4aRGFbQ2eKAYGrw3ZV9pERGVTgdaHC6H-MM-7TRMpY44ixSiTuUp_V4OhQQJ9oTbRRjprtO-R2_BZartSPq329izp9i8OxgJrvbbZIf97611ks5b5pUSuX3Ighr", "width": 720, "html_attributions": ["<a href=\"https://maps.google.com/maps/contrib/102040786131695582076\">GST Support Center, malakpet hyderabad</a>"], "height": 1200}], "scope": "GOOGLE", "business_status": "OPERATIONAL", "types": ["local_government_office", "point_of_interest", "establishment"], "icon": "https://maps.gstatic.com/mapfiles/place_api/icons/v1/png_71/civic_building-71.png"}, {"rating": 4, "user_ratings_total": 1, "permanently_closed": true, "name": "DCP Office Amberpet", "reference": "ChIJe-tipquZyzsRJitMaD-vkrE", "geometry": {"location": {"lat": 17.3864183, "lng": 78.5169281}, "viewport": {"northeast": {"lat": 17.3877477302915, "lng": 78.51814888029152}, "southwest": {"lat": 17.3850497697085, "lng": 78.5154509197085}}}, "place_id": "ChIJe-tipquZyzsRJitMaD-vkrE", "plus_code": {"global_code": "7J9W9GP8+HQ", "compound_code": "9GP8+HQ Hyderabad, Telangana, India"}, "vicinity": "2-3-624, Moosarambagh Road, Police Colony, Amberpet, Hyderabad", "scope": "GOOGLE", "business_status": "CLOSED_TEMPORARILY", "types": ["police", "local_government_office", "point_of_interest", "establishment"], "icon": "https://maps.gstatic.com/mapfiles/place_api/icons/v1/png_71/police-71.png"}, {"name": "Sunrise Parivahan Pvt.Ltd", "reference": "ChIJ2-IhWUWYyzsRVkBNQ59kGUU", "geometry": {"location": {"lat": 17.3708427, "lng": 78.5082893}, "viewport": {"northeast": {"lat": 17.3721900302915, "lng": 78.50969888029151}, "southwest": {"lat": 17.3694920697085, "lng": 78.5070009197085}}}, "opening_hours": {"open_now": true}, "place_id": "ChIJ2-IhWUWYyzsRVkBNQ59kGUU", "plus_code": {"global_code": "7J9W9GC5+88", "compound_code": "9GC5+88 Hyderabad, Telangana, India"}, "vicinity": "D.NO.16-02-705/28,Mumtaz Collefe Road, Above Uco Bank, 3rd Floor,Malakpet HYderabad, Hyderabad", "scope": "GOOGLE", "business_status": "OPERATIONAL", "types": ["local_government_office", "point_of_interest", "establishment"], "icon": "https://maps.gstatic.com/mapfiles/place_api/icons/v1/png_71/civic_building-71.png"}, {"rating": 1, "user_ratings_total": 1, "name": "Pelli Pusthakam Vivaha Vedhika", "reference": "ChIJw-MCKzSYyzsRX088XSW2WKA", "geometry": {"location": {"lat": 17.3738656, "lng": 78.5023653}, "viewport": {"northeast": {"lat": 17.3752061302915, "lng": 78.5037713802915}, "southwest": {"lat": 17.3725081697085, "lng": 78.50107341970849}}}, "place_id": "ChIJw-MCKzSYyzsRX088XSW2WKA", "plus_code": {"global_code": "7J9W9GF2+GW", "compound_code": "9GF2+GW Hyderabad, Telangana, India"}, "vicinity": "Flat No. 223, 2nd Floor, Jamuna Towers, MCH Colony, Malakpet, Hyderabad", "scope": "GOOGLE", "business_status": "OPERATIONAL", "types": ["local_government_office", "point_of_interest", "establishment"], "icon": "https://maps.gstatic.com/mapfiles/place_api/icons/v1/png_71/civic_building-71.png"}, {"rating": 4.4, "user_ratings_total": 26, "name": "Kishan Reddy", "reference": "ChIJT09SFMOZyzsR85PJMa8s0GI", "geometry": {"location": {"lat": 17.389186, "lng": 78.51394119999999}, "viewport": {"northeast": {"lat": 17.3905614802915, "lng": 78.51515118029151}, "southwest": {"lat": 17.3878635197085, "lng": 78.5124532197085}}}, "place_id": "ChIJT09SFMOZyzsR85PJMa8s0GI", "plus_code": {"global_code": "7J9W9GQ7+MH", "compound_code": "9GQ7+MH Hyderabad, Telangana, India"}, "vicinity": "# 205 yames -II, what the LA of old buildings, Haider recess", "scope": "GOOGLE", "business_status": "OPERATIONAL", "types": ["local_government_office", "point_of_interest", "establishment"], "icon": "https://maps.gstatic.com/mapfiles/place_api/icons/v1/png_71/civic_building-71.png"}, {"permanently_closed": true, "name": "Pelli Parichayam", "reference": "ChIJY30xPUqYyzsRqEBJBOly-jE", "geometry": {"location": {"lat": 17.3771363, "lng": 78.4994679}, "viewport": {"northeast": {"lat": 17.3784759802915, "lng": 78.50088388029151}, "southwest": {"lat": 17.37577801970849, "lng": 78.4981859197085}}}, "place_id": "ChIJY30xPUqYyzsRqEBJBOly-jE", "plus_code": {"global_code": "7J9W9FGX+VQ", "compound_code": "9FGX+VQ Hyderabad, Telangana, India"}, "vicinity": "Flat No 112/A,Janapriya Sadan , Race Course Road, Old Malakpet, Hyderabad", "scope": "GOOGLE", "business_status": "CLOSED_TEMPORARILY", "types": ["local_government_office", "point_of_interest", "establishment"], "icon": "https://maps.gstatic.com/mapfiles/place_api/icons/v1/png_71/civic_building-71.png"}, {"permanently_closed": true, "name": "Nayab Rishte Matrimonial Consultant Agency", "reference": "ChIJnw0DdAKZyzsRhbMNx4wZQks", "geometry": {"location": {"lat": 17.3729184, "lng": 78.5015212}, "viewport": {"northeast": {"lat": 17.3742644802915, "lng": 78.50290638029149}, "southwest": {"lat": 17.3715665197085, "lng": 78.50020841970849}}}, "place_id": "ChIJnw0DdAKZyzsRhbMNx4wZQks", "plus_code": {"global_code": "7J9W9GF2+5J", "compound_code": "9GF2+5J Hyderabad, Telangana, India"}, "vicinity": "Palton, Dayanand Nagar, New Malakpet, Hyderabad", "scope": "GOOGLE", "business_status": "CLOSED_TEMPORARILY", "types": ["local_government_office", "point_of_interest", "establishment"], "icon": "https://maps.gstatic.com/mapfiles/place_api/icons/v1/png_71/civic_building-71.png"}, {"name": "Braille Press, TVCC", "reference": "ChIJMQHiariZyzsRXV1AJkjFXzE", "geometry": {"location": {"lat": 17.3757874, "lng": 78.4994277}, "viewport": {"northeast": {"lat": 17.3770780802915, "lng": 78.5007554302915}, "southwest": {"lat": 17.3743801197085, "lng": 78.4980574697085}}}, "place_id": "ChIJMQHiariZyzsRXV1AJkjFXzE", "plus_code": {"global_code": "7J9W9FGX+8Q", "compound_code": "9FGX+8Q Hyderabad, Telangana, India"}, "vicinity": "Jamal Colony, Old Malakpet, Hyderabad", "scope": "GOOGLE", "business_status": "OPERATIONAL", "types": ["local_government_office", "point_of_interest", "establishment"], "icon": "https://maps.gstatic.com/mapfiles/place_api/icons/v1/png_71/civic_building-71.png"}, {"name": "Keerthana Matrimony", "reference": "ChIJ82nm-EiYyzsRC7pG5RkFVyk", "geometry": {"location": {"lat": 17.3730589, "lng": 78.50090589999999}, "viewport": {"northeast": {"lat": 17.3743883302915, "lng": 78.50241258029152}, "southwest": {"lat": 17.3716903697085, "lng": 78.4997146197085}}}, "place_id": "ChIJ82nm-EiYyzsRC7pG5RkFVyk", "plus_code": {"global_code": "7J9W9GF2+69", "compound_code": "9GF2+69 Hyderabad, Telangana, India"}, "vicinity": "Behind Vijaya Bank Street, Street Number 1, Judges Colony, New Malakpet, Hyderabad", "scope": "GOOGLE", "business_status": "OPERATIONAL", "types": ["local_government_office", "point_of_interest", "establishment"], "icon": "https://maps.gstatic.com/mapfiles/place_api/icons/v1/png_71/civic_building-71.png"}]}