{"status": "OK", "html_attributions": [], "results": [{"name": "Vibgyor Polyadditive pvt ltd", "reference": "ChIJ50mR-Aq9yzsRc6IdcAH-Hss", "geometry": {"location": {"lat": 17.2956092, "lng": 78.4328708}, "viewport": {"northeast": {"lat": 17.2969289802915, "lng": 78.4342214802915}, "southwest": {"lat": 17.2942310197085, "lng": 78.43152351970849}}}, "place_id": "ChIJ50mR-Aq9yzsRc6IdcAH-Hss", "plus_code": {"global_code": "7J9W7CWM+64", "compound_code": "7CWM+64 Lakshmiguda, Telangana, India"}, "vicinity": "Unnamed Road, Madhuban Colony, Lakshmiguda", "scope": "GOOGLE", "business_status": "OPERATIONAL", "types": ["local_government_office", "point_of_interest", "establishment"], "icon": "https://maps.gstatic.com/mapfiles/place_api/icons/v1/png_71/civic_building-71.png"}, {"rating": 5, "user_ratings_total": 1, "name": "Administrative Office ( Head Office", "reference": "ChIJ_SXnVce9yzsRgW20WOs9F-g", "geometry": {"location": {"lat": 17.3102887, "lng": 78.42317179999999}, "viewport": {"northeast": {"lat": 17.31165253029151, "lng": 78.4244826802915}, "southwest": {"lat": 17.3089545697085, "lng": 78.4217847197085}}}, "place_id": "ChIJ_SXnVce9yzsRgW20WOs9F-g", "plus_code": {"global_code": "7J9W8C6F+47", "compound_code": "8C6F+47 Katedhan, Telangana, India"}, "vicinity": "National Highway 44, Netaji Nagar, Katedhan", "photos": [{"photo_reference": "ATtYBwIGPEj9ra-1xJ18-dYuFjwnhqKyXJ_NgkgNtToJ28qrSQAKI7fF1JbdTfGuEqbZlAWmrBcMXcO_-UWSGahROK_bEfyf63jm-C87etVn8Wp2IhzOLNq1CwdO8jdnxLhTGlk2bHDzNv45Epw8yg33gkCkiZMej7Dz2-0LN6Mukv9L-Njm", "width": 3120, "html_attributions": ["<a href=\"https://maps.google.com/maps/contrib/107884482214022540877\">Md Mudaser</a>"], "height": 4160}], "scope": "GOOGLE", "business_status": "OPERATIONAL", "types": ["local_government_office", "point_of_interest", "establishment"], "icon": "https://maps.gstatic.com/mapfiles/place_api/icons/v1/png_71/civic_building-71.png"}, {"name": "stamp vender", "reference": "ChIJqf372Bq9yzsRfNV2NWB6OCQ", "geometry": {"location": {"lat": 17.294587, "lng": 78.4420006}, "viewport": {"northeast": {"lat": 17.2959529302915, "lng": 78.4433473802915}, "southwest": {"lat": 17.29325496970849, "lng": 78.44064941970849}}}, "place_id": "ChIJqf372Bq9yzsRfNV2NWB6OCQ", "plus_code": {"global_code": "7J9W7CVR+RR", "compound_code": "7CVR+RR Hyderabad, Telangana, India"}, "vicinity": "Jelpally Rood, Sri Rama Colony, Pardhi Guda, Hyderabad", "scope": "GOOGLE", "business_status": "OPERATIONAL", "types": ["local_government_office", "point_of_interest", "establishment"], "icon": "https://maps.gstatic.com/mapfiles/place_api/icons/v1/png_71/civic_building-71.png"}]}