{"status": "OK", "html_attributions": [], "results": [{"rating": 3.4, "user_ratings_total": 8, "name": "MeeSeva Center", "reference": "ChIJgUiiN0-9yzsR_SgJXzRKyyM", "geometry": {"location": {"lat": 17.3167598, "lng": 78.46591819999999}, "viewport": {"northeast": {"lat": 17.3181336802915, "lng": 78.4672673302915}, "southwest": {"lat": 17.3154357197085, "lng": 78.4645693697085}}}, "opening_hours": {"open_now": false}, "place_id": "ChIJgUiiN0-9yzsR_SgJXzRKyyM", "plus_code": {"global_code": "7J9W8F88+P9", "compound_code": "8F88+P9 Hyderabad, Telangana, India"}, "vicinity": "18-13-132-I/30/A, Anmol Garden Chandrayangutta(V), Bandlaguda(M", "photos": [{"photo_reference": "ATtYBwI0lMagIBl9ilJ1pnjjXVqrm99nhb9o6xk2rgDvI4ZHkFWvW4Gmwg0e6vDpmCanxajj2GWAy6OhPu0LpLCCMjHjpluN_rKY7sLsYpZMorNDtzWZC7EZpQIQaG_9L1YaYhzWdSMUA812og2-uW1kMKKE28WhaRhFk4lRFbW_jEsgTBVR", "width": 1920, "html_attributions": ["<a href=\"https://maps.google.com/maps/contrib/105514388646889600180\">company &amp; company</a>"], "height": 1080}], "scope": "GOOGLE", "business_status": "OPERATIONAL", "types": ["local_government_office", "point_of_interest", "establishment"], "icon": "https://maps.gstatic.com/mapfiles/place_api/icons/v1/png_71/civic_building-71.png"}, {"name": "MeeSeva Center", "reference": "ChIJm-7XnbOiyzsRGn3lHVydm8g", "geometry": {"location": {"lat": 17.3179883, "lng": 78.47817289999999}, "viewport": {"northeast": {"lat": 17.3193459802915, "lng": 78.47929403029151}, "southwest": {"lat": 17.3166480197085, "lng": 78.4765960697085}}}, "place_id": "ChIJm-7XnbOiyzsRGn3lHVydm8g", "plus_code": {"global_code": "7J9W8F9H+57", "compound_code": "8F9H+57 Hyderabad, Telangana, India"}, "vicinity": "18-11-23, Shop No.2, Saber Plaza, Barkas, Hyderabad", "scope": "GOOGLE", "business_status": "OPERATIONAL", "types": ["local_government_office", "point_of_interest", "establishment"], "icon": "https://maps.gstatic.com/mapfiles/place_api/icons/v1/png_71/civic_building-71.png"}, {"rating": 5, "user_ratings_total": 1, "name": "MeeSeva Center", "reference": "ChIJj8QriK2iyzsRDq15PhRb5kQ", "geometry": {"location": {"lat": 17.3227804, "lng": 78.47890509999999}, "viewport": {"northeast": {"lat": 17.3241092802915, "lng": 78.4801877302915}, "southwest": {"lat": 17.3214113197085, "lng": 78.4774897697085}}}, "place_id": "ChIJj8QriK2iyzsRDq15PhRb5kQ", "plus_code": {"global_code": "7J9W8FFH+4H", "compound_code": "8FFH+4H Hyderabad, Telangana, India"}, "vicinity": "18-11-2, Bin Mahfooz Complex, Hyderabad", "scope": "GOOGLE", "business_status": "OPERATIONAL", "types": ["local_government_office", "point_of_interest", "establishment"], "icon": "https://maps.gstatic.com/mapfiles/place_api/icons/v1/png_71/civic_building-71.png"}, {"name": "MeeSeva Center", "reference": "ChIJvxz07ayiyzsRl-rU6fPVLrQ", "geometry": {"location": {"lat": 17.3267383, "lng": 78.4773091}, "viewport": {"northeast": {"lat": 17.3281417802915, "lng": 78.4786385802915}, "southwest": {"lat": 17.3254438197085, "lng": 78.4759406197085}}}, "place_id": "ChIJvxz07ayiyzsRl-rU6fPVLrQ", "plus_code": {"global_code": "7J9W8FGG+MW", "compound_code": "8FGG+MW Hyderabad, Telangana, India"}, "vicinity": "5-23/1, Errakunta, Kesav Giri, Chandrayangutta, Hyderabad", "scope": "GOOGLE", "business_status": "OPERATIONAL", "types": ["local_government_office", "point_of_interest", "establishment"], "icon": "https://maps.gstatic.com/mapfiles/place_api/icons/v1/png_71/civic_building-71.png"}, {"rating": 4, "user_ratings_total": 5, "name": "Mee Seva Center", "reference": "ChIJVZkH51W9yzsRxwNHM4eHULY", "geometry": {"location": {"lat": 17.3325854, "lng": 78.4700397}, "viewport": {"northeast": {"lat": 17.3338277802915, "lng": 78.47140953029151}, "southwest": {"lat": 17.33112981970849, "lng": 78.46871156970849}}}, "place_id": "ChIJVZkH51W9yzsRxwNHM4eHULY", "plus_code": {"global_code": "7J9W8FMC+22", "compound_code": "8FMC+22 Hyderabad, Telangana, India"}, "vicinity": "opp. to Gladiator Fitness Studio, 18-2-473/2, Falaknuma Railway Station Road, Falaknuma, Hyderabad", "scope": "GOOGLE", "business_status": "OPERATIONAL", "types": ["local_government_office", "point_of_interest", "establishment"], "icon": "https://maps.gstatic.com/mapfiles/place_api/icons/v1/png_71/civic_building-71.png"}, {"name": "OFFICE OF THE REGIONAL TRANSPORT OFFICER", "reference": "ChIJFaER6x-9yzsRkYm67A7UjhI", "geometry": {"location": {"lat": 17.3200966, "lng": 78.468063}, "viewport": {"northeast": {"lat": 17.3214614302915, "lng": 78.4694169802915}, "southwest": {"lat": 17.3187634697085, "lng": 78.46671901970849}}}, "opening_hours": {"open_now": false}, "place_id": "ChIJFaER6x-9yzsRkYm67A7UjhI", "plus_code": {"global_code": "7J9W8FC9+26", "compound_code": "8FC9+26 Hyderabad, Telangana, India"}, "vicinity": "18-13-6/88/C/15/A Dastagir Nagar, Rajiv Gandhi Nagar, Dastagirnagar, Hashamabad, Chandrayangutta, Hyderabad", "scope": "GOOGLE", "business_status": "OPERATIONAL", "types": ["local_government_office", "point_of_interest", "establishment"], "icon": "https://maps.gstatic.com/mapfiles/place_api/icons/v1/png_71/civic_building-71.png"}, {"name": "Rehaan RTA Works", "reference": "ChIJiWYrRzm9yzsR3sV-zZg2NEA", "geometry": {"location": {"lat": 17.3206167, "lng": 78.4679604}, "viewport": {"northeast": {"lat": 17.3220981302915, "lng": 78.4694191802915}, "southwest": {"lat": 17.3194001697085, "lng": 78.46672121970849}}}, "place_id": "ChIJiWYrRzm9yzsR3sV-zZg2NEA", "plus_code": {"global_code": "7J9W8FC9+65", "compound_code": "8FC9+65 Hyderabad, Telangana, India"}, "vicinity": "Rajiv Gandhi Nagar, Chandrayangutta, Hyderabad", "scope": "GOOGLE", "business_status": "OPERATIONAL", "types": ["local_government_office", "point_of_interest", "establishment"], "icon": "https://maps.gstatic.com/mapfiles/place_api/icons/v1/png_71/civic_building-71.png"}, {"rating": 3.9, "user_ratings_total": 145, "name": "RTO office Chandyanaryangutta.Bandlaguda.", "reference": "ChIJTVg84vy9yzsRPtgEmk63lTA", "geometry": {"location": {"lat": 17.3201942, "lng": 78.4678383}, "viewport": {"northeast": {"lat": 17.3215933302915, "lng": 78.4689274802915}, "southwest": {"lat": 17.3188953697085, "lng": 78.46622951970849}}}, "place_id": "ChIJTVg84vy9yzsRPtgEmk63lTA", "plus_code": {"global_code": "7J9W8FC9+34", "compound_code": "8FC9+34 Hyderabad, Telangana, India"}, "vicinity": "South Zone, Shop No.7, Insides RTO Bandlaguda, Bandlaguda Road, Rajiv Gandhi Nagar, Dastagirnagar, Chandrayangutta, Hyderabad", "photos": [{"photo_reference": "ATtYBwI8zcms3E7HpJFeNLF-wyuex4UxPmHR7albD7Gk3phkqY0_SGZs0ROTGispDiXmlBzTX3DcC1v_mgw3RT7N5LMm4WnPfUkEV-he4nUv5-Qqlweq8J_u-qktUhM3O3lBs9nAGEgLszX7QM4haKKnQEJDOpHfQo3cx56me7-kHS25B76d", "width": 6000, "html_attributions": ["<a href=\"https://maps.google.com/maps/contrib/105314322149105594141\">Raghunandan Raghu</a>"], "height": 8000}], "scope": "GOOGLE", "business_status": "OPERATIONAL", "types": ["local_government_office", "point_of_interest", "establishment"], "icon": "https://maps.gstatic.com/mapfiles/place_api/icons/v1/png_71/civic_building-71.png"}, {"name": "SR HOMES", "reference": "ChIJxyR-_De9yzsRXMXafv53ync", "geometry": {"location": {"lat": 17.3099303, "lng": 78.4643577}, "viewport": {"northeast": {"lat": 17.3112801802915, "lng": 78.46565698029151}, "southwest": {"lat": 17.30858221970849, "lng": 78.46295901970849}}}, "place_id": "ChIJxyR-_De9yzsRXMXafv53ync", "plus_code": {"global_code": "7J9W8F57+XP", "compound_code": "8F57+XP Hyderabad, Telangana, India"}, "vicinity": "Hyderabad, Noori Nagar, Chandrayangutta, Hyderabad", "scope": "GOOGLE", "business_status": "OPERATIONAL", "types": ["local_government_office", "point_of_interest", "establishment"], "icon": "https://maps.gstatic.com/mapfiles/place_api/icons/v1/png_71/civic_building-71.png"}]}