{"status": "OK", "html_attributions": [], "results": [{"name": "Monu Puncture Shop", "reference": "ChIJ8cORK4erDTkRfB6NZbjLIvk", "geometry": {"location": {"lat": 28.8547613, "lng": 77.10402619999999}, "viewport": {"northeast": {"lat": 28.8560584302915, "lng": 77.10537548029151}, "southwest": {"lat": 28.85336046970851, "lng": 77.10267751970851}}}, "opening_hours": {"open_now": false}, "place_id": "ChIJ8cORK4erDTkRfB6NZbjLIvk", "plus_code": {"global_code": "7JWVV433+WJ", "compound_code": "V433+WJ Narela, New Delhi, India"}, "vicinity": "Pocket 4, Sector A6, Narela, New Delhi", "scope": "GOOGLE", "business_status": "OPERATIONAL", "types": ["police", "point_of_interest", "establishment"], "icon": "https://maps.gstatic.com/mapfiles/place_api/icons/v1/png_71/police-71.png"}, {"name": "monu cycle&bike puncture shop", "reference": "ChIJLxAVah-rDTkRkVQtRf3sQYQ", "geometry": {"location": {"lat": 28.85472519999999, "lng": 77.1041758}, "viewport": {"northeast": {"lat": 28.85604128029149, "lng": 77.1055265302915}, "southwest": {"lat": 28.85334331970849, "lng": 77.10282856970849}}}, "opening_hours": {"open_now": false}, "place_id": "ChIJLxAVah-rDTkRkVQtRf3sQYQ", "plus_code": {"global_code": "7JWVV433+VM", "compound_code": "V433+VM Delhi, India"}, "vicinity": "budh bazar road, Pocket 4, Sector A9, Marmurpur, Delhi", "scope": "GOOGLE", "business_status": "OPERATIONAL", "types": ["police", "point_of_interest", "establishment"], "icon": "https://maps.gstatic.com/mapfiles/place_api/icons/v1/png_71/police-71.png"}, {"rating": 4, "user_ratings_total": 3, "name": "Police Chowki Sector A 5", "reference": "ChIJH9kvgAirDTkRxLkEErF4j1Y", "geometry": {"location": {"lat": 28.8573892, "lng": 77.1036148}, "viewport": {"northeast": {"lat": 28.8587740802915, "lng": 77.10496363029151}, "southwest": {"lat": 28.8560761197085, "lng": 77.1022656697085}}}, "place_id": "ChIJH9kvgAirDTkRxLkEErF4j1Y", "plus_code": {"global_code": "7JWVV443+XC", "compound_code": "V443+XC Marmurpur, New Delhi, Delhi, India"}, "vicinity": "Marmurpur, New Delhi", "photos": [{"photo_reference": "ATtYBwJowsw0CEuskHV4WMZQ1eFLEI_pf60V6xnSyHiyUUNrC0MmD0cy-RHIhLmOOhkhsHvbtxPVjrE-yXyGL1dVf6Pyq4B9t01QAfsqwb-V6knIru4otuoGh8hYcSrkWNeJ2lDbCy5_CVlUxx-fNX1uD4a3oQZ6aPfkFtn0p5jBjj-Cu9RJ", "width": 1920, "html_attributions": ["<a href=\"https://maps.google.com/maps/contrib/102699234732170015844\">SK Anjaan</a>"], "height": 1080}], "scope": "GOOGLE", "business_status": "OPERATIONAL", "types": ["police", "point_of_interest", "establishment"], "icon": "https://maps.gstatic.com/mapfiles/place_api/icons/v1/png_71/police-71.png"}, {"rating": 3, "user_ratings_total": 16, "name": "Narela Police Station", "reference": "ChIJA14DtG-pDTkRSvBn_M302Rw", "geometry": {"location": {"lat": 28.8532126, "lng": 77.0880622}, "viewport": {"northeast": {"lat": 28.8545585802915, "lng": 77.08943753029149}, "southwest": {"lat": 28.8518606197085, "lng": 77.08673956970848}}}, "place_id": "ChIJA14DtG-pDTkRSvBn_M302Rw", "plus_code": {"global_code": "7JWVV33Q+76", "compound_code": "V33Q+76 Delhi, India"}, "vicinity": "Vijay Nagar, Narela, Delhi", "photos": [{"photo_reference": "ATtYBwKh0RXbGD17xbpJmN05p8VL-_MY74gwJ61HB81zAif6NplMCrOrBFCXqUXyOKAsKDnFfR9mjqn-QUHAi059o-nuTojMNj1TodZlrvuorzIE7ziqqHUE1lKjARlBsr3Jq1h1i9xuBfH8-JkQxx7ZBzbZdZwKHmObLq4mxn9194ZisM_i", "width": 2560, "html_attributions": ["<a href=\"https://maps.google.com/maps/contrib/115339519015937474809\">ashwani anchlash</a>"], "height": 1440}], "scope": "GOOGLE", "business_status": "OPERATIONAL", "types": ["police", "point_of_interest", "establishment"], "icon": "https://maps.gstatic.com/mapfiles/place_api/icons/v1/png_71/police-71.png"}]}