{"status": "OK", "html_attributions": [], "results": [{"rating": 3.6, "user_ratings_total": 49, "name": "Police Station Malviya Nagar", "reference": "ChIJe4O7mALiDDkRwiCIG2RNFIc", "geometry": {"location": {"lat": 28.5307879, "lng": 77.20452929999999}, "viewport": {"northeast": {"lat": 28.5321255302915, "lng": 77.20571698029151}, "southwest": {"lat": 28.5294275697085, "lng": 77.20301901970849}}}, "opening_hours": {"open_now": true}, "place_id": "ChIJe4O7mALiDDkRwiCIG2RNFIc", "plus_code": {"global_code": "7JWVG6J3+8R", "compound_code": "G6J3+8R New Delhi, Delhi, India"}, "vicinity": "near Metro Station, Rashid Road, Block A, Shivalik Colony, Malviya Nagar, New Delhi", "photos": [{"photo_reference": "ATtYBwL9KQeEQMeDYprdqWmgypltgluggblvG1Yj2QAMUix3gta5ROgTYEENSB3hQftR7W2b_74v58BpAsKHkol7Xry_rNr8t4KiP2RAlXgm5UzRl-iBMw1wUYxqN8USq4YXlnhs3iOR0f4aWCoJz5TV420nZqwKZLiLs-J6OB5ExDZaykYg", "width": 4000, "html_attributions": ["<a href=\"https://maps.google.com/maps/contrib/114627804202189915538\">Shilpa Yadav 1118</a>"], "height": 3000}], "scope": "GOOGLE", "business_status": "OPERATIONAL", "types": ["police", "point_of_interest", "establishment"], "icon": "https://maps.gstatic.com/mapfiles/place_api/icons/v1/png_71/police-71.png"}, {"rating": 4, "user_ratings_total": 2, "permanently_closed": true, "name": "traffic Chalan pey office", "reference": "ChIJOSuErMXjDDkRILG9TGOcwfQ", "geometry": {"location": {"lat": 28.5325256, "lng": 77.19821739999999}, "viewport": {"northeast": {"lat": 28.5339334802915, "lng": 77.19959733029151}, "southwest": {"lat": 28.5312355197085, "lng": 77.1968993697085}}}, "place_id": "ChIJOSuErMXjDDkRILG9TGOcwfQ", "plus_code": {"global_code": "7JWVG5MX+27", "compound_code": "G5MX+27 New Delhi, Delhi, India"}, "vicinity": "Police Training Centre, Navjeevan Vihar, Adchini, New Delhi", "photos": [{"photo_reference": "ATtYBwJEVwGUS0y_FcpYtZjTzMcijzJT-uhpLi8vHM6zvvIG9Eq6EBweXM0_53LlZ2nkKdir7LhdPHx87QmNtHPEmsXHPC9iTP2t0xhT9wHfdYKoZhoQ0N02_AmS43M2WoiNbGSicNa17agKwioBUJDeU0qGSqVKJ3jLIV4xmyeKrkMbavFE", "width": 1080, "html_attributions": ["<a href=\"https://maps.google.com/maps/contrib/103003881396061288647\">Fox Vlog</a>"], "height": 1920}], "scope": "GOOGLE", "business_status": "CLOSED_TEMPORARILY", "types": ["police", "point_of_interest", "establishment"], "icon": "https://maps.gstatic.com/mapfiles/place_api/icons/v1/png_71/school-71.png"}, {"name": "RC collection office", "reference": "ChIJWT0YYWHjDDkRwdyvrh6goQU", "geometry": {"location": {"lat": 28.5327108, "lng": 77.19834709999999}, "viewport": {"northeast": {"lat": 28.5340204802915, "lng": 77.1996804802915}, "southwest": {"lat": 28.5313225197085, "lng": 77.1969825197085}}}, "place_id": "ChIJWT0YYWHjDDkRwdyvrh6goQU", "plus_code": {"global_code": "7JWVG5MX+38", "compound_code": "G5MX+38 New Delhi, Delhi, India"}, "vicinity": "Police Training Centre, Navjeevan Vihar, Malviya Nagar, New Delhi", "scope": "GOOGLE", "business_status": "OPERATIONAL", "types": ["police", "point_of_interest", "establishment"], "icon": "https://maps.gstatic.com/mapfiles/place_api/icons/v1/png_71/police-71.png"}, {"name": "Shivalik Guard Room", "reference": "ChIJZ6qS9e3jDDkR5l2abCnOGz8", "geometry": {"location": {"lat": 28.5346177, "lng": 77.207471}, "viewport": {"northeast": {"lat": 28.5359604802915, "lng": 77.2088280802915}, "southwest": {"lat": 28.53326251970849, "lng": 77.20613011970849}}}, "place_id": "ChIJZ6qS9e3jDDkR5l2abCnOGz8", "plus_code": {"global_code": "7JWVG6M4+RX", "compound_code": "G6M4+RX New Delhi, Delhi, India"}, "vicinity": "T-136/7,Begumpur, Main Shivalik Road, Basant Kaur Marg, Block B, Shivalik Colony, Malviya Nagar, New Delhi", "scope": "GOOGLE", "business_status": "OPERATIONAL", "types": ["police", "point_of_interest", "establishment"], "icon": "https://maps.gstatic.com/mapfiles/place_api/icons/v1/png_71/police-71.png"}, {"name": "Police Booth", "reference": "ChIJ96qfE_vhDDkRAFCIR7QerL4", "geometry": {"location": {"lat": 28.5205108, "lng": 77.2019024}, "viewport": {"northeast": {"lat": 28.5219145302915, "lng": 77.2032661302915}, "southwest": {"lat": 28.51921656970849, "lng": 77.20056816970849}}}, "place_id": "ChIJ96qfE_vhDDkRAFCIR7QerL4", "plus_code": {"global_code": "7JWVG6C2+6Q", "compound_code": "G6C2+6Q New Delhi, Delhi, India"}, "vicinity": "Saiyad Ul Ajaib Village, Sainik Farm, New Delhi", "scope": "GOOGLE", "business_status": "OPERATIONAL", "types": ["police", "point_of_interest", "establishment"], "icon": "https://maps.gstatic.com/mapfiles/place_api/icons/v1/png_71/police-71.png"}, {"rating": 4.5, "user_ratings_total": 2, "name": "CAW Cell, Saket", "reference": "ChIJazBV4fDhDDkRmrlzTpySkYY", "geometry": {"location": {"lat": 28.5232239, "lng": 77.2085419}, "viewport": {"northeast": {"lat": 28.5245768302915, "lng": 77.2098733302915}, "southwest": {"lat": 28.52187886970849, "lng": 77.2071753697085}}}, "opening_hours": {"open_now": false}, "place_id": "ChIJazBV4fDhDDkRmrlzTpySkYY", "plus_code": {"global_code": "7JWVG6F5+7C", "compound_code": "G6F5+7C New Delhi, Delhi, India"}, "vicinity": "C, Ashok Vihar, Saket, New Delhi", "scope": "GOOGLE", "business_status": "OPERATIONAL", "types": ["police", "local_government_office", "point_of_interest", "establishment"], "icon": "https://maps.gstatic.com/mapfiles/place_api/icons/v1/png_71/police-71.png"}, {"name": "Police Post Begumpur PS", "reference": "ChIJTadkvRviDDkR-dW9VlzeTMo", "geometry": {"location": {"lat": 28.5380516, "lng": 77.20977479999999}, "viewport": {"northeast": {"lat": 28.5393535302915, "lng": 77.2110957802915}, "southwest": {"lat": 28.5366555697085, "lng": 77.20839781970848}}}, "place_id": "ChIJTadkvRviDDkR-dW9VlzeTMo", "plus_code": {"global_code": "7JWVG6Q5+6W", "compound_code": "G6Q5+6W New Delhi, Delhi, India"}, "vicinity": "Balmiki Camp, Begumpur Park, Malviya Nagar, New Delhi", "scope": "GOOGLE", "business_status": "OPERATIONAL", "types": ["police", "point_of_interest", "establishment"], "icon": "https://maps.gstatic.com/mapfiles/place_api/icons/v1/png_71/police-71.png"}, {"rating": 3, "user_ratings_total": 1, "name": "Police Booth Mehrauli", "reference": "ChIJjerzMecfDTkR2-IV8zRf2m8", "geometry": {"location": {"lat": 28.525255, "lng": 77.1876632}, "viewport": {"northeast": {"lat": 28.52657393029151, "lng": 77.1889762802915}, "southwest": {"lat": 28.5238759697085, "lng": 77.18627831970849}}}, "place_id": "ChIJjerzMecfDTkR2-IV8zRf2m8", "plus_code": {"global_code": "7JWVG5GQ+43", "compound_code": "G5GQ+43 New Delhi, Delhi, India"}, "vicinity": "Unnamed Road, Seth Sarai, Mehrauli, New Delhi", "photos": [{"photo_reference": "ATtYBwJUTy5jWgSmBchjb-B39DXE0vyDBr5EvJRE7tjbJ2Smd8pFqEgsDqDnN6SfXd_KzsFAGa0QtvS2E-S_66RZyZlmFUgMqjiJeZd1tmfCb80kii-SW5lRHhIstuFrZ6nv2mcYJcb8CnPl925GHk45qAzmSpJISOulCfmHlay12kVAS78", "width": 4608, "html_attributions": ["<a href=\"https://maps.google.com/maps/contrib/107869083594969587714\">Amit Kumar Singh</a>"], "height": 2218}], "scope": "GOOGLE", "business_status": "OPERATIONAL", "types": ["police", "point_of_interest", "establishment"], "icon": "https://maps.gstatic.com/mapfiles/place_api/icons/v1/png_71/police-71.png"}]}