{"status": "OK", "html_attributions": [], "results": [{"rating": 3.5, "user_ratings_total": 57, "name": "Senior Superintendent of Police", "reference": "ChIJRQigrWPkDDkRLd-axzcq6VE", "geometry": {"location": {"lat": 28.5824273, "lng": 77.3014725}, "viewport": {"northeast": {"lat": 28.5839274802915, "lng": 77.3030902302915}, "southwest": {"lat": 28.5812295197085, "lng": 77.3003922697085}}}, "place_id": "ChIJRQigrWPkDDkRLd-axzcq6VE", "plus_code": {"global_code": "7JWVH8J2+XH", "compound_code": "H8J2+XH Noida, Uttar Pradesh, India"}, "vicinity": "Gautam Buddha Nagar, Sector 14A, Noida", "photos": [{"photo_reference": "ATtYBwLX8h0-23905U1RVIryMR6MAzW_tTFWEpdciMFVL70ABhirPMWHHTpqIjAFfNSa1MBqgbO2quJ0nfCQJ4WbglIMtLryrUVTVv6-fpywQEaaIwuLTG2xaeioq6NH-mSBKVkd--qBzqfGYGwA_PC4cPgPmSPjuLjhmmANo3VmMwPEY8D_", "width": 3000, "html_attributions": ["<a href=\"https://maps.google.com/maps/contrib/113235518005457931418\">gaurav review</a>"], "height": 4000}], "scope": "GOOGLE", "business_status": "OPERATIONAL", "types": ["police", "point_of_interest", "establishment"], "icon": "https://maps.gstatic.com/mapfiles/place_api/icons/v1/png_71/police-71.png"}, {"name": "Police Station", "reference": "ChIJA3Onil_kDDkREnPO2BZDqVQ", "geometry": {"location": {"lat": 28.5863749, "lng": 77.3109434}, "viewport": {"northeast": {"lat": 28.5877724802915, "lng": 77.3121871802915}, "southwest": {"lat": 28.5850745197085, "lng": 77.3094892197085}}}, "place_id": "ChIJA3Onil_kDDkREnPO2BZDqVQ", "plus_code": {"global_code": "7JWVH8P6+G9", "compound_code": "H8P6+G9 Noida, Uttar Pradesh, India"}, "vicinity": "Noida, Block A, Sector 1, Noida", "scope": "GOOGLE", "business_status": "OPERATIONAL", "types": ["police", "point_of_interest", "establishment"], "icon": "https://maps.gstatic.com/mapfiles/place_api/icons/v1/png_71/police-71.png"}, {"rating": 4.5, "user_ratings_total": 4, "name": "Delhi Police Post", "reference": "ChIJGbb3ZmLkDDkR9FbyTlOeRHU", "geometry": {"location": {"lat": 28.5841196, "lng": 77.3014408}, "viewport": {"northeast": {"lat": 28.5854607802915, "lng": 77.3027374802915}, "southwest": {"lat": 28.5827628197085, "lng": 77.30003951970849}}}, "place_id": "ChIJGbb3ZmLkDDkR9FbyTlOeRHU", "plus_code": {"global_code": "7JWVH8M2+JH", "compound_code": "H8M2+JH New Delhi, Delhi, India"}, "vicinity": "Chilla, Mayur Kunj, New Delhi", "scope": "GOOGLE", "business_status": "OPERATIONAL", "types": ["police", "point_of_interest", "establishment"], "icon": "https://maps.gstatic.com/mapfiles/place_api/icons/v1/png_71/police-71.png"}, {"rating": 1.6, "user_ratings_total": 50, "name": "Noida Traffic Police", "reference": "ChIJgdXeg2HkDDkRTRAniXEzZ2g", "geometry": {"location": {"lat": 28.5826286, "lng": 77.3013892}, "viewport": {"northeast": {"lat": 28.5841160802915, "lng": 77.3029843802915}, "southwest": {"lat": 28.5814181197085, "lng": 77.3002864197085}}}, "place_id": "ChIJgdXeg2HkDDkRTRAniXEzZ2g", "plus_code": {"global_code": "7JWVH8M2+3H", "compound_code": "H8M2+3H Noida, Uttar Pradesh, India"}, "vicinity": "Disst, Sector 14A, Noida", "photos": [{"photo_reference": "ATtYBwI8mruS627waeB6HQOEznRItNUNrNOca5biuVQt7xPedYWBeWn1cQNFA5Mhxj1cMfdOab34WzzfVIHOgKvTtGdD-MvGs3kL-2pHzXdcT-iqnNI79ajpyrf46XWAo5CN_MtzbE8MdovJIU9jlCYFSL6biKvRvaJw8Q24fQIDZvFGyIje", "width": 4000, "html_attributions": ["<a href=\"https://maps.google.com/maps/contrib/105246856004242374866\">Nitesh solanky</a>"], "height": 3000}], "scope": "GOOGLE", "business_status": "OPERATIONAL", "types": ["police", "point_of_interest", "establishment"], "icon": "https://maps.gstatic.com/mapfiles/place_api/icons/v1/png_71/police-71.png"}, {"name": "Office of the ADDL . DCP , NOIDA .", "reference": "ChIJ0y2Tb6LlDDkRKj4P6buWYCs", "geometry": {"location": {"lat": 28.582572, "lng": 77.3014455}, "viewport": {"northeast": {"lat": 28.5840564802915, "lng": 77.3030353802915}, "southwest": {"lat": 28.5813585197085, "lng": 77.3003374197085}}}, "place_id": "ChIJ0y2Tb6LlDDkRKj4P6buWYCs", "plus_code": {"global_code": "7JWVH8M2+2H", "compound_code": "H8M2+2H Noida, Uttar Pradesh, India"}, "vicinity": "Mayur Kunj, Chilla, Noida", "photos": [{"photo_reference": "ATtYBwLEmxZtEACnCCYIST7khSgoM-eePeMthSu5i_kA2E7qj_GrOsg1HUZhsZMx0L5je6BXyL2LBuIlT2f7NzhYZQaPxNjhWTeP4vqYWY9Qt6oG8YA0oluck5uG-hdtjcM1vo7Se1od4KKo6dhdjfqEHe11EdhrDrwZsXhfl0lbVa5-GaOw", "width": 3120, "html_attributions": ["<a href=\"https://maps.google.com/maps/contrib/102610753239601328261\">Sudhir Kumar</a>"], "height": 4160}], "scope": "GOOGLE", "business_status": "OPERATIONAL", "types": ["police", "local_government_office", "point_of_interest", "establishment"], "icon": "https://maps.gstatic.com/mapfiles/place_api/icons/v1/png_71/police-71.png"}, {"rating": 3.5, "user_ratings_total": 2, "name": "Kariyala Police", "reference": "ChIJX5GCjWDkDDkR-MhIkMzFP2A", "geometry": {"location": {"lat": 28.582561, "lng": 77.30821499999999}, "viewport": {"northeast": {"lat": 28.5839225302915, "lng": 77.3095843802915}, "southwest": {"lat": 28.5812245697085, "lng": 77.30688641970849}}}, "place_id": "ChIJX5GCjWDkDDkR-MhIkMzFP2A", "plus_code": {"global_code": "7JWVH8M5+27", "compound_code": "H8M5+27 Noida, Uttar Pradesh, India"}, "vicinity": "Udhyog Marg D Block, A Block, Sector 15, Noida", "scope": "GOOGLE", "business_status": "OPERATIONAL", "types": ["police", "point_of_interest", "establishment"], "icon": "https://maps.gstatic.com/mapfiles/place_api/icons/v1/png_71/police-71.png"}]}