{"status": "OK", "next_page_token": "ATtYBwICXJJPlXBntW8pZ-pnw7pC16Sk0lXA0j_yNtxf1A5hBjpgB246lpYMlbC9_xnaqA-SJDeWRiBxM_I3gp7Rog7xtaKPV_pPe7DMcX_t6vjYqCybEy-BrZLyS97NMzw9YlJmXrIm1PG07J5Sxm7kp36kInCf9SxJtO0fM9lgOO4Ft9FqCdqeU83JRMIhPxHU3oKNdW4SxlXSA15gxY3Nau883RAV8Xg0tX6KhT617YbUpitQk4owaB9NPUlgXnEZya6gewqbKPNbd0r7W97As4-a7AqseVQ5YSNh5b6o__UkQOGF5DsivrC865MjGGUtsjlXTrPwPMCuWUP4kJreSShLikvCcAPy7knd-vqH6eYCZt06gGyuU76Nm1btH6WmKj0czXwR5m13rqtvEQfkaf9p6o7QTyHjvfUpilCb2yIRj5YGud7ZtNQgFdvFXmHdzrgRQco6U6UrZNjRRyabBfPBELBzyqiwajBQ10Iw5rxOmuyT6YVLpJJ-fczgsqljMSr62le5KzsVyodh1k-ltyJdzcv3_TzEb5_JuujIl-FMt_CeXEWwNtlmGxYe_Xxt05y349QJGobNGgrKqTFVrMdz8fSprqHL67eZxayUTKoJpELLBvIhMuj3eYF9EPfYkvjx-_pBCmk", "html_attributions": [], "results": [{"rating": 4.6, "user_ratings_total": 31, "name": "Sree Keshava Dental Polyclinic & Diagnostic Centre", "reference": "ChIJC4_2HnQ-rjsR8eUU3KL5cmM", "geometry": {"location": {"lat": 12.9597717, "lng": 77.53348299999999}, "viewport": {"northeast": {"lat": 12.9610919802915, "lng": 77.53484103029149}, "southwest": {"lat": 12.9583940197085, "lng": 77.53214306970848}}}, "opening_hours": {"open_now": true}, "place_id": "ChIJC4_2HnQ-rjsR8eUU3KL5cmM", "plus_code": {"global_code": "7J4VXG5M+W9", "compound_code": "XG5M+W9 Bengaluru, Karnataka, India"}, "vicinity": "Hampi Nagar, RPC Layout, Vijayanagar, Bengaluru", "photos": [{"photo_reference": "ATtYBwJkLJZ3hB-IXLoO8HQ_0QoGAeItzLm5nWoEtWWU9Ic14fZUfRpk8-RRQuAGbbzsjb4Oyr8q8FWAeCaJ1oAjHa51_zUtqWuo1AeSpuPeRdp-NTTx9g_BaFyZI6kUwx7FEGslyT5diPxr9dZAkP3_XsiR9-1fD5BNvkHgF4piA3aKzg7J", "width": 1920, "html_attributions": ["<a href=\"https://maps.google.com/maps/contrib/116115960264936730314\">Madhkris Vlogs</a>"], "height": 1080}], "scope": "GOOGLE", "business_status": "OPERATIONAL", "types": ["hospital", "health", "point_of_interest", "establishment"], "icon": "https://maps.gstatic.com/mapfiles/place_api/icons/v1/png_71/hospital-71.png"}, {"rating": 3.1, "user_ratings_total": 176, "name": "Maruthi Hospital", "reference": "ChIJff_5-OA9rjsR53mHQE3Pz6E", "geometry": {"location": {"lat": 12.9677093, "lng": 77.541313}, "viewport": {"northeast": {"lat": 12.9690106302915, "lng": 77.5426516302915}, "southwest": {"lat": 12.9663126697085, "lng": 77.53995366970848}}}, "opening_hours": {"open_now": true}, "place_id": "ChIJff_5-OA9rjsR53mHQE3Pz6E", "plus_code": {"global_code": "7J4VXG9R+3G", "compound_code": "XG9R+3G Bengaluru, Karnataka, India"}, "vicinity": "2374/26,Platinum Plaza, Club Road, Vijayanagar,Bangalore, Bengaluru", "photos": [{"photo_reference": "ATtYBwIpL4BtRTe1woUDFMrKfnVqJS8FSZn-ZYAyJPwAXuVb_5Fbvh5qovLh6TDQLE21za-KbRKTWdkvXO0yfR13MeqzRw8Lj3VOBfcrF5vdLh2HbcnZJhQR0PKTJos0D-Xv5NPPb8ZV3TF9x6-A0KNLP4FXVdAdUaIfeBWYfJydwJxwAFpm", "width": 3456, "html_attributions": ["<a href=\"https://maps.google.com/maps/contrib/102838767770311343864\">Jivesh Ranjan</a>"], "height": 4608}], "scope": "GOOGLE", "business_status": "OPERATIONAL", "types": ["hospital", "health", "point_of_interest", "establishment"], "icon": "https://maps.gstatic.com/mapfiles/place_api/icons/v1/png_71/hospital-71.png"}, {"rating": 4, "user_ratings_total": 4, "name": "Shree Dhanvantari Ayurveda Hospital", "reference": "ChIJ6bYFzng-rjsReOxT4dtBu9s", "geometry": {"location": {"lat": 12.9615834, "lng": 77.52219459999999}, "viewport": {"northeast": {"lat": 12.9629748302915, "lng": 77.52354938029151}, "southwest": {"lat": 12.9602768697085, "lng": 77.52085141970849}}}, "place_id": "ChIJ6bYFzng-rjsReOxT4dtBu9s", "plus_code": {"global_code": "7J4VXG6C+JV", "compound_code": "XG6C+JV Bengaluru, Karnataka, India"}, "vicinity": "road, 2537/11, 1st A Main Road, Maruthi Nagar, Naagarabhaavi, Bengaluru", "scope": "GOOGLE", "business_status": "OPERATIONAL", "types": ["hospital", "health", "point_of_interest", "establishment"], "icon": "https://maps.gstatic.com/mapfiles/place_api/icons/v1/png_71/hospital-71.png"}, {"rating": 4, "user_ratings_total": 1, "name": "Sri Maruthi Medicals", "reference": "ChIJiTu2q3Y-rjsR6yHfs5gz8C0", "geometry": {"location": {"lat": 12.958838, "lng": 77.53307099999999}, "viewport": {"northeast": {"lat": 12.9602219802915, "lng": 77.5344217302915}, "southwest": {"lat": 12.9575240197085, "lng": 77.53172376970849}}}, "opening_hours": {"open_now": false}, "place_id": "ChIJiTu2q3Y-rjsR6yHfs5gz8C0", "plus_code": {"global_code": "7J4VXG5M+G6", "compound_code": "XG5M+G6 Bengaluru, Karnataka, India"}, "vicinity": "27, bangalore, 8/2, 2nd Main, Vijaynagar, Binny Mills Employees Colony, Attiguppe, Bengaluru", "photos": [{"photo_reference": "ATtYBwI_r5WhLckZ0QbphPIpHnRof86zThPkZNrEom-6h5jtnhOiCHDFOqtnG3x6euRxIn0E3c84xdxGdkf2_AFkBs5JU_cHMg1aUxmompxQZJ8nTfY00hhmrBIhsyvJ1152WAbbTcoZ77Dc_pP4yHaB9WfqRbI8IovApWa3wRIjkJwn1Pjc", "width": 3000, "html_attributions": ["<a href=\"https://maps.google.com/maps/contrib/107666827695887524561\">Hareesh Poojari</a>"], "height": 4000}], "scope": "GOOGLE", "business_status": "OPERATIONAL", "types": ["hospital", "health", "point_of_interest", "establishment"], "icon": "https://maps.gstatic.com/mapfiles/place_api/icons/v1/png_71/hospital-71.png"}, {"rating": 4, "user_ratings_total": 454, "name": "Kangaroo Care - Women and Children Hospital in West Bangalore", "reference": "ChIJAV2hTuY9rjsRBadjPG3hzxU", "geometry": {"location": {"lat": 12.97419, "lng": 77.5420169}, "viewport": {"northeast": {"lat": 12.9755989302915, "lng": 77.54346673029151}, "southwest": {"lat": 12.9729009697085, "lng": 77.5407687697085}}}, "opening_hours": {"open_now": true}, "place_id": "ChIJAV2hTuY9rjsRBadjPG3hzxU", "plus_code": {"global_code": "7J4VXGFR+MR", "compound_code": "XGFR+MR Bengaluru, Karnataka, India"}, "vicinity": "NO 89, 17 CROSS, MC LAYOUT, VIJAYANAGAR NEAR SHRI BALAGANGADHARANATHA SWAMY METRO STATION, Bengaluru", "photos": [{"photo_reference": "ATtYBwJSr4svL1WMZolc0m0xSMroT-8vAXmNzNldCkitkqF3wvVDlcsNQZXP4aqFNIVkppQNpCIKVCy7jpDGTPG9WG6vI3_HGs1RP6ww1CWbIL2YNvJ7pyaXSOW_3P5EMUP4RqvJ8eq20tmgw2gF-Ul2vo6CLj_Tb8PcarmRQ4MQKaWvNnM0", "width": 1024, "html_attributions": ["<a href=\"https://maps.google.com/maps/contrib/109889000851758015131\">Kangaroo Care - Women and Children Hospital in West Bangalore</a>"], "height": 799}], "scope": "GOOGLE", "business_status": "OPERATIONAL", "types": ["hospital", "doctor", "health", "point_of_interest", "establishment"], "icon": "https://maps.gstatic.com/mapfiles/place_api/icons/v1/png_71/hospital-71.png"}, {"rating": 4.8, "user_ratings_total": 6, "name": "City Hospital", "reference": "ChIJeUTru9A9rjsRHQmcCYPmoV4", "geometry": {"location": {"lat": 12.9705371, "lng": 77.52653629999999}, "viewport": {"northeast": {"lat": 12.9718883302915, "lng": 77.52787713029151}, "southwest": {"lat": 12.9691903697085, "lng": 77.52517916970851}}}, "place_id": "ChIJeUTru9A9rjsRHQmcCYPmoV4", "vicinity": "No 14/1, Priyasarshini Layout, 3rd Cross, 1st Main, Nagarabhavi Road, 3rd Cross, Bengaluru", "scope": "GOOGLE", "business_status": "OPERATIONAL", "types": ["hospital", "health", "point_of_interest", "establishment"], "icon": "https://maps.gstatic.com/mapfiles/place_api/icons/v1/png_71/hospital-71.png"}, {"rating": 5, "user_ratings_total": 2, "name": "Janani clinic", "reference": "ChIJWZSxjHM-rjsRShNdc3sLams", "geometry": {"location": {"lat": 12.9582758, "lng": 77.5347895}, "viewport": {"northeast": {"lat": 12.9596060302915, "lng": 77.53609418029151}, "southwest": {"lat": 12.9569080697085, "lng": 77.5333962197085}}}, "opening_hours": {"open_now": false}, "place_id": "ChIJWZSxjHM-rjsRShNdc3sLams", "plus_code": {"global_code": "7J4VXG5M+8W", "compound_code": "XG5M+8W Bengaluru, Karnataka, India"}, "vicinity": "Kilkodungalur, RPC Layout, Vijayanagar, Bengaluru", "photos": [{"photo_reference": "ATtYBwL99JCezNKhVDkv1qkpBtzvlf6e1_-sBGYlGXKPMyDOGttXhRjLmbMHNu-Q1YT5mb4884GT6Hdhal5LvbhtEXplVmwq64bA7pqKEs0A_0asfyFm-aL6Tbem7OkLccYBJ8y_whJm1cYeLNdJZMgRHlR7kGzmE5YTBhlvCrSqlpOBjuuO", "width": 4519, "html_attributions": ["<a href=\"https://maps.google.com/maps/contrib/117656397454373962055\">bhAkthA</a>"], "height": 3456}], "scope": "GOOGLE", "business_status": "OPERATIONAL", "types": ["hospital", "health", "point_of_interest", "establishment"], "icon": "https://maps.gstatic.com/mapfiles/place_api/icons/v1/png_71/hospital-71.png"}, {"rating": 4, "user_ratings_total": 1, "name": "Sukrutam Ayurvedalaya", "reference": "ChIJQ6Xt1BM9rjsRvDyPB9Kiel4", "geometry": {"location": {"lat": 12.9699519, "lng": 77.5300922}, "viewport": {"northeast": {"lat": 12.9712392802915, "lng": 77.5314274302915}, "southwest": {"lat": 12.9685413197085, "lng": 77.52872946970848}}}, "place_id": "ChIJQ6Xt1BM9rjsRvDyPB9Kiel4", "plus_code": {"global_code": "7J4VXG9J+X2", "compound_code": "XG9J+X2 Bengaluru, Karnataka, India"}, "vicinity": "#15, 1st Cross Road, G K W Layout, Vijayanagar, Bengaluru", "scope": "GOOGLE", "business_status": "OPERATIONAL", "types": ["hospital", "health", "point_of_interest", "establishment"], "icon": "https://maps.gstatic.com/mapfiles/place_api/icons/v1/png_71/hospital-71.png"}, {"rating": 5, "user_ratings_total": 4, "name": "Manasa Medicals", "reference": "ChIJfej6Hto9rjsRZl9t7_je_zw", "geometry": {"location": {"lat": 12.969882, "lng": 77.528764}, "viewport": {"northeast": {"lat": 12.9712421802915, "lng": 77.5301179802915}, "southwest": {"lat": 12.9685442197085, "lng": 77.52742001970849}}}, "opening_hours": {"open_now": true}, "place_id": "ChIJfej6Hto9rjsRZl9t7_je_zw", "plus_code": {"global_code": "7J4VXG9H+XG", "compound_code": "XG9H+XG Bengaluru, Karnataka, India"}, "vicinity": "203, Saraswathi Nagar, Huchappa Layout, Govindaraja Nagar Ward, Shivananda Nagar, Vijayanagar, Bengaluru", "photos": [{"photo_reference": "ATtYBwK9mqoioq4qdcUkPecxAmTFGfZPI5V8Sq0aqb15NDkbf2OIFeARVWnp76ouWgDPAPcDuN-Wo57vTN7Mb77zbjHp3AHYKeCJ3WJTYf_DD8t-2JLuTy1NfRBEIgXM43RE4uVZynzufJLnNLWhTOwVkh1qQu4n5nM8d8J6HkWOvZurj4Og", "width": 2048, "html_attributions": ["<a href=\"https://maps.google.com/maps/contrib/112061903157798477891\">Manasa Medicals</a>"], "height": 1518}], "scope": "GOOGLE", "business_status": "OPERATIONAL", "types": ["hospital", "health", "point_of_interest", "establishment"], "icon": "https://maps.gstatic.com/mapfiles/place_api/icons/v1/png_71/hospital-71.png"}, {"rating": 5, "user_ratings_total": 1, "name": "bbmp arogya kendra", "reference": "ChIJGd-qwwA9rjsRy-IHXGHIn64", "geometry": {"location": {"lat": 12.9699576, "lng": 77.52837149999999}, "viewport": {"northeast": {"lat": 12.9713405802915, "lng": 77.5297416802915}, "southwest": {"lat": 12.9686426197085, "lng": 77.52704371970849}}}, "place_id": "ChIJGd-qwwA9rjsRy-IHXGHIn64", "plus_code": {"global_code": "7J4VXG9H+X8", "compound_code": "XG9H+X8 Bengaluru, Karnataka, India"}, "vicinity": "13th cross road, Saraswathi Nagar, Vijayanagar, Bengaluru", "photos": [{"photo_reference": "ATtYBwISQFZbkRqkDzVQ44-lBk3MmC37sHai0G-7WxEPFNXWxUUi5BcEkiWjJYvceHK5GPPdGQaW_9fczbxIX3hLnVr-RnJ0epDhOEMjvJVjcXBxnFBW2iswllIkNb6unR8FNkvRey3dYno_sI4f-vjEvzOh_lW57CWiJnk6arvcMiBB6AJI", "width": 1080, "html_attributions": ["<a href=\"https://maps.google.com/maps/contrib/101476677886509696643\">arjun dg</a>"], "height": 1920}], "scope": "GOOGLE", "business_status": "OPERATIONAL", "types": ["hospital", "health", "point_of_interest", "establishment"], "icon": "https://maps.gstatic.com/mapfiles/place_api/icons/v1/png_71/hospital-71.png"}, {"rating": 4, "user_ratings_total": 2, "name": "Polio Health Centre", "reference": "ChIJQYNaHdo9rjsRz6QBG3AQeF8", "geometry": {"location": {"lat": 12.969681, "lng": 77.5283089}, "viewport": {"northeast": {"lat": 12.9710146802915, "lng": 77.52970173029149}, "southwest": {"lat": 12.9683167197085, "lng": 77.52700376970849}}}, "place_id": "ChIJQYNaHdo9rjsRz6QBG3AQeF8", "plus_code": {"global_code": "7J4VXG9H+V8", "compound_code": "XG9H+V8 Bengaluru, Karnataka, India"}, "vicinity": "241, 3rd Cross Road, Huchappa Layout, Govindaraja Nagar Ward, Madhura Nagar, Vijayanagar, Bengaluru", "scope": "GOOGLE", "business_status": "OPERATIONAL", "types": ["hospital", "health", "point_of_interest", "establishment"], "icon": "https://maps.gstatic.com/mapfiles/place_api/icons/v1/png_71/hospital-71.png"}, {"name": "Vijaya Nagar, Manjunatha Hospital", "reference": "ChIJtwbLUdo9rjsRRg0fQaRKP14", "geometry": {"location": {"lat": 12.9719161, "lng": 77.5298856}, "viewport": {"northeast": {"lat": 12.9731924302915, "lng": 77.53121928029151}, "southwest": {"lat": 12.9704944697085, "lng": 77.52852131970849}}}, "place_id": "ChIJtwbLUdo9rjsRRg0fQaRKP14", "plus_code": {"global_code": "7J4VXGCH+QX", "compound_code": "XGCH+QX Bengaluru, Karnataka, India"}, "vicinity": "Saraswathi Nagar, Vijayanagar, Bengaluru", "photos": [{"photo_reference": "ATtYBwKVVusiwdkuNouK4B9uQacNbrDI3CuneZ7oNbF32QRYmuhV2G0Jr5fZ4JZvBDVq_futD_3Aqp9GiUtBNYH5OulizDp9hfWJCgoHeItXXGZ9J23Sn4YnYua7EjqW1qba7mNLyNBPbEvxvHlM_61HTt87ISbAzEeawMacHCNO0XFjxFW7", "width": 359, "html_attributions": ["<a href=\"https://maps.google.com/maps/contrib/106762806979976689585\">Abhishekhs Bacchu</a>"], "height": 640}], "scope": "GOOGLE", "business_status": "OPERATIONAL", "types": ["hospital", "health", "point_of_interest", "establishment"], "icon": "https://maps.gstatic.com/mapfiles/place_api/icons/v1/png_71/hospital-71.png"}, {"name": "Dr Padmavathi", "reference": "ChIJT25sGF49rjsRaUjG6k_nECE", "geometry": {"location": {"lat": 12.9680322, "lng": 77.5304726}, "viewport": {"northeast": {"lat": 12.9693811802915, "lng": 77.5318215802915}, "southwest": {"lat": 12.9666832197085, "lng": 77.52912361970849}}}, "place_id": "ChIJT25sGF49rjsRaUjG6k_nECE", "plus_code": {"global_code": "7J4VXG9J+65", "compound_code": "XG9J+65 Bengaluru, Karnataka, India"}, "vicinity": "Vijayanagar, Bengaluru", "scope": "GOOGLE", "business_status": "OPERATIONAL", "types": ["hospital", "health", "point_of_interest", "establishment"], "icon": "https://maps.gstatic.com/mapfiles/place_api/icons/v1/png_71/hospital-71.png"}, {"name": "s l v medicals", "reference": "ChIJxZAQCtk9rjsR-VxQ-2gBkV4", "geometry": {"location": {"lat": 12.968032, "lng": 77.530473}, "viewport": {"northeast": {"lat": 12.9693649302915, "lng": 77.53181763029151}, "southwest": {"lat": 12.9666669697085, "lng": 77.52911966970849}}}, "opening_hours": {"open_now": true}, "place_id": "ChIJxZAQCtk9rjsR-VxQ-2gBkV4", "vicinity": "#64 21st main road maruthi mandir, Bengaluru", "photos": [{"photo_reference": "ATtYBwKQ-nWsBHZnhurfFQj1m1ypTW9TI3qmNXD7VEW0haltWn5QutUfkehnMSs5OZMTMwVixhqotUW2AmXliSTgAMnSIvlz8BDmEYVW1NKOReWdtP4w7BaZf6yMQMYkNvqjjVkUrNybSxwEcdocI-2s2OHpBE7iWEBxC1GzfgyflADUMmU7", "width": 2048, "html_attributions": ["<a href=\"https://maps.google.com/maps/contrib/102831770781679411279\">s l v medicals</a>"], "height": 1536}], "scope": "GOOGLE", "business_status": "OPERATIONAL", "types": ["hospital", "health", "point_of_interest", "establishment"], "icon": "https://maps.gstatic.com/mapfiles/place_api/icons/v1/png_71/hospital-71.png"}, {"name": "Aruna medical & general store", "reference": "ChIJxZAQCtk9rjsRoEEKq2e0YtE", "geometry": {"location": {"lat": 12.968032, "lng": 77.530473}, "viewport": {"northeast": {"lat": 12.9693649302915, "lng": 77.53181763029151}, "southwest": {"lat": 12.9666669697085, "lng": 77.52911966970849}}}, "opening_hours": {"open_now": true}, "place_id": "ChIJxZAQCtk9rjsRoEEKq2e0YtE", "vicinity": "#23,22 nd cross govindarajnagar bangalore, Bengaluru", "scope": "GOOGLE", "business_status": "OPERATIONAL", "types": ["hospital", "health", "point_of_interest", "establishment"], "icon": "https://maps.gstatic.com/mapfiles/place_api/icons/v1/png_71/hospital-71.png"}, {"name": "Murli Clinic", "reference": "ChIJHWvHXoA9rjsR_u1wQr8Jm60", "geometry": {"location": {"lat": 12.971621, "lng": 77.53179709999999}, "viewport": {"northeast": {"lat": 12.9729620802915, "lng": 77.5331852802915}, "southwest": {"lat": 12.9702641197085, "lng": 77.5304873197085}}}, "place_id": "ChIJHWvHXoA9rjsR_u1wQr8Jm60", "plus_code": {"global_code": "7J4VXGCJ+JP", "compound_code": "XGCJ+JP Bengaluru, Karnataka, India"}, "vicinity": "KGS Layout, Govindaraja Nagar Ward, Saraswathi Nagar, Vijayanagar, Bengaluru", "scope": "GOOGLE", "business_status": "OPERATIONAL", "types": ["hospital", "health", "point_of_interest", "establishment"], "icon": "https://maps.gstatic.com/mapfiles/place_api/icons/v1/png_71/hospital-71.png"}, {"name": "purnima clinic", "reference": "ChIJufAKcNo9rjsRxL06SRdeX3s", "geometry": {"location": {"lat": 12.97175, "lng": 77.528183}, "viewport": {"northeast": {"lat": 12.9731096802915, "lng": 77.5294973302915}, "southwest": {"lat": 12.9704117197085, "lng": 77.52679936970848}}}, "opening_hours": {"open_now": true}, "place_id": "ChIJufAKcNo9rjsRxL06SRdeX3s", "plus_code": {"global_code": "7J4VXGCH+P7", "compound_code": "XGCH+P7 Bengaluru, Karnataka, India"}, "vicinity": "No 41, Saraswathi Nagar, Nagarabhavi Road, 1st Main Road, Near-Venkateshwara Temple, Vijayanagar, Bengaluru", "scope": "GOOGLE", "business_status": "OPERATIONAL", "types": ["hospital", "health", "point_of_interest", "establishment"], "icon": "https://maps.gstatic.com/mapfiles/place_api/icons/v1/png_71/generic_business-71.png"}, {"rating": 4.6, "user_ratings_total": 5, "name": "Archana Clinic", "reference": "ChIJt1hLlts9rjsR9SsTZdu0drY", "geometry": {"location": {"lat": 12.9718206, "lng": 77.53183349999999}, "viewport": {"northeast": {"lat": 12.9731597302915, "lng": 77.5332257302915}, "southwest": {"lat": 12.9704617697085, "lng": 77.53052776970848}}}, "opening_hours": {"open_now": true}, "place_id": "ChIJt1hLlts9rjsR9SsTZdu0drY", "plus_code": {"global_code": "7J4VXGCJ+PP", "compound_code": "XGCJ+PP Bengaluru, Karnataka, India"}, "vicinity": "No. 238, 560072 1st Main KGS Layout, Nagarbhavi, KGS Layout, Govindaraja Nagar Ward, Saraswathi Nagar, Vijayanagar, Bengaluru", "photos": [{"photo_reference": "ATtYBwL0eN1Tq50VZQ-OUXObDY4Xzw2-aBD4gX8JIlcdoHaLEo4UvtFclEPo7MxaklpB3VF5vbE2tinQtc7hQE81dDOjx1Qnvv7dc2saLRN74HSgw3DZqCk8mZHSRS_52yR_JJAoW7ulcl_rileg-mqHZy1dV-ftoAIVbyGGoyaNvp1aWkvi", "width": 2048, "html_attributions": ["<a href=\"https://maps.google.com/maps/contrib/102334916051182894477\">Praveen Murali</a>"], "height": 1152}], "scope": "GOOGLE", "business_status": "OPERATIONAL", "types": ["hospital", "health", "point_of_interest", "establishment"], "icon": "https://maps.gstatic.com/mapfiles/place_api/icons/v1/png_71/hospital-71.png"}, {"rating": 5, "user_ratings_total": 10, "name": "Vaishnavi Medicals", "reference": "ChIJDSdSgtE9rjsRiHUsYDaS0-I", "geometry": {"location": {"lat": 12.972706, "lng": 77.528486}, "viewport": {"northeast": {"lat": 12.9740486302915, "lng": 77.5298670302915}, "southwest": {"lat": 12.9713506697085, "lng": 77.52716906970849}}}, "opening_hours": {"open_now": true}, "place_id": "ChIJDSdSgtE9rjsRiHUsYDaS0-I", "plus_code": {"global_code": "7J4VXGFH+39", "compound_code": "XGFH+39 Bengaluru, Karnataka, India"}, "vicinity": "#34 shop no 3, ground floor, Nagarabhavi Main Road, Kaveri Layout, Vijayanagar, Bengaluru", "scope": "GOOGLE", "business_status": "OPERATIONAL", "types": ["hospital", "health", "point_of_interest", "establishment"], "icon": "https://maps.gstatic.com/mapfiles/place_api/icons/v1/png_71/hospital-71.png"}, {"name": "City Corporation Hospital", "reference": "ChIJVVVVVdk9rjsR-mwQjJclPoI", "geometry": {"location": {"lat": 12.9698533, "lng": 77.5332908}, "viewport": {"northeast": {"lat": 12.9712322302915, "lng": 77.53464503029151}, "southwest": {"lat": 12.9685342697085, "lng": 77.5319470697085}}}, "place_id": "ChIJVVVVVdk9rjsR-mwQjJclPoI", "vicinity": "5, Kempegowda Cle 9, Vijaya Nagar, Vijaya Nagar, Bengaluru", "scope": "GOOGLE", "business_status": "OPERATIONAL", "types": ["hospital", "health", "point_of_interest", "establishment"], "icon": "https://maps.gstatic.com/mapfiles/place_api/icons/v1/png_71/hospital-71.png"}]}