{"status": "OK", "html_attributions": [], "results": [{"rating": 5, "user_ratings_total": 2, "name": "Sri Ayyappa Medical Centre", "reference": "ChIJs1debyk9rjsRtxPfwxE8acY", "geometry": {"location": {"lat": 13.0471079, "lng": 77.5201689}, "viewport": {"northeast": {"lat": 13.0484786302915, "lng": 77.52153343029151}, "southwest": {"lat": 13.0457806697085, "lng": 77.5188354697085}}}, "opening_hours": {"open_now": true}, "place_id": "ChIJs1debyk9rjsRtxPfwxE8acY", "plus_code": {"global_code": "7J5V2GWC+R3", "compound_code": "2GWC+R3 Bengaluru, Karnataka, India"}, "vicinity": "near Sri Ayyappa Temple Community Hall, Pipeline Road, Prashanth Nagar, T.Dasarahalli, near Sri Ayyappa Temple Community Hall, Bengaluru", "scope": "GOOGLE", "business_status": "OPERATIONAL", "types": ["hospital", "health", "point_of_interest", "establishment"], "icon": "https://maps.gstatic.com/mapfiles/place_api/icons/v1/png_71/hospital-71.png"}, {"rating": 5, "user_ratings_total": 1, "name": "ECHS regional headquarters/EX", "reference": "ChIJuySOJs0irjsRJ8qMVMhe1Fw", "geometry": {"location": {"lat": 13.0554334, "lng": 77.53011459999999}, "viewport": {"northeast": {"lat": 13.0567428802915, "lng": 77.53148968029151}, "southwest": {"lat": 13.0540449197085, "lng": 77.5287917197085}}}, "place_id": "ChIJuySOJs0irjsRJ8qMVMhe1Fw", "plus_code": {"global_code": "7J5V3G4J+52", "compound_code": "3G4J+52 Bengaluru, Karnataka, India"}, "vicinity": "Unnamed Road, 560015, Jalahalli West, Bengaluru", "scope": "GOOGLE", "business_status": "OPERATIONAL", "types": ["hospital", "health", "point_of_interest", "establishment"], "icon": "https://maps.gstatic.com/mapfiles/place_api/icons/v1/png_71/hospital-71.png"}, {"rating": 5, "user_ratings_total": 1, "name": "Unique Diagnostic Center", "reference": "ChIJkdYlWMsirjsR25pSaBUgAZM", "geometry": {"location": {"lat": 13.0553982, "lng": 77.5334044}, "viewport": {"northeast": {"lat": 13.0567672302915, "lng": 77.53475133029151}, "southwest": {"lat": 13.0540692697085, "lng": 77.5320533697085}}}, "opening_hours": {"open_now": true}, "place_id": "ChIJkdYlWMsirjsR25pSaBUgAZM", "plus_code": {"global_code": "7J5V3G4M+59", "compound_code": "3G4M+59 Bengaluru, Karnataka, India"}, "vicinity": "32-94, Kammagondana Halli Main Road, Kammagondahalli, Jalahalli, Bengaluru", "scope": "GOOGLE", "business_status": "OPERATIONAL", "types": ["hospital", "health", "point_of_interest", "establishment"], "icon": "https://maps.gstatic.com/mapfiles/place_api/icons/v1/png_71/hospital-71.png"}, {"name": "Shri Maheswari Pharmacy", "reference": "ChIJR-aMj0QjrjsRyB7xGrTGEtY", "geometry": {"location": {"lat": 13.054884, "lng": 77.5343206}, "viewport": {"northeast": {"lat": 13.0562014802915, "lng": 77.53567058029151}, "southwest": {"lat": 13.0535035197085, "lng": 77.53297261970849}}}, "place_id": "ChIJR-aMj0QjrjsRyB7xGrTGEtY", "plus_code": {"global_code": "7J5V3G3M+XP", "compound_code": "3G3M+XP Bengaluru, Karnataka, India"}, "vicinity": "Cross Rd, Jalahalli, Bengaluru", "scope": "GOOGLE", "business_status": "OPERATIONAL", "types": ["pharmacy", "hospital", "health", "point_of_interest", "store", "establishment"], "icon": "https://maps.gstatic.com/mapfiles/place_api/icons/v1/png_71/hospital-71.png"}, {"rating": 3, "user_ratings_total": 2, "name": "fathima hospital", "reference": "ChIJb8BL68IjrjsR-c80qxT6tMQ", "geometry": {"location": {"lat": 13.0563165, "lng": 77.5328979}, "viewport": {"northeast": {"lat": 13.0574825302915, "lng": 77.53430068029151}, "southwest": {"lat": 13.0547845697085, "lng": 77.53160271970849}}}, "place_id": "ChIJb8BL68IjrjsR-c80qxT6tMQ", "plus_code": {"global_code": "7J5V3G4M+G5", "compound_code": "3G4M+G5 Bengaluru, Karnataka, India"}, "vicinity": "144, Kammagondana Halli Main Road, Kammagondahalli, Jalahalli, Bengaluru", "scope": "GOOGLE", "business_status": "OPERATIONAL", "types": ["hospital", "health", "point_of_interest", "establishment"], "icon": "https://maps.gstatic.com/mapfiles/place_api/icons/v1/png_71/hospital-71.png"}, {"name": "Office And Hospital", "reference": "ChIJt90Xajc9rjsR99FyAFBQink", "geometry": {"location": {"lat": 13.0445395, "lng": 77.53480069999999}, "viewport": {"northeast": {"lat": 13.0460001302915, "lng": 77.5363607302915}, "southwest": {"lat": 13.0433021697085, "lng": 77.5336627697085}}}, "opening_hours": {"open_now": true}, "place_id": "ChIJt90Xajc9rjsR99FyAFBQink", "plus_code": {"global_code": "7J5V2GVM+RW", "compound_code": "2GVM+RW Bengaluru, Karnataka, India"}, "vicinity": "560013, Isro Colony, HMT Estate, 2nd Stage, Bengaluru", "scope": "GOOGLE", "business_status": "OPERATIONAL", "types": ["hospital", "health", "point_of_interest", "establishment"], "icon": "https://maps.gstatic.com/mapfiles/place_api/icons/v1/png_71/hospital-71.png"}, {"rating": 4.8, "user_ratings_total": 5, "name": "Fatima Health and Diagnostic Center", "reference": "ChIJZ-ezmswirjsRw6E19cZn0Jc", "geometry": {"location": {"lat": 13.0570283, "lng": 77.5326176}, "viewport": {"northeast": {"lat": 13.0583754802915, "lng": 77.5339603302915}, "southwest": {"lat": 13.0556775197085, "lng": 77.53126236970849}}}, "opening_hours": {"open_now": true}, "place_id": "ChIJZ-ezmswirjsRw6E19cZn0Jc", "plus_code": {"global_code": "7J5V3G4M+R2", "compound_code": "3G4M+R2 Bengaluru, Karnataka, India"}, "vicinity": "Abbigere Main Road, Kammagondahalli, Jalahalli, Bengaluru", "photos": [{"photo_reference": "ATtYBwJO25WE-9vZbW62NV6v4VXywC_-zlFhSG5eMZ6Gp_afqXKpZHOJSVWaSvE_mOWy4W1MY6GGg6GpEaIfA3YxHboVhQIx_9jRNGrc4NwwXCjM7yvRc4ziPEsaqBKXV4vSf8Bin8UqwZrpILiXSQGADI3JCBQh6HX-lGkD7FLpH7kL6Nn4", "width": 4000, "html_attributions": ["<a href=\"https://maps.google.com/maps/contrib/117153271935195069083\">Mr Mamu</a>"], "height": 3000}], "scope": "GOOGLE", "business_status": "OPERATIONAL", "types": ["hospital", "health", "point_of_interest", "establishment"], "icon": "https://maps.gstatic.com/mapfiles/place_api/icons/v1/png_71/hospital-71.png"}, {"rating": 4.8, "user_ratings_total": 4, "name": "Fatima Health Centre", "reference": "ChIJxdHqhcwirjsRi9YDie66d-Q", "geometry": {"location": {"lat": 13.0570265, "lng": 77.5326845}, "viewport": {"northeast": {"lat": 13.0583739802915, "lng": 77.53402823029151}, "southwest": {"lat": 13.0556760197085, "lng": 77.53133026970849}}}, "place_id": "ChIJxdHqhcwirjsRi9YDie66d-Q", "plus_code": {"global_code": "7J5V3G4M+R3", "compound_code": "3G4M+R3 Bengaluru, Karnataka, India"}, "vicinity": "115, Kammagondana Halli Main Road, Kammagondahalli, Jalahalli, Bengaluru", "scope": "GOOGLE", "business_status": "OPERATIONAL", "types": ["hospital", "health", "point_of_interest", "establishment"], "icon": "https://maps.gstatic.com/mapfiles/place_api/icons/v1/png_71/hospital-71.png"}, {"rating": 4.7, "user_ratings_total": 75, "name": "Jeeva Sanjeevani Ayurveda Foundation", "reference": "ChIJF7XQ0C49rjsRyUo9iWq1fgQ", "geometry": {"location": {"lat": 13.0461379, "lng": 77.5225382}, "viewport": {"northeast": {"lat": 13.0475270302915, "lng": 77.52381723029151}, "southwest": {"lat": 13.0448290697085, "lng": 77.5211192697085}}}, "opening_hours": {"open_now": false}, "place_id": "ChIJF7XQ0C49rjsRyUo9iWq1fgQ", "plus_code": {"global_code": "7J5V2GWF+F2", "compound_code": "2GWF+F2 Bengaluru, Karnataka, India"}, "vicinity": "above icici bank, 2nd floor,S.v.Complex,S M Road ,near Ayyappa Temple, above icici bank, Bengaluru", "photos": [{"photo_reference": "ATtYBwI6SGnYPzGKvUaEmIv81FUlghyEHUPk7MnGaFw-2Hd1HKyMsGyiQOj10CbAIgLDYD3XUNnlrrhudSxY78u7_WgtWv18r7dUqhVM6fvwQztCcyJ4MBk49fNYfspfyZXFfxOy2QqLvhVyTRsaM1ogsq8IzOcO4tahICHGfr6DyUf_8fyc", "width": 1080, "html_attributions": ["<a href=\"https://maps.google.com/maps/contrib/107853469157017493975\">Jeeva Sanjeevani Ayurveda Foundation</a>"], "height": 606}], "scope": "GOOGLE", "business_status": "OPERATIONAL", "types": ["hospital", "health", "point_of_interest", "establishment"], "icon": "https://maps.gstatic.com/mapfiles/place_api/icons/v1/png_71/hospital-71.png"}, {"name": "Sai Clinic Hospital", "reference": "ChIJ7U9WnMsirjsRGU2csDDxMe4", "geometry": {"location": {"lat": 13.0577406, "lng": 77.5341835}, "viewport": {"northeast": {"lat": 13.0590624802915, "lng": 77.53552958029151}, "southwest": {"lat": 13.0563645197085, "lng": 77.53283161970849}}}, "place_id": "ChIJ7U9WnMsirjsRGU2csDDxMe4", "plus_code": {"global_code": "7J5V3G5M+3M", "compound_code": "3G5M+3M Bengaluru, Karnataka, India"}, "vicinity": "Unnamed Road, Kammagondahalli, Jalahalli, Bengaluru", "scope": "GOOGLE", "business_status": "OPERATIONAL", "types": ["hospital", "health", "point_of_interest", "establishment"], "icon": "https://maps.gstatic.com/mapfiles/place_api/icons/v1/png_71/hospital-71.png"}, {"rating": 4.6, "user_ratings_total": 5, "name": "Ayyappa Dental Clinic", "reference": "ChIJ2zO2Ki89rjsRrpMwaRL7J1g", "geometry": {"location": {"lat": 13.0455814, "lng": 77.5218617}, "viewport": {"northeast": {"lat": 13.0469021802915, "lng": 77.52326533029151}, "southwest": {"lat": 13.0442042197085, "lng": 77.52056736970849}}}, "opening_hours": {"open_now": false}, "place_id": "ChIJ2zO2Ki89rjsRrpMwaRL7J1g", "plus_code": {"global_code": "7J5V2GWC+6P", "compound_code": "2GWC+6P Bengaluru, Karnataka, India"}, "vicinity": "Prashanth Nagar, T. Dasarahalli, Bengaluru", "photos": [{"photo_reference": "ATtYBwLpwP77c16YeXZt7IpSYzKIXXDgF8dDikaChLlAa2O1_8BWY1GPb3-3EeSjC-5FZBWCOjA2oEKM4d59tMUKLnrpCwY8MKstnFSLqeWfeC2Tf-Mk8fZ3Kr_Ue3ODIC2XMeoD1pBs2gl9IAfCVfFUj5dDSk7AV4q2TduizrXYK4D4F5eP", "width": 4032, "html_attributions": ["<a href=\"https://maps.google.com/maps/contrib/107483762049581093155\">RAHUL AGARWAL</a>"], "height": 3024}], "scope": "GOOGLE", "business_status": "OPERATIONAL", "types": ["hospital", "health", "point_of_interest", "establishment"], "icon": "https://maps.gstatic.com/mapfiles/place_api/icons/v1/png_71/hospital-71.png"}, {"name": "Sree AYAPPAN TEMPLE MEDICAL CENTRE", "reference": "ChIJU8FX0Qg9rjsRw-3YpZTh1aU", "geometry": {"location": {"lat": 13.0471463, "lng": 77.520186}, "viewport": {"northeast": {"lat": 13.0484833302915, "lng": 77.5215264302915}, "southwest": {"lat": 13.0457853697085, "lng": 77.51882846970848}}}, "place_id": "ChIJU8FX0Qg9rjsRw-3YpZTh1aU", "plus_code": {"global_code": "7J5V2GWC+V3", "compound_code": "2GWC+V3 Bengaluru, Karnataka, India"}, "vicinity": "Pipeline Road, Officers Model Colony, T. Dasarahalli, Bengaluru", "scope": "GOOGLE", "business_status": "OPERATIONAL", "types": ["hospital", "health", "point_of_interest", "establishment"], "icon": "https://maps.gstatic.com/mapfiles/place_api/icons/v1/png_71/hospital-71.png"}, {"name": "Lakshmi orthopaedic . DR. NIKHIL DAS", "reference": "ChIJpUDeG9I9rjsRsI7v9mkQYps", "geometry": {"location": {"lat": 13.0466024, "lng": 77.5201136}, "viewport": {"northeast": {"lat": 13.0479513802915, "lng": 77.52146258029151}, "southwest": {"lat": 13.0452534197085, "lng": 77.51876461970849}}}, "place_id": "ChIJpUDeG9I9rjsRsI7v9mkQYps", "plus_code": {"global_code": "7J5V2GWC+J2", "compound_code": "2GWC+J2 Bengaluru, Karnataka, India"}, "vicinity": "Officers Model Colony Road, Officers Model Colony, T. Dasarahalli, Bengaluru", "scope": "GOOGLE", "business_status": "OPERATIONAL", "types": ["hospital", "health", "point_of_interest", "establishment"], "icon": "https://maps.gstatic.com/mapfiles/place_api/icons/v1/png_71/hospital-71.png"}, {"name": "Nela Maheshwari Park", "reference": "ChIJuRMrZYQjrjsR9Nbc9xCrTj4", "geometry": {"location": {"lat": 13.0576032, "lng": 77.5228042}, "viewport": {"northeast": {"lat": 13.0587778302915, "lng": 77.52392883029151}, "southwest": {"lat": 13.0560798697085, "lng": 77.52123086970849}}}, "place_id": "ChIJuRMrZYQjrjsR9Nbc9xCrTj4", "plus_code": {"global_code": "7J5V3G5F+24", "compound_code": "3G5F+24 Bengaluru, Karnataka, India"}, "vicinity": "Nela Maheshwari Park Road, Jalahalli West, Bengaluru", "scope": "GOOGLE", "business_status": "OPERATIONAL", "types": ["hospital", "health", "point_of_interest", "establishment"], "icon": "https://maps.gstatic.com/mapfiles/place_api/icons/v1/png_71/hospital-71.png"}, {"name": "Sree Vinayaka Clinic", "reference": "ChIJddaO3Cg9rjsRgeJowLelCV8", "geometry": {"location": {"lat": 13.0450157, "lng": 77.5206812}, "viewport": {"northeast": {"lat": 13.0463656302915, "lng": 77.5220307302915}, "southwest": {"lat": 13.0436676697085, "lng": 77.5193327697085}}}, "opening_hours": {"open_now": true}, "place_id": "ChIJddaO3Cg9rjsRgeJowLelCV8", "plus_code": {"global_code": "7J5V2GWC+27", "compound_code": "2GWC+27 Bengaluru, Karnataka, India"}, "vicinity": "Kalahasti Nagar, Prashanth Nagar, T. Dasarahalli, Bengaluru", "photos": [{"photo_reference": "ATtYBwLB9MoDPsSGMeQGUoX4HRB-fmeB-_MST-DZTM2GtREh3LMidRXUp7wMF3KgKygy2Lxz0O6ZWsVHlitrJ7iQWxDkzbS6_NUE-6fhaN8lbgGjynwy6S49dBdMh273zhz0k5dUB8B7wL5gzmlsUPwYjXxKp0xXCfoZyhnyZ0RGJtOMnbKP", "width": 3456, "html_attributions": ["<a href=\"https://maps.google.com/maps/contrib/107122847011041061334\">Aditya Jahagirdar</a>"], "height": 4608}], "scope": "GOOGLE", "business_status": "OPERATIONAL", "types": ["hospital", "health", "point_of_interest", "establishment"], "icon": "https://maps.gstatic.com/mapfiles/place_api/icons/v1/png_71/hospital-71.png"}, {"rating": 4, "user_ratings_total": 2, "name": "Vagbhata Ayurveda", "reference": "ChIJq3WDdSk9rjsRa2hkDF8nE_s", "geometry": {"location": {"lat": 13.0470074, "lng": 77.51888819999999}, "viewport": {"northeast": {"lat": 13.0483405802915, "lng": 77.5202255302915}, "southwest": {"lat": 13.0456426197085, "lng": 77.51752756970849}}}, "place_id": "ChIJq3WDdSk9rjsRa2hkDF8nE_s", "plus_code": {"global_code": "7J5V2GW9+RH", "compound_code": "2GW9+RH Bengaluru, Karnataka, India"}, "vicinity": "1667, Pipeline Road, Prashanth Nagar, T. Dasarahalli, Bengaluru", "photos": [{"photo_reference": "ATtYBwJTUglU5xVODEkU3JcO298maFJ59FZFnXhdPzt9FqaIJIwF6Om4J00uydeYPZibWqGXnmcPZe1EScp7Z93r9c7PQb4kzpvrmN29xIqGUm5Wb0vB-ah9N-ZvVlMLhCEBrBS55bjhbzlJf5DTEFZs65swin0SrJPta-EYfGQoUMDL29oR", "width": 980, "html_attributions": ["<a href=\"https://maps.google.com/maps/contrib/114974550482070480459\">vishnuaroor2014@gmail.com aroor</a>"], "height": 551}], "scope": "GOOGLE", "business_status": "OPERATIONAL", "types": ["hospital", "health", "point_of_interest", "establishment"], "icon": "https://maps.gstatic.com/mapfiles/place_api/icons/v1/png_71/hospital-71.png"}, {"rating": 3.6, "user_ratings_total": 53, "name": "Ravi Kirloskar Memorial Hospital", "reference": "ChIJoTDOEN88rjsRVCDogJSayJ4", "geometry": {"location": {"lat": 13.0387396, "lng": 77.5274373}, "viewport": {"northeast": {"lat": 13.0401207802915, "lng": 77.5287263302915}, "southwest": {"lat": 13.0374228197085, "lng": 77.5260283697085}}}, "opening_hours": {"open_now": true}, "place_id": "ChIJoTDOEN88rjsRVCDogJSayJ4", "plus_code": {"global_code": "7J5V2GQG+FX", "compound_code": "2GQG+FX Bengaluru, Karnataka, India"}, "vicinity": "No. 19, 2nd Main Road, Peenya 1st Stage, Peenya, Bengaluru", "photos": [{"photo_reference": "ATtYBwJmUUyDRAkgnhYow00-_ay7fludx-operz5L8rR3_53rS-d94xuLkgRKDZcdLAvZDucbL4_KyseUz7QHiqx3nD3l9t8jNCsdYIkbs1ZRHYwGoYkpF9edPHHDxxl57vroioJjMTD-n81vR1fBOqbfeWjcwJPaS2yeb-PwcvQIMH0StQY", "width": 1920, "html_attributions": ["<a href=\"https://maps.google.com/maps/contrib/104119769432669780240\">syed javeed</a>"], "height": 1080}], "scope": "GOOGLE", "business_status": "OPERATIONAL", "types": ["hospital", "health", "point_of_interest", "establishment"], "icon": "https://maps.gstatic.com/mapfiles/place_api/icons/v1/png_71/hospital-71.png"}, {"name": "Vignesh Medicals", "reference": "ChIJUx9kJyo9rjsRuKjc7SzvMYA", "geometry": {"location": {"lat": 13.048292, "lng": 77.517984}, "viewport": {"northeast": {"lat": 13.0496409302915, "lng": 77.5193329802915}, "southwest": {"lat": 13.0469429697085, "lng": 77.51663501970849}}}, "opening_hours": {"open_now": true}, "place_id": "ChIJUx9kJyo9rjsRuKjc7SzvMYA", "plus_code": {"global_code": "7J5V2GX9+85", "compound_code": "2GX9+85 Bengaluru, Karnataka, India"}, "vicinity": "near VN Bar, #1746 3rd C, near VN Bar, S.Ramesh Road, Prashanth Nagar, T. Dasarahalli, Bengaluru", "photos": [{"photo_reference": "ATtYBwKCorUoLXLDWYoVF1UY6U4H88RUHSUxkobpzcMZCvfXkM2n2Cl8OBUsINg7y_4GES6AvFrz4AES85Em8FibEjjWRhOfFaJ8KcebYtTRWwkRBAOk3r7DgsLNzA5FUrGnkt4SZKqs9P2qXC3leA2Tk0Xeahwf_tXqUefMmA8ezLLZncV8", "width": 2048, "html_attributions": ["<a href=\"https://maps.google.com/maps/contrib/115075775027489022261\">Vignesh Medicals</a>"], "height": 1150}], "scope": "GOOGLE", "business_status": "OPERATIONAL", "types": ["hospital", "health", "point_of_interest", "establishment"], "icon": "https://maps.gstatic.com/mapfiles/place_api/icons/v1/png_71/hospital-71.png"}, {"rating": 5, "user_ratings_total": 2, "name": "Ayur Wellness Center", "reference": "ChIJl6MFeMw9rjsRp8LOe5FWoX0", "geometry": {"location": {"lat": 13.0483593, "lng": 77.5176977}, "viewport": {"northeast": {"lat": 13.0496828802915, "lng": 77.51902613029151}, "southwest": {"lat": 13.0469849197085, "lng": 77.51632816970849}}}, "place_id": "ChIJl6MFeMw9rjsRp8LOe5FWoX0", "plus_code": {"global_code": "7J5V2GX9+83", "compound_code": "2GX9+83 Bengaluru, Karnataka, India"}, "vicinity": "#17, 2nd Cross Road, Prashanth Naer, T. Dasarahalli, Bengaluru", "photos": [{"photo_reference": "ATtYBwJyUNGw6ZKUWrN9lI8EZuOlobEQxpo197vMaydat8yYTePwZYDxEvyB2XCDBiDraFJe4Wq7xcPfpBrr14qgVY4ekdrH3eKbguP47BjUTK7auB9JuNW_y1pkEOeA5Q6cREwQRg_EyBbGugLYjFT2f0457FzRqA-RW0vKcS9A5Zh95Fwy", "width": 677, "html_attributions": ["<a href=\"https://maps.google.com/maps/contrib/100385845926337707245\">Kumar S</a>"], "height": 397}], "scope": "GOOGLE", "business_status": "OPERATIONAL", "types": ["hospital", "health", "point_of_interest", "establishment"], "icon": "https://maps.gstatic.com/mapfiles/place_api/icons/v1/png_71/hospital-71.png"}, {"name": "ganesh medicals& gereral store", "reference": "ChIJPQNYzM4irjsR0JZs1FCSIOU", "geometry": {"location": {"lat": 13.062206, "lng": 77.533098}, "viewport": {"northeast": {"lat": 13.0635628302915, "lng": 77.53439883029151}, "southwest": {"lat": 13.0608648697085, "lng": 77.5317008697085}}}, "place_id": "ChIJPQNYzM4irjsR0JZs1FCSIOU", "plus_code": {"global_code": "7J5V3G6M+V6", "compound_code": "3G6M+V6 Bengaluru, Karnataka, India"}, "vicinity": "8th cross kg halli abigere main road, Bengaluru", "scope": "GOOGLE", "business_status": "OPERATIONAL", "types": ["hospital", "health", "point_of_interest", "establishment"], "icon": "https://maps.gstatic.com/mapfiles/place_api/icons/v1/png_71/hospital-71.png"}]}