{"status": "OK", "next_page_token": "ATtYBwJ-jTJIG_uzZw0Nesmzv3DOedBThVcJqH_Nf-L_beQWjEZJJxCjoNyqr5FPy4be1kTFF4Z8Qax0cYg2oQLHvFHoIVyc1jfGrgGRB8rS1ycdrcXqP7D0tOe8RLtkCZU92nmOW8VD6I_6uYLN8T3ANCe5omNTu6k21PuSiV2d0APGj1Id12T1px-pxeINrADeZXMXveaNzh6-ZA4z46BUd015f77ioNLaTJU_vnfGWrpQzcfXEQkC5MUbjOWdNRayQZ4eIOZZWPv8FGibClaJSrA7HVPsRFlfX_Am58lWd0vHfo4HtdCK8N88Ou1ZehpV8g9vQKwxVNW-njRUHEOP1qLjfXHebeH1GRZ48pFLSQKM21Jlk2eDHsOkKavZAvZIIx-YpHppjEj6i-ZeAcf6AO6myN1v63N6QUPqerzLpn655-39Cmbz_WajQWfEnWhgfiSkB9VguaonNVpI3whFIuWebH2MWfa0r82EZd4VLr1eEMhR-Tzixe12de3Nxzelh2f2JMlsggRM5PDk1jOavM6ZP7aaYjxTkKm-9AMMeYgf-AUrFzZsNLkKR-52AegqOQiPrCqYp4YNozKpaYqstC1zd0nEjeNA88uh8kxAwMnSj6tWMQvQlAWZiR7LLSZJZDxHekFoM1o", "html_attributions": [], "results": [{"rating": 4.6, "user_ratings_total": 23, "name": "PRASANNA POLY CLINIC", "reference": "ChIJQWidnlwVrjsRqKBu7N5QDyE", "geometry": {"location": {"lat": 12.8929503, "lng": 77.571829}, "viewport": {"northeast": {"lat": 12.8943331802915, "lng": 77.5731723802915}, "southwest": {"lat": 12.8916352197085, "lng": 77.57047441970849}}}, "opening_hours": {"open_now": true}, "place_id": "ChIJQWidnlwVrjsRqKBu7N5QDyE", "plus_code": {"global_code": "7J4VVHVC+5P", "compound_code": "VHVC+5P Bengaluru, Karnataka, India"}, "vicinity": "Chunchaghatta Road, Ganapathipura #3,Krishna Complex, Ganapathipura, Konanakunte, Bengaluru", "photos": [{"photo_reference": "ATtYBwIPtlV_Qzp-6R6h1Ucj7o_AcBCQ32bimXIKuvD4kHyUjDmHsDP-WsiDxvkn6ZpdVFS6_UcfJokrnR2hRBE7t_39iPWAqj3I3piYgJoD5Pko1crre4Hlg_fCQZpydSawnLVqj1tIKAwQJCz2NrpOEeObhOyXK0FKNQrPWMlhmvwlT_is", "width": 1080, "html_attributions": ["<a href=\"https://maps.google.com/maps/contrib/116741313279332831446\">PRASANNA POLY CLINIC</a>"], "height": 2400}], "scope": "GOOGLE", "business_status": "OPERATIONAL", "types": ["hospital", "health", "point_of_interest", "establishment"], "icon": "https://maps.gstatic.com/mapfiles/place_api/icons/v1/png_71/hospital-71.png"}, {"rating": 5, "user_ratings_total": 87, "name": "JAN SEVA LAB", "reference": "ChIJC8watDMVrjsRu14MuS_ctr8", "geometry": {"location": {"lat": 12.8929557, "lng": 77.57186779999999}, "viewport": {"northeast": {"lat": 12.8943120802915, "lng": 77.5732623302915}, "southwest": {"lat": 12.8916141197085, "lng": 77.57056436970849}}}, "opening_hours": {"open_now": true}, "place_id": "ChIJC8watDMVrjsRu14MuS_ctr8", "plus_code": {"global_code": "7J4VVHVC+5P", "compound_code": "VHVC+5P Bengaluru, Karnataka, India"}, "vicinity": "Chunchgatta Main Road, Ganapathipura, Bengaluru", "photos": [{"photo_reference": "ATtYBwIdH4MS4niv3wDuUtfiYoD8Tdh1ltRdfi4x5TleNIyPNL3sdFfay_LmSb3rhKeRH24uheO6giwoDBT10K0AIaospr1x98_8vmfwRZ1PizH2AE7ztJIw9vvOzUGg-fyAvBCTTAzpMi1GWez3p_2l3pd0UWC8Nx8KjT6Ud8HVEazSWSIE", "width": 977, "html_attributions": ["<a href=\"https://maps.google.com/maps/contrib/109054529265069545433\">JAN SEVA LAB</a>"], "height": 1444}], "scope": "GOOGLE", "business_status": "OPERATIONAL", "types": ["hospital", "health", "point_of_interest", "establishment"], "icon": "https://maps.gstatic.com/mapfiles/place_api/icons/v1/png_71/generic_business-71.png"}, {"name": "Vinayaka clinic", "reference": "ChIJx-kAthcVrjsRC5rTQtOv114", "geometry": {"location": {"lat": 12.8903127, "lng": 77.5736508}, "viewport": {"northeast": {"lat": 12.8916810302915, "lng": 77.5751974302915}, "southwest": {"lat": 12.8889830697085, "lng": 77.57249946970848}}}, "place_id": "ChIJx-kAthcVrjsRC5rTQtOv114", "plus_code": {"global_code": "7J4VVHRF+4F", "compound_code": "VHRF+4F Bengaluru, Karnataka, India"}, "vicinity": "398, Beereshwara Nagar, Chunchgatta, JP Nagar 7th Phase, J. P. Nagar, Bengaluru", "scope": "GOOGLE", "business_status": "OPERATIONAL", "types": ["hospital", "health", "point_of_interest", "establishment"], "icon": "https://maps.gstatic.com/mapfiles/place_api/icons/v1/png_71/hospital-71.png"}, {"rating": 4.5, "user_ratings_total": 2, "name": "PAVAN MEDICALS AND GENERAL STORES", "reference": "ChIJaXIsXvs_rjsROHziZi6uTcs", "geometry": {"location": {"lat": 12.8867, "lng": 77.56833809999999}, "viewport": {"northeast": {"lat": 12.8880231802915, "lng": 77.56968823029149}, "southwest": {"lat": 12.8853252197085, "lng": 77.56699026970848}}}, "opening_hours": {"open_now": true}, "place_id": "ChIJaXIsXvs_rjsROHziZi6uTcs", "plus_code": {"global_code": "7J4VVHP9+M8", "compound_code": "VHP9+M8 Bengaluru, Karnataka, India"}, "vicinity": "#33, lakshmi Complex, Shop #, Chuchghatta, 2nd Main Road, Vijaya Bank Layout, Konanakunte, Bengaluru", "photos": [{"photo_reference": "ATtYBwK4KU-0NcdvRvzYfkjfdB5ZxOtHI9mf9f5HH4yJaBKFl4W8nNuSoqOnM3HDZ7BtuFJPKDkgD1qJUXOqqWiyZpnambCLAsIBPflCY_Y5IPndOLKnhZzTaf4cNhffFLWY2swd8joKoF2V26W6FRIUVqXBsu-ehEH2JKMaqwkiErtVVSvd", "width": 2048, "html_attributions": ["<a href=\"https://maps.google.com/maps/contrib/111844197797579102447\">PAVAN MEDICALS AND GENERAL STORES</a>"], "height": 1536}], "scope": "GOOGLE", "business_status": "OPERATIONAL", "types": ["hospital", "health", "point_of_interest", "establishment"], "icon": "https://maps.gstatic.com/mapfiles/place_api/icons/v1/png_71/hospital-71.png"}, {"rating": 4, "user_ratings_total": 1, "name": "Sri Krishna Medicals", "reference": "ChIJ0bCJmFwVrjsRgT4WeDigzPM", "geometry": {"location": {"lat": 12.8931902, "lng": 77.5718988}, "viewport": {"northeast": {"lat": 12.8945399302915, "lng": 77.57324593029149}, "southwest": {"lat": 12.8918419697085, "lng": 77.57054796970849}}}, "opening_hours": {"open_now": true}, "place_id": "ChIJ0bCJmFwVrjsRgT4WeDigzPM", "plus_code": {"global_code": "7J4VVHVC+7Q", "compound_code": "VHVC+7Q Bengaluru, Karnataka, India"}, "vicinity": "21, Millennium Avenue, Chunchgatta, JP Nagar Phase 6, J. P. Nagar, Bengaluru", "scope": "GOOGLE", "business_status": "OPERATIONAL", "types": ["hospital", "health", "point_of_interest", "establishment"], "icon": "https://maps.gstatic.com/mapfiles/place_api/icons/v1/png_71/hospital-71.png"}, {"name": "Aashirwad Ambulance", "reference": "ChIJSzR0F1wVrjsRqdjXW72rTWM", "geometry": {"location": {"lat": 12.8937285, "lng": 77.568462}, "viewport": {"northeast": {"lat": 12.8950482802915, "lng": 77.5697850802915}, "southwest": {"lat": 12.8923503197085, "lng": 77.56708711970849}}}, "place_id": "ChIJSzR0F1wVrjsRqdjXW72rTWM", "plus_code": {"global_code": "7J4VVHV9+F9", "compound_code": "VHV9+F9 Bengaluru, Karnataka, India"}, "vicinity": "Ganapathipura, Konanakunte, Bengaluru", "scope": "GOOGLE", "business_status": "OPERATIONAL", "types": ["hospital", "health", "point_of_interest", "establishment"], "icon": "https://maps.gstatic.com/mapfiles/place_api/icons/v1/png_71/hospital-71.png"}, {"name": "Trust Chemist & Druggist", "reference": "ChIJB7-fT5kVrjsRJgcJ-jGoYJc", "geometry": {"location": {"lat": 12.894376, "lng": 77.56827349999999}, "viewport": {"northeast": {"lat": 12.8956530802915, "lng": 77.56969488029151}, "southwest": {"lat": 12.8929551197085, "lng": 77.56699691970849}}}, "opening_hours": {"open_now": true}, "place_id": "ChIJB7-fT5kVrjsRJgcJ-jGoYJc", "plus_code": {"global_code": "7J4VVHV9+Q8", "compound_code": "VHV9+Q8 Bengaluru, Karnataka, India"}, "vicinity": "#6, Sai Ram Hospital, H.P.C.S. Layout, Yelachenahalli, Kanakapura Road, J. P. Nagar, Bengaluru", "photos": [{"photo_reference": "ATtYBwLd9sDBlTqg5oxpG95gRUm6oJflE4sEUTRWSApK9_R0XVyv3GjbvN6PirxS8UjTO-zWG0ydlCv2MhJX7TI0TR7VX3601X_Tsj8Q-ayspjVbFsrcx6DmrvWw4wpkCxyuKM3ffE3p-PL0x-d3-OifpY06T4mFhQTjI876ffGGUUTvy3KN", "width": 1013, "html_attributions": ["<a href=\"https://maps.google.com/maps/contrib/103950190908490343524\">Trust Chemist &amp; Druggist</a>"], "height": 569}], "scope": "GOOGLE", "business_status": "OPERATIONAL", "types": ["hospital", "health", "point_of_interest", "establishment"], "icon": "https://maps.gstatic.com/mapfiles/place_api/icons/v1/png_71/hospital-71.png"}, {"rating": 5, "user_ratings_total": 1, "name": "Divyasree Medicals", "reference": "ChIJG0wXxxUVrjsRRBFyYUs4Xz4", "geometry": {"location": {"lat": 12.88509, "lng": 77.570002}, "viewport": {"northeast": {"lat": 12.8863935802915, "lng": 77.5713468802915}, "southwest": {"lat": 12.8836956197085, "lng": 77.56864891970848}}}, "opening_hours": {"open_now": true}, "place_id": "ChIJG0wXxxUVrjsRRBFyYUs4Xz4", "plus_code": {"global_code": "7J4VVHPC+22", "compound_code": "VHPC+22 Bengaluru, Karnataka, India"}, "vicinity": "#30/1, Shop No #3&4, New Bank Colony, Opp Reliance Fresh, Konanakunte, Bengaluru", "scope": "GOOGLE", "business_status": "OPERATIONAL", "types": ["hospital", "health", "point_of_interest", "establishment"], "icon": "https://maps.gstatic.com/mapfiles/place_api/icons/v1/png_71/hospital-71.png"}, {"rating": 5, "user_ratings_total": 1, "name": "SWASTHYA HEALTH CARE", "reference": "ChIJuzZQkG0VrjsRXN8cB0Gr3tQ", "geometry": {"location": {"lat": 12.8948979, "lng": 77.5705553}, "viewport": {"northeast": {"lat": 12.8959109302915, "lng": 77.5718971302915}, "southwest": {"lat": 12.8932129697085, "lng": 77.5691991697085}}}, "opening_hours": {"open_now": true}, "place_id": "ChIJuzZQkG0VrjsRXN8cB0Gr3tQ", "plus_code": {"global_code": "7J4VVHVC+X6", "compound_code": "VHVC+X6 Bengaluru, Karnataka, India"}, "vicinity": "Behind Jyothi kendriya vidyalaya 3rd cross, 2nd Main Road, Amarjyoti Layout, Bengaluru", "photos": [{"photo_reference": "ATtYBwLWY1DYISoOfN-g0y_xKQ7ZOfxxoE71BTb3axwMCNebqwwl2LKxohVYHM2WMOg3OxM3Opkqxzx-4Wbw63fuL05aJ0FRyAziGEcie5-dJlx92p9v9NfW-aJ9BRwJ0TZ9DoVcDPpStn86hsz37m_bswfIDNuubEUCRS5GD7x5BWZTdFDf", "width": 3024, "html_attributions": ["<a href=\"https://maps.google.com/maps/contrib/107139752627517980580\">SWASTHYA HEALTH CARE</a>"], "height": 3025}], "scope": "GOOGLE", "business_status": "OPERATIONAL", "types": ["hospital", "health", "point_of_interest", "establishment"], "icon": "https://maps.gstatic.com/mapfiles/place_api/icons/v1/png_71/generic_business-71.png"}, {"rating": 5, "user_ratings_total": 1, "name": "Dr. Srinivasa Prasad. Interventional Cardiologist", "reference": "ChIJdTKkZE0VrjsRjugz3kLIKIc", "geometry": {"location": {"lat": 12.8854847, "lng": 77.5671347}, "viewport": {"northeast": {"lat": 12.8868678802915, "lng": 77.5684877802915}, "southwest": {"lat": 12.8841699197085, "lng": 77.5657898197085}}}, "place_id": "ChIJdTKkZE0VrjsRjugz3kLIKIc", "plus_code": {"global_code": "7J4VVHP8+5V", "compound_code": "VHP8+5V Bengaluru, Karnataka, India"}, "vicinity": "opposite Chandrachodeshwara temple, Reha Diagnostic Laboratory #15/A, Old Police Station Road Near Konanakunte Bus Stop, Next to Surabhi Hotel, opposite Chandrachodeshwara temple, Konanakunte, Bengaluru", "photos": [{"photo_reference": "ATtYBwJ58qrN0msHDs3aTrs57lgQFOJFgeF4nt5l7vOFymxadKwGQbbPTKKwosuoK8fihCETfCExhLHcNa83jns5QVG2MPXegjYfRVkzwPfF7ElyTIqWEX5KHK074OtHrJdMv1Ubv6Y7EV2jPtt_I8KqgXSelX2JThwkH_QFGJsw9AKDpsJA", "width": 720, "html_attributions": ["<a href=\"https://maps.google.com/maps/contrib/100905109265066378481\">Dr. Srinivasa Prasad. Interventional Cardiologist</a>"], "height": 785}], "scope": "GOOGLE", "business_status": "OPERATIONAL", "types": ["hospital", "health", "point_of_interest", "establishment"], "icon": "https://maps.gstatic.com/mapfiles/place_api/icons/v1/png_71/hospital-71.png"}, {"name": "Narmadha Dental Clinic", "reference": "ChIJdaxJ4VgVrjsRlj2UkDCT9IE", "geometry": {"location": {"lat": 12.8906285, "lng": 77.56448209999999}, "viewport": {"northeast": {"lat": 12.8919913302915, "lng": 77.5658180802915}, "southwest": {"lat": 12.8892933697085, "lng": 77.5631201197085}}}, "place_id": "ChIJdaxJ4VgVrjsRlj2UkDCT9IE", "plus_code": {"global_code": "7J4VVHR7+7Q", "compound_code": "VHR7+7Q Bengaluru, Karnataka, India"}, "vicinity": "No 75, 781/1, 3rd Cross Road, Anjanadri Layout, Konanakunte, Bengaluru", "photos": [{"photo_reference": "ATtYBwLdRODE1aKa6oyuP6SXq4RJ4gf37h182nSBv0v3udIAlfEUny5ywdCqi96QWdZUYoQStWlpyP042JdYyhJwfjaBrD4f_4mXC5h3Hz2D_vxUIe2u3htlzr_wtiTQK973tiWJSAkFytZp-8eHGwKsaZpOVZgesob_QLUyhlttdtfci9Ra", "width": 1936, "html_attributions": ["<a href=\"https://maps.google.com/maps/contrib/117992160199559515489\">Shreyas V Yadav</a>"], "height": 1936}], "scope": "GOOGLE", "business_status": "OPERATIONAL", "types": ["hospital", "health", "point_of_interest", "establishment"], "icon": "https://maps.gstatic.com/mapfiles/place_api/icons/v1/png_71/hospital-71.png"}, {"rating": 2.9, "user_ratings_total": 48, "name": "Rajnandini Hospital", "reference": "ChIJq6qqqlcVrjsR5TjaQNXuHrw", "geometry": {"location": {"lat": 12.8845593, "lng": 77.5701519}, "viewport": {"northeast": {"lat": 12.8859361302915, "lng": 77.57150853029151}, "southwest": {"lat": 12.8832381697085, "lng": 77.5688105697085}}}, "opening_hours": {"open_now": true}, "place_id": "ChIJq6qqqlcVrjsR5TjaQNXuHrw", "plus_code": {"global_code": "7J4VVHMC+R3", "compound_code": "VHMC+R3 Bengaluru, Karnataka, India"}, "vicinity": "3, Old Bank Colony, 6th Cross, Konanakunte, Bengaluru", "photos": [{"photo_reference": "ATtYBwLo22RzChhbjDB30CEsKlQBhk16e9hwGWJceEbU1ZrurgeyxTKavZ3Alj7PO9xP5WsPmehhwX1zZmAhxJwqdKLRXWspYMxS0f1ocqalmmioTDeE__C3UWwA9GudCitVWACGzxOjHh7J1R7RS_pj69YLmuXKo9PIfYKwFrml5jBHyHLZ", "width": 1080, "html_attributions": ["<a href=\"https://maps.google.com/maps/contrib/102723556290458145273\">sripritha ramesh</a>"], "height": 665}], "scope": "GOOGLE", "business_status": "OPERATIONAL", "types": ["hospital", "health", "point_of_interest", "establishment"], "icon": "https://maps.gstatic.com/mapfiles/place_api/icons/v1/png_71/hospital-71.png"}, {"rating": 1.7, "user_ratings_total": 12, "name": "Rajanandhini Nursing Home", "reference": "ChIJq_XG-1AVrjsRt_JUTvNwZ40", "geometry": {"location": {"lat": 12.8845086, "lng": 77.57004669999999}, "viewport": {"northeast": {"lat": 12.8859231802915, "lng": 77.5714136302915}, "southwest": {"lat": 12.8832252197085, "lng": 77.56871566970848}}}, "opening_hours": {"open_now": true}, "place_id": "ChIJq_XG-1AVrjsRt_JUTvNwZ40", "plus_code": {"global_code": "7J4VVHMC+R2", "compound_code": "VHMC+R2 Bengaluru, Karnataka, India"}, "vicinity": "Old Bank Colony, New Bank Colony, Bank Colony, Konanakunte, Bengaluru", "scope": "GOOGLE", "business_status": "OPERATIONAL", "types": ["hospital", "health", "point_of_interest", "establishment"], "icon": "https://maps.gstatic.com/mapfiles/place_api/icons/v1/png_71/hospital-71.png"}, {"rating": 4.9, "user_ratings_total": 77, "name": "NIMISHA SPECIALITY CLINIC", "reference": "ChIJ6f6fOVcVrjsRGStFhhjbppg", "geometry": {"location": {"lat": 12.885101, "lng": 77.566779}, "viewport": {"northeast": {"lat": 12.8864460802915, "lng": 77.56816483029151}, "southwest": {"lat": 12.8837481197085, "lng": 77.5654668697085}}}, "opening_hours": {"open_now": true}, "place_id": "ChIJ6f6fOVcVrjsRGStFhhjbppg", "plus_code": {"global_code": "7J4VVHP8+2P", "compound_code": "VHP8+2P Bengaluru, Karnataka, India"}, "vicinity": "Vijaya Plaza, #34, Amruthnagar Main Road, Anjanadri Layout, Konanakunte, Bengaluru", "photos": [{"photo_reference": "ATtYBwJjF3WGbChV2M-7NQd7UUi0DxMnTToo6OZgRFiLXE5eIfHD6iEAcO83GxGmyWRqCabscIo6Xa85RY8EwE68lS8n--9mimIip746MNGjOmQxINK-KhfoSiqc2tK6Ej-Z-rynTTy-3bD86tOUG6e8ZHgt-LWBNHzYiOXSAeBh2-bAweqB", "width": 4160, "html_attributions": ["<a href=\"https://maps.google.com/maps/contrib/113692262715245616658\">NIMISHA SPECIALITY CLINIC</a>"], "height": 3120}], "scope": "GOOGLE", "business_status": "OPERATIONAL", "types": ["hospital", "doctor", "health", "point_of_interest", "establishment"], "icon": "https://maps.gstatic.com/mapfiles/place_api/icons/v1/png_71/hospital-71.png"}, {"rating": 5, "user_ratings_total": 1, "name": "NIMISHA STONE AND ADVANCED UROCARE", "reference": "ChIJu4ycOVcVrjsRIO2qXSQ5mHA", "geometry": {"location": {"lat": 12.885068, "lng": 77.566795}, "viewport": {"northeast": {"lat": 12.8864145802915, "lng": 77.56816608029149}, "southwest": {"lat": 12.8837166197085, "lng": 77.56546811970848}}}, "opening_hours": {"open_now": true}, "place_id": "ChIJu4ycOVcVrjsRIO2qXSQ5mHA", "plus_code": {"global_code": "7J4VVHP8+2P", "compound_code": "VHP8+2P Bengaluru, Karnataka, India"}, "vicinity": "Vijaya Plaza, #34, Anjanadri Layout, Konanakunte, Bengaluru", "photos": [{"photo_reference": "ATtYBwJ6hnquxwWJdWcI-MXVCgwPITgpPSGwNE6sNaFeIUI-tzntklnugHqU0_3W5kBNsZmo7JB9QRAWSRSJjbva8MlX_p2Gnm46qBD5VyFaiEZxtS0TCM9A--CoIeUS7MNdi2Lpz4RmQ97Mb-S8RxCfhBROh0OLLVUGPEYHnZCmGI-OWAoy", "width": 4160, "html_attributions": ["<a href=\"https://maps.google.com/maps/contrib/110618064091005775882\">NIMISHA STONE AND ADVANCED UROCARE</a>"], "height": 3120}], "scope": "GOOGLE", "business_status": "OPERATIONAL", "types": ["hospital", "health", "point_of_interest", "establishment"], "icon": "https://maps.gstatic.com/mapfiles/place_api/icons/v1/png_71/generic_business-71.png"}, {"rating": 5, "user_ratings_total": 1, "name": "namana medicals", "reference": "ChIJ20MRNE8VrjsRgN0pNWPGO6A", "geometry": {"location": {"lat": 12.8955799, "lng": 77.57180369999999}, "viewport": {"northeast": {"lat": 12.8969250302915, "lng": 77.5732096802915}, "southwest": {"lat": 12.8942270697085, "lng": 77.57051171970849}}}, "opening_hours": {"open_now": true}, "place_id": "ChIJ20MRNE8VrjsRgN0pNWPGO6A", "plus_code": {"global_code": "7J4VVHWC+6P", "compound_code": "VHWC+6P Bengaluru, Karnataka, India"}, "vicinity": "Ganapathipura, Konanakunte, Bengaluru", "scope": "GOOGLE", "business_status": "OPERATIONAL", "types": ["hospital", "health", "point_of_interest", "establishment"], "icon": "https://maps.gstatic.com/mapfiles/place_api/icons/v1/png_71/hospital-71.png"}, {"rating": 2.6, "user_ratings_total": 5, "name": "Siddalingappa Memorial Hospital", "reference": "ChIJSemA3WcVrjsRuO5e3AkZjKE", "geometry": {"location": {"lat": 12.8901961, "lng": 77.5638895}, "viewport": {"northeast": {"lat": 12.8915252302915, "lng": 77.56525073029151}, "southwest": {"lat": 12.8888272697085, "lng": 77.56255276970849}}}, "opening_hours": {"open_now": true}, "place_id": "ChIJSemA3WcVrjsRuO5e3AkZjKE", "plus_code": {"global_code": "7J4VVHR7+3H", "compound_code": "VHR7+3H Bengaluru, Karnataka, India"}, "vicinity": "Konanakunte Cross, Near-Metro, 675, Kanakapura Road, Krishna Devaraya Nagar, Yelachenahallli, Kumaraswamy Layout, Bengaluru", "photos": [{"photo_reference": "ATtYBwI0VuhyKa-jl6cEmO4znzVxbln-SW7ZSjHIaS6Y_zcNDbWdUmGF9BBafFQQxpO1nMyPE8KsFt3yjtlVoS6pP07e-L9rOAv1roggYBOumxCKKTFwQehc0LgRnYKJInRSbUAMIjmdZIJ5eBFxsR6KKdIBSIPAxKJc5HYMsoufmFlq4Lit", "width": 772, "html_attributions": ["<a href=\"https://maps.google.com/maps/contrib/104029514855601368918\">Siddalingappa Memorial Hospital</a>"], "height": 590}], "scope": "GOOGLE", "business_status": "OPERATIONAL", "types": ["hospital", "health", "point_of_interest", "establishment"], "icon": "https://maps.gstatic.com/mapfiles/place_api/icons/v1/png_71/hospital-71.png"}, {"name": "Bharghav Medicals", "reference": "ChIJZ2mC8VgVrjsRoJAy2bgJc9Q", "geometry": {"location": {"lat": 12.8902018, "lng": 77.5638836}, "viewport": {"northeast": {"lat": 12.8915069802915, "lng": 77.5652782302915}, "southwest": {"lat": 12.8888090197085, "lng": 77.56258026970849}}}, "opening_hours": {"open_now": true}, "place_id": "ChIJZ2mC8VgVrjsRoJAy2bgJc9Q", "plus_code": {"global_code": "7J4VVHR7+3H", "compound_code": "VHR7+3H Bengaluru, Karnataka, India"}, "vicinity": "#3, Sadguru Nilaya, Konanakunte Cross, Kanakapura Road, Bengaluru", "photos": [{"photo_reference": "ATtYBwKLfb-Dw6MBc4Bc2VbecCI0l01r9OrGmuK_BUJ9NOirgb5ZNKMHR997TG2kP7RDG9NhGOJGuj3fGrubzGpF3UDkd8NdgurwuTuky7AaeYUbNlJ7cPSI8qUJPxc289UAjGoPtL0M64uXnMeSYZZuKFrn3Opr5-Z58pPbE4PyYGZRe32L", "width": 2880, "html_attributions": ["<a href=\"https://maps.google.com/maps/contrib/104900404499539760816\">Bhargav Medicals</a>"], "height": 1728}], "scope": "GOOGLE", "business_status": "OPERATIONAL", "types": ["hospital", "health", "point_of_interest", "establishment"], "icon": "https://maps.gstatic.com/mapfiles/place_api/icons/v1/png_71/hospital-71.png"}, {"name": "Dhanavantari Medicals And Clinic", "reference": "ChIJkcUnIF0VrjsRzoX9mbiweIo", "geometry": {"location": {"lat": 12.895626, "lng": 77.5719802}, "viewport": {"northeast": {"lat": 12.8969767802915, "lng": 77.5733030302915}, "southwest": {"lat": 12.8942788197085, "lng": 77.57060506970849}}}, "opening_hours": {"open_now": true}, "place_id": "ChIJkcUnIF0VrjsRzoX9mbiweIo", "plus_code": {"global_code": "7J4VVHWC+7Q", "compound_code": "VHWC+7Q Bengaluru, Karnataka, India"}, "vicinity": "Shop no 8,opposite spv foods, road Yelachenahalli,knakapura road, Chunchgatta Main Road, Jarganahalli, JP Nagar Phase 6, J. P. Nagar, Bengaluru", "scope": "GOOGLE", "business_status": "OPERATIONAL", "types": ["hospital", "health", "point_of_interest", "establishment"], "icon": "https://maps.gstatic.com/mapfiles/place_api/icons/v1/png_71/hospital-71.png"}, {"name": "Vishnu child care", "reference": "ChIJ31BojkQVrjsRJVH2R8UQelQ", "geometry": {"location": {"lat": 12.8900722, "lng": 77.56375589999999}, "viewport": {"northeast": {"lat": 12.8913989802915, "lng": 77.5651291302915}, "southwest": {"lat": 12.8887010197085, "lng": 77.56243116970849}}}, "opening_hours": {"open_now": true}, "place_id": "ChIJ31BojkQVrjsRJVH2R8UQelQ", "plus_code": {"global_code": "7J4VVHR7+2G", "compound_code": "VHR7+2G Bengaluru, Karnataka, India"}, "vicinity": "near vishnu child care,Kanakapura Rd, cross, Konanakunte, Bengaluru", "scope": "GOOGLE", "business_status": "OPERATIONAL", "types": ["hospital", "health", "point_of_interest", "establishment"], "icon": "https://maps.gstatic.com/mapfiles/place_api/icons/v1/png_71/hospital-71.png"}]}