{"status": "OK", "next_page_token": "ATtYBwJxafwuAuCL7nZHoXn2VFWU5zyKYa4quBGPa3urTAShbobh-QuXEq1VGrqOlq060kSPxUREhRtyp1_Imzz93lmlkg9dHSghzJtWZF53xiRsIazcuVdVdJfNVpOftEbKIATBaL01GNIJO8zExLxRZ6-2K5n1wBMJjZtRQmab7sq7y0MXC-syN6kKgNgDiuSlVPUObD0mA7szjA_B0wDlQYXl1_Q0L-EOS5mDktGRHnqdRT0L36qI27AFaXJbQM3HcGb5A-pOX_fMof_H-FWlhfN6Qeyx29yYq7af0WqtyD9fi4WNhAPlSDQKnF7RxZ6pS_FgebpzMRd98z7xrWBMwHEMLnZ69Y_WVZtAu4-pt6p8eKemPQ9wYBx3b-zJzc93yTrlTegsTawlVI-hJBdSRRE6yeCdujbki9joJrigyE4thvRg1ktEWXJfv2fjazpVsgO8h5Wf6CvhEwAOJ2q09ZQDfprBSNpDt7fRDeiJt7zeaMdphIZwgCsuTnE21gI2OCq8GQj-ZLWD6GD5VdrZhvWQELlofCg0i1q9o5aqeX_wEUicD_6CeYTwWFj4q4jJwRz7A5Bd3CeLWL-zomaiTTezRvfMRzBL-l_ML6LDax3DWf6VQiML3CnSHAOmhL-vWPK4hSI511I", "html_attributions": [], "results": [{"rating": 3.5, "user_ratings_total": 2, "name": "Medical Superintendent's Office, NIMHANS", "reference": "ChIJqXOQmrkVrjsR_iowsByfW18", "geometry": {"location": {"lat": 12.9397528, "lng": 77.5941316}, "viewport": {"northeast": {"lat": 12.9410132802915, "lng": 77.5954920302915}, "southwest": {"lat": 12.9383153197085, "lng": 77.59279406970849}}}, "place_id": "ChIJqXOQmrkVrjsR_iowsByfW18", "plus_code": {"global_code": "7J4VWHQV+WM", "compound_code": "WHQV+WM Bengaluru, Karnataka, India"}, "vicinity": "Hombegowda Nagar, Bengaluru", "scope": "GOOGLE", "business_status": "OPERATIONAL", "types": ["hospital", "health", "point_of_interest", "establishment"], "icon": "https://maps.gstatic.com/mapfiles/place_api/icons/v1/png_71/hospital-71.png"}, {"rating": 3, "user_ratings_total": 2, "name": "BMTC Dispensary", "reference": "ChIJi8lqCc8VrjsRPicPRfA44bg", "geometry": {"location": {"lat": 12.9530733, "lng": 77.59817369999999}, "viewport": {"northeast": {"lat": 12.9544586302915, "lng": 77.5994595802915}, "southwest": {"lat": 12.9517606697085, "lng": 77.59676161970849}}}, "place_id": "ChIJi8lqCc8VrjsRPicPRfA44bg", "plus_code": {"global_code": "7J4VXH3X+67", "compound_code": "XH3X+67 Bengaluru, Karnataka, India"}, "vicinity": "BTS Bus Depot Road, Shanti Nagar, Bengaluru", "scope": "GOOGLE", "business_status": "OPERATIONAL", "types": ["hospital", "health", "point_of_interest", "establishment"], "icon": "https://maps.gstatic.com/mapfiles/place_api/icons/v1/png_71/hospital-71.png"}, {"rating": 4.3, "user_ratings_total": 48, "name": "Department of Psychiatry, NIMHANS", "reference": "ChIJTWIR2bkVrjsRzpPHjoFHXmY", "geometry": {"location": {"lat": 12.9409809, "lng": 77.5967199}, "viewport": {"northeast": {"lat": 12.9423333302915, "lng": 77.59812063029149}, "southwest": {"lat": 12.9396353697085, "lng": 77.59542266970848}}}, "opening_hours": {"open_now": false}, "place_id": "ChIJTWIR2bkVrjsRzpPHjoFHXmY", "plus_code": {"global_code": "7J4VWHRW+9M", "compound_code": "WHRW+9M Bengaluru, Karnataka, India"}, "vicinity": "Hosur Road, Bengaluru", "photos": [{"photo_reference": "ATtYBwK0tS-Zplm2-lhZNmZvMUnwL2UYlk3yvOy2AvxQFCfiK-cJ97AvBHzI31EmUHa24lZEfhPprZA6SSxtEYjVBdGC1Z2_5wnxxR9seDzoFm33MEd5YI1nOQPJBrUj9Zuv20CvEqyjyWD_4FIW2k7XqFmpg_jYks3QJAWAeMxEeflXqHSw", "width": 3000, "html_attributions": ["<a href=\"https://maps.google.com/maps/contrib/112430314041119315341\">Jyoti Patil</a>"], "height": 4000}], "scope": "GOOGLE", "business_status": "OPERATIONAL", "types": ["hospital", "health", "point_of_interest", "establishment"], "icon": "https://maps.gstatic.com/mapfiles/place_api/icons/v1/png_71/generic_business-71.png"}, {"rating": 4, "user_ratings_total": 1, "name": "Blood Bank", "reference": "ChIJkdwPHO4VrjsRFpLKTrn2xyc", "geometry": {"location": {"lat": 12.9624442, "lng": 77.5915113}, "viewport": {"northeast": {"lat": 12.9638310302915, "lng": 77.5928673302915}, "southwest": {"lat": 12.9611330697085, "lng": 77.59016936970849}}}, "place_id": "ChIJkdwPHO4VrjsRFpLKTrn2xyc", "plus_code": {"global_code": "7J4VXH6R+XJ", "compound_code": "XH6R+XJ Bengaluru, Karnataka, India"}, "vicinity": "K R Road, V V Puram, V V Puram, Bengaluru", "scope": "GOOGLE", "business_status": "OPERATIONAL", "types": ["hospital", "health", "point_of_interest", "establishment"], "icon": "https://maps.gstatic.com/mapfiles/place_api/icons/v1/png_71/hospital-71.png"}, {"rating": 3.6, "user_ratings_total": 114, "name": "SDS Tuberculosis Research Center & Rajiv Gandhi Institute of Chest Diseases", "reference": "ChIJV_lp-LsVrjsRNQnMR2mIb3I", "geometry": {"location": {"lat": 12.938365, "lng": 77.59070290000001}, "viewport": {"northeast": {"lat": 12.9395375802915, "lng": 77.5921659802915}, "southwest": {"lat": 12.9368396197085, "lng": 77.58946801970849}}}, "opening_hours": {"open_now": true}, "place_id": "ChIJV_lp-LsVrjsRNQnMR2mIb3I", "plus_code": {"global_code": "7J4VWHQR+87", "compound_code": "WHQR+87 Bengaluru, Karnataka, India"}, "vicinity": "near NIMHANS, Someshwaranagara Dharmaram College Post, near NIMHANS, 1st Main Road, Bengaluru", "photos": [{"photo_reference": "ATtYBwKQdiPCWVkt6U2Q0SHrhDvUZd7fkKaqVhA9fnnHpyYswGf9jJZZq2I4giDS9_rtvYPvC3cu3qQsJEfWec8ezTZafdUZGOB8-M8v5YrEpLtAQUZvjyRQTr1Kkoqd1snSFr5VAocLzB08Kyek0hAEkVDHrRdSqmRULEqDyoBnfyWPSmy2", "width": 5760, "html_attributions": ["<a href=\"https://maps.google.com/maps/contrib/109220335989448357070\">Director SDS TRC &amp; RGICD</a>"], "height": 3840}], "scope": "GOOGLE", "business_status": "OPERATIONAL", "types": ["hospital", "health", "point_of_interest", "establishment"], "icon": "https://maps.gstatic.com/mapfiles/place_api/icons/v1/png_71/hospital-71.png"}, {"rating": 3, "user_ratings_total": 6, "name": "Sds Sanatorium", "reference": "ChIJAQAAAKQVrjsRPhGsLLiQn-8", "geometry": {"location": {"lat": 12.938365, "lng": 77.59070290000001}, "viewport": {"northeast": {"lat": 12.9395375802915, "lng": 77.5921659802915}, "southwest": {"lat": 12.9368396197085, "lng": 77.58946801970849}}}, "place_id": "ChIJAQAAAKQVrjsRPhGsLLiQn-8", "plus_code": {"global_code": "7J4VWHQR+87", "compound_code": "WHQR+87 Bengaluru, Karnataka, India"}, "vicinity": "near NIMHANS, Someshwaranagar 1st Main Road, Dharmaram College Post, near NIMHANS, Bengaluru", "photos": [{"photo_reference": "ATtYBwJmSgLPsYCtzanh9BEuVFhEL8efrjgYMmWG9J0Lap8qc_QLR34ZCfgvmUtYzAvljIse--H9pExOhmjD7cYYRdzZwMsa5LXk_5HprdyksNAbEToTZS7ew1YM0bCraFMS_iF-6Obkn9uqb1E1r0eKkiK8HSlVj7CKow19xIBhePRWu9sk", "width": 1280, "html_attributions": ["<a href=\"https://maps.google.com/maps/contrib/118279713600710823301\">SDS TUBERCULOSIS RESEARCH CENTRE RAJIV GANDHI INSTITUTE OF CHEST DISEASES</a>"], "height": 500}], "scope": "GOOGLE", "business_status": "OPERATIONAL", "types": ["hospital", "health", "point_of_interest", "establishment"], "icon": "https://maps.gstatic.com/mapfiles/place_api/icons/v1/png_71/hospital-71.png"}, {"rating": 4.1, "user_ratings_total": 43, "name": "NIMHANS Bangalore", "reference": "ChIJW7lq1rsVrjsRF8DTLdsLBCU", "geometry": {"location": {"lat": 12.9387749, "lng": 77.5930187}, "viewport": {"northeast": {"lat": 12.9401189302915, "lng": 77.5943710302915}, "southwest": {"lat": 12.9374209697085, "lng": 77.59167306970849}}}, "place_id": "ChIJW7lq1rsVrjsRF8DTLdsLBCU", "plus_code": {"global_code": "7J4VWHQV+G6", "compound_code": "WHQV+G6 Bengaluru, Karnataka, India"}, "vicinity": "368, 8th Main Road, 2nd Block, Someshwara Nagar, Jayanagar, Bengaluru", "photos": [{"photo_reference": "ATtYBwKxqpciWB55XebBS_gIJwfJYblcmFeV4Ox4CN3kyHGJP3k_QHDQU1kPEK_l6ey3o99WSqAMz3LpNaR3_9MvdLEm0LZr1ls6rlLUxYK_fIlUPYhOpyIX2IIZnoh2PHfByYARG5x3udHgf3HZnr-oBh90I2CjUkmauoAgQ8cqVNCmoXwS", "width": 4160, "html_attributions": ["<a href=\"https://maps.google.com/maps/contrib/105820311106723387442\">Abdus Shahid</a>"], "height": 3120}], "scope": "GOOGLE", "business_status": "OPERATIONAL", "types": ["hospital", "health", "point_of_interest", "establishment"], "icon": "https://maps.gstatic.com/mapfiles/place_api/icons/v1/png_71/hospital-71.png"}, {"rating": 4.4, "user_ratings_total": 28, "name": "Shiva Nursing Home", "reference": "ChIJl852kskVrjsRqbWtjAeW6XA", "geometry": {"location": {"lat": 12.9465129, "lng": 77.6014952}, "viewport": {"northeast": {"lat": 12.9478346802915, "lng": 77.6028570302915}, "southwest": {"lat": 12.9451367197085, "lng": 77.6001590697085}}}, "place_id": "ChIJl852kskVrjsRqbWtjAeW6XA", "plus_code": {"global_code": "7J4VWJW2+JH", "compound_code": "WJW2+JH Bengaluru, Karnataka, India"}, "vicinity": "No 310/20, Opp K J High School, 7th Main Road, Lakkasandra Extension, Wilson Garden, Bengaluru", "photos": [{"photo_reference": "ATtYBwJ9855PoFQxJqbsX6Hhk3JA9NNsqr8jz_8dDPenkdPmD-IL42YCHZyCQHibAWPc-awUJria40Qdzrr377KPi8nkwh_B8EAEKT3SdsMeBG1W4AEdMbiWu9upEUNbJpohFumgJHwPJ_CEZzj_f1PZkPkWSez_mWn3tsSDFKo0fsO17GRd", "width": 2340, "html_attributions": ["<a href=\"https://maps.google.com/maps/contrib/109791960450290007697\">Mohammed Tanveer</a>"], "height": 4160}], "scope": "GOOGLE", "business_status": "OPERATIONAL", "types": ["hospital", "health", "point_of_interest", "establishment"], "icon": "https://maps.gstatic.com/mapfiles/place_api/icons/v1/png_71/hospital-71.png"}, {"rating": 4.6, "user_ratings_total": 42, "name": "Dr M V Govindaswamy Centre", "reference": "ChIJYwR9_bkVrjsR-n3HIBWqGcQ", "geometry": {"location": {"lat": 12.9396055, "lng": 77.5964218}, "viewport": {"northeast": {"lat": 12.9410230802915, "lng": 77.59776288029151}, "southwest": {"lat": 12.9383251197085, "lng": 77.59506491970849}}}, "opening_hours": {"open_now": false}, "place_id": "ChIJYwR9_bkVrjsR-n3HIBWqGcQ", "plus_code": {"global_code": "7J4VWHQW+RH", "compound_code": "WHQW+RH Bengaluru, Karnataka, India"}, "vicinity": "NIMHANS, Dr M H Marigowda Rd, Hombegowda Nagar, Bengaluru", "photos": [{"photo_reference": "ATtYBwItZW27uLgABSvBwZCV6FBcDkd25OgnqPsPvF9S_f8ZKyoHbtdNKV00sQ9xZKQjZemwZJ1IrxNQ6x59gO-eXxfyfuWSPKk-wEtj2VozlJzz9l-MiGRGTjfBpSyFQkOuged3EWOxK0L5ctLrtDYi1ZnxjYdqlXcB6_wiz3ifX1ODNlBm", "width": 4160, "html_attributions": ["<a href=\"https://maps.google.com/maps/contrib/113548193396723144924\">Joy Bose</a>"], "height": 3120}], "scope": "GOOGLE", "business_status": "OPERATIONAL", "types": ["hospital", "health", "point_of_interest", "establishment"], "icon": "https://maps.gstatic.com/mapfiles/place_api/icons/v1/png_71/hospital-71.png"}, {"rating": 4.5, "user_ratings_total": 17, "name": "OCD Clinic, NIMHANS", "reference": "ChIJzVgbIboVrjsRnDV4Zog5D1c", "geometry": {"location": {"lat": 12.9387471, "lng": 77.5946666}, "viewport": {"northeast": {"lat": 12.9400960802915, "lng": 77.5960155802915}, "southwest": {"lat": 12.9373981197085, "lng": 77.59331761970849}}}, "opening_hours": {"open_now": false}, "place_id": "ChIJzVgbIboVrjsRnDV4Zog5D1c", "plus_code": {"global_code": "7J4VWHQV+FV", "compound_code": "WHQV+FV Bengaluru, Karnataka, India"}, "vicinity": "South Hospital Complex, Near NIMHANS, Hombegowda Nagar, Bengaluru", "photos": [{"photo_reference": "ATtYBwL-8nTLRP64OEeJ734pj9NEBT-jJh1eUMVeSl87f-rqLjdQf4GDViFJKMEoLsNdEOY63X1SknziHmPhZIlql0eYSO1st2mD6gSNDpHvUjZuQ3txRy-KbQJFhWt3oOngEHVQMST0h4Zk276qtK79-W1GcknYX_wsAxIwZcLR8UFqpDcn", "width": 1182, "html_attributions": ["<a href=\"https://maps.google.com/maps/contrib/100546550704478009132\">OCD Clinic, NIMHANS</a>"], "height": 338}], "scope": "GOOGLE", "business_status": "OPERATIONAL", "types": ["hospital", "health", "point_of_interest", "establishment"], "icon": "https://maps.gstatic.com/mapfiles/place_api/icons/v1/png_71/hospital-71.png"}, {"rating": 5, "user_ratings_total": 2, "name": "Shanthinagar Maternity Home", "reference": "ChIJ____P84VrjsRc96f6H5SdjI", "geometry": {"location": {"lat": 12.9547691, "lng": 77.6006245}, "viewport": {"northeast": {"lat": 12.9559375302915, "lng": 77.60190093029149}, "southwest": {"lat": 12.9532395697085, "lng": 77.59920296970849}}}, "place_id": "ChIJ____P84VrjsRc96f6H5SdjI", "vicinity": "Shanti Nagar, Bengaluru", "scope": "GOOGLE", "business_status": "OPERATIONAL", "types": ["hospital", "health", "point_of_interest", "establishment"], "icon": "https://maps.gstatic.com/mapfiles/place_api/icons/v1/png_71/hospital-71.png"}, {"rating": 3.5, "user_ratings_total": 6, "name": "NIMHANS Administrative block", "reference": "ChIJk7UAPrcVrjsR0Vcv2NYdPl8", "geometry": {"location": {"lat": 12.9404993, "lng": 77.5980716}, "viewport": {"northeast": {"lat": 12.9418409802915, "lng": 77.5993177802915}, "southwest": {"lat": 12.9391430197085, "lng": 77.5966198197085}}}, "opening_hours": {"open_now": false}, "place_id": "ChIJk7UAPrcVrjsR0Vcv2NYdPl8", "plus_code": {"global_code": "7J4VWHRX+56", "compound_code": "WHRX+56 Bengaluru, Karnataka, India"}, "vicinity": "Lakkasandra, Laljinagar, Wilson Garden, Hosur Road, Bengaluru", "photos": [{"photo_reference": "ATtYBwIEY1tO9vNefIv7N9bMPtrxLCukQSJUwjDmMAt3alhAYwvAVYi2XKc6_c6lNAL4M0tP_FnaHAYslgHhaEz-AdNHkasjditVG6fbbksBPBYyeeA9bJ848kqZHY9sZ1D_aJSG--AoTKQQKmGOse7iu25u6fFrCQXxRPPxwhTEkIgxx_Ra", "width": 2592, "html_attributions": ["<a href=\"https://maps.google.com/maps/contrib/113468188718309781311\">Sharath Babu</a>"], "height": 1456}], "scope": "GOOGLE", "business_status": "OPERATIONAL", "types": ["hospital", "health", "point_of_interest", "establishment"], "icon": "https://maps.gstatic.com/mapfiles/place_api/icons/v1/png_71/generic_business-71.png"}, {"rating": 4.7, "user_ratings_total": 26, "name": "Nimhans Child Psychiatry Centre", "reference": "ChIJJYSrHroVrjsRR8gx9W42joo", "geometry": {"location": {"lat": 12.9387795, "lng": 77.59528019999999}, "viewport": {"northeast": {"lat": 12.9400445802915, "lng": 77.5968430302915}, "southwest": {"lat": 12.9373466197085, "lng": 77.59414506970849}}}, "opening_hours": {"open_now": true}, "place_id": "ChIJJYSrHroVrjsRR8gx9W42joo", "plus_code": {"global_code": "7J4VWHQW+G4", "compound_code": "WHQW+G4 Bengaluru, Karnataka, India"}, "vicinity": "17, 8th Main Road, 1st Block, Someshwara Nagar, Jayanagar, Bengaluru", "photos": [{"photo_reference": "ATtYBwJ7yMZXUSGwTE7IlqNsYj9JHWTxw-taLczYfLgJI7cZlDQNjeRgzpoQRaA4q5fSpzeplgjT1CB_4Ap6mMcHSMg4TV5gbYLfsi1Bp9eWOm2aTRVFEd3_yz74H0uAtZhhS9ob8HDeheuqCB4GIUBA5Op54Ur4u24JAg6PDub4wy1P2aRK", "width": 4000, "html_attributions": ["<a href=\"https://maps.google.com/maps/contrib/116320164241720186988\">V</a>"], "height": 3000}], "scope": "GOOGLE", "business_status": "OPERATIONAL", "types": ["hospital", "health", "point_of_interest", "establishment"], "icon": "https://maps.gstatic.com/mapfiles/place_api/icons/v1/png_71/hospital-71.png"}, {"rating": 3, "user_ratings_total": 2, "name": "NIMHANS Child Psychiatry Centre", "reference": "ChIJ72n-HLoVrjsRLE0Gb4Oo-n8", "geometry": {"location": {"lat": 12.938799, "lng": 77.5954301}, "viewport": {"northeast": {"lat": 12.9401136302915, "lng": 77.59693923029151}, "southwest": {"lat": 12.9374156697085, "lng": 77.5942412697085}}}, "opening_hours": {"open_now": true}, "place_id": "ChIJ72n-HLoVrjsRLE0Gb4Oo-n8", "plus_code": {"global_code": "7J4VWHQW+G5", "compound_code": "WHQW+G5 Bengaluru, Karnataka, India"}, "vicinity": "17, 8th Main Road, 1st Block, Someshwara Nagar, Jayanagar, Bengaluru", "photos": [{"photo_reference": "ATtYBwLCCaGCEmgrpfj3dwOws69GQQDByGUq_p0cC67hDAoZZKnsMLXXDreTys50FT3udR56_KTc30c_Yo8oJF0kQisePHOUEP8iWNibofUwnWPtRqQ3Pvm2eqminBR4y6UONQiFE1I8A-ndNRZvdxz5azj6G_3QNjyHJsbbsRwWys34ggL-", "width": 3883, "html_attributions": ["<a href=\"https://maps.google.com/maps/contrib/115394773447303504309\">Ashok J</a>"], "height": 2495}], "scope": "GOOGLE", "business_status": "OPERATIONAL", "types": ["hospital", "health", "point_of_interest", "establishment"], "icon": "https://maps.gstatic.com/mapfiles/place_api/icons/v1/png_71/hospital-71.png"}, {"rating": 4, "user_ratings_total": 25, "name": "CGHS Wellness Centre", "reference": "ChIJY9ENjpQVrjsRC4txJCfAcvQ", "geometry": {"location": {"lat": 12.941697, "lng": 77.58031299999999}, "viewport": {"northeast": {"lat": 12.9430444802915, "lng": 77.5815727802915}, "southwest": {"lat": 12.9403465197085, "lng": 77.57887481970849}}}, "opening_hours": {"open_now": false}, "place_id": "ChIJY9ENjpQVrjsRC4txJCfAcvQ", "plus_code": {"global_code": "7J4VWHRJ+M4", "compound_code": "WHRJ+M4 Bengaluru, Karnataka, India"}, "vicinity": "near Vijaya college, 57/190, Rashtriya Vidyalaya Road, 2nd Block, Jayanagar, Bengaluru", "photos": [{"photo_reference": "ATtYBwJZppV1eFwTOQgaP__0cWpml_l_08wP0e1EXOrB4S1S3JQIAGVfatT_n15isfr-6sNV0Lb7M2gF-7hmWywZ_otMp-5x9VfE7No0gk4caoqXFFv-Y4Gx8fTtTtCLc97YqKjSzqYwv5oVz_7b8NG1Q3wnhsuSUHHQSuycBRtArSb3Lb_q", "width": 4608, "html_attributions": ["<a href=\"https://maps.google.com/maps/contrib/102329578755087554318\">PR PAI</a>"], "height": 3456}], "scope": "GOOGLE", "business_status": "OPERATIONAL", "types": ["hospital", "health", "point_of_interest", "establishment"], "icon": "https://maps.gstatic.com/mapfiles/place_api/icons/v1/png_71/hospital-71.png"}, {"rating": 3.4, "user_ratings_total": 89, "name": "Maiya Multi Speciality Hospital", "reference": "ChIJGwf8GL4VrjsR5aUELy5dDpw", "geometry": {"location": {"lat": 12.9425973, "lng": 77.5854291}, "viewport": {"northeast": {"lat": 12.9439471802915, "lng": 77.5866924802915}, "southwest": {"lat": 12.9412492197085, "lng": 77.58399451970848}}}, "opening_hours": {"open_now": true}, "place_id": "ChIJGwf8GL4VrjsR5aUELy5dDpw", "plus_code": {"global_code": "7J4VWHVP+25", "compound_code": "WHVP+25 Bengaluru, Karnataka, India"}, "vicinity": "34, 10th Main Road, Jayanagar 1st Block, Jayanagar, Bengaluru", "photos": [{"photo_reference": "ATtYBwIQ_EUFEDkSWgJ0Q6zhqtUSqxmsHielVkmE-9hJEdTkSbHrcELsfA2Vr46AFeF4dau-VWlqPp8MQj0dZBi0ltIrE7oY8cr-WI6EH44C_yJM-04wX6_YUvtEwuO0vvWSGD51QGhpMqgl9JQMxjEXF9G7jy_hGstZrvwtWyFyCaKL5PGc", "width": 2048, "html_attributions": ["<a href=\"https://maps.google.com/maps/contrib/113699306858929303574\">Maiya Multi Speciality Hospital</a>"], "height": 1536}], "scope": "GOOGLE", "business_status": "OPERATIONAL", "types": ["hospital", "health", "point_of_interest", "establishment"], "icon": "https://maps.gstatic.com/mapfiles/place_api/icons/v1/png_71/hospital-71.png"}, {"name": "Vasavi Medical And General Store", "reference": "ChIJ_a1bzw4VrjsRdHRexdT7MKc", "geometry": {"location": {"lat": 12.951066, "lng": 77.5910329}, "viewport": {"northeast": {"lat": 12.9524172802915, "lng": 77.59237343029149}, "southwest": {"lat": 12.9497193197085, "lng": 77.58967546970848}}}, "opening_hours": {"open_now": true}, "place_id": "ChIJ_a1bzw4VrjsRdHRexdT7MKc", "plus_code": {"global_code": "7J4VXH2R+CC", "compound_code": "XH2R+CC Bengaluru, Karnataka, India"}, "vicinity": "#19,S No 5,Chunchgatta Main Road, Ganapathipura Main Road, Yelachenahallli, Bengaluru", "scope": "GOOGLE", "business_status": "OPERATIONAL", "types": ["hospital", "health", "point_of_interest", "establishment"], "icon": "https://maps.gstatic.com/mapfiles/place_api/icons/v1/png_71/hospital-71.png"}, {"rating": 3, "user_ratings_total": 6, "name": "Mahabodhi Karuna Hospital Arogya Seva Kendra", "reference": "ChIJIwQK7MAVrjsR9BLUHzb7hqk", "geometry": {"location": {"lat": 12.9464086, "lng": 77.5894404}, "viewport": {"northeast": {"lat": 12.9477489802915, "lng": 77.5907900302915}, "southwest": {"lat": 12.9450510197085, "lng": 77.5880920697085}}}, "place_id": "ChIJIwQK7MAVrjsR9BLUHzb7hqk", "plus_code": {"global_code": "7J4VWHWQ+HQ", "compound_code": "WHWQ+HQ Bengaluru, Karnataka, India"}, "vicinity": "Siddapura Rd, 1st Block, Siddapura, Mavalli, Bengaluru", "photos": [{"photo_reference": "ATtYBwKX3nSQYGlElZCdC1Cxxik2FVO9rQ2WhRZeWuxBRoqFs7nnI1f-1g2zWx6wIBb6iqPenoZRGh2DlQ1v_LzG_1O0qk6xqeFUDSZ1HL-vrrrPaP7RJ2mGg0bsLmBGhaiC6EQTIbt7Y7wJkXaven6NpZMgnvf29UPEC5PLSRw9dJVqAuvX", "width": 4032, "html_attributions": ["<a href=\"https://maps.google.com/maps/contrib/115325720488588192315\">Deepali</a>"], "height": 3024}], "scope": "GOOGLE", "business_status": "OPERATIONAL", "types": ["hospital", "health", "point_of_interest", "establishment"], "icon": "https://maps.gstatic.com/mapfiles/place_api/icons/v1/png_71/hospital-71.png"}, {"name": "Asha.b", "reference": "ChIJF7leqn0VrjsR2SFSwX0RM-0", "geometry": {"location": {"lat": 12.9464914, "lng": 77.59134619999999}, "viewport": {"northeast": {"lat": 12.9478831302915, "lng": 77.5927168802915}, "southwest": {"lat": 12.9451851697085, "lng": 77.5900189197085}}}, "place_id": "ChIJF7leqn0VrjsR2SFSwX0RM-0", "plus_code": {"global_code": "7J4VWHWR+HG", "compound_code": "WHWR+HG Bengaluru, Karnataka, India"}, "vicinity": "960, 6th Cross Road, B Venkata Reddy Nagar, Siddapura, Mavalli, Bengaluru", "scope": "GOOGLE", "business_status": "OPERATIONAL", "types": ["hospital", "health", "point_of_interest", "establishment"], "icon": "https://maps.gstatic.com/mapfiles/place_api/icons/v1/png_71/hospital-71.png"}, {"name": "Gandichow", "reference": "ChIJqwOAYuMVrjsRDBa__hazqBw", "geometry": {"location": {"lat": 12.9462089, "lng": 77.5909576}, "viewport": {"northeast": {"lat": 12.9475699802915, "lng": 77.59231243029151}, "southwest": {"lat": 12.9448720197085, "lng": 77.5896144697085}}}, "place_id": "ChIJqwOAYuMVrjsRDBa__hazqBw", "plus_code": {"global_code": "7J4VWHWR+F9", "compound_code": "WHWR+F9 Bengaluru, Karnataka, India"}, "vicinity": "B Venkata Reddy Nagar, Mavalli, Bengaluru", "scope": "GOOGLE", "business_status": "OPERATIONAL", "types": ["hospital", "health", "point_of_interest", "establishment"], "icon": "https://maps.gstatic.com/mapfiles/place_api/icons/v1/png_71/hospital-71.png"}]}