{"status": "OK", "next_page_token": "ATtYBwKJkwgI2lHqvSN34k_YbS_VKTULNV56qjRNJwS0muZToakG9T25zlPusL8tiGrSZDZYYDprE4psPTDnmQBtPNtE1RB8a1BaWcaUApGLF4ue69Yt9yTd8_uo5guS748j9qbd8IghCtkzRs6823YNh91B9guqFMOlqUwpBJt-wPnvuwLamOqDsgYtpugAgK0wv25IOiq0FP8yCSW56c2CoqSCnXOi5MQLtIQXXkYk-27DUrgAjrzIyqhmTS3ocN72AQIQOZCMl7km8WaL5h5w9T7OX5WTQ54iEpYlSetcXpqAfKT0T1xXHZdMkI5r6EslFPtTpHDEcv0bfGsTsBF4aJ_gnJouHJlCUCDM6AVIeDo_AZeCNBMLxLYVlN8DNZGYDvW7uSjV5GFaVNxyIrsCVADMAUaPZbvBY2ChnPSaFjjhXC_1Jl66mQ", "html_attributions": [], "results": [{"rating": 4, "user_ratings_total": 2, "name": "Apple Mediclinic", "reference": "ChIJ2_Ow7_8YrjsRTlgPd290F2g", "geometry": {"location": {"lat": 13.1042326, "lng": 77.6069555}, "viewport": {"northeast": {"lat": 13.1056676302915, "lng": 77.6082990302915}, "southwest": {"lat": 13.1029696697085, "lng": 77.60560106970848}}}, "opening_hours": {"open_now": true}, "place_id": "ChIJ2_Ow7_8YrjsRTlgPd290F2g", "plus_code": {"global_code": "7J5V4J34+MQ", "compound_code": "4J34+MQ Bengaluru, Karnataka, India"}, "vicinity": "679, Kogilu Main Road, Maruthi Nagar, Yelahanka, Bengaluru", "photos": [{"photo_reference": "ATtYBwI7RL4SdyFh82iMCyDI7sDPBMrNvlim7_grWu3RWJpOKXrZHaJUeBz2sfcPMqOhaBXASuJNzGCfjgXBB5H7D3vOf7AL_KLU9W3mmlqe5hzAgVzRbL6nRCAf33t72KO9mzQgiKt4bSFS7s-SCtXwIu-Sx6HoPdQrlU6lHt4worBfQ6Gh", "width": 3024, "html_attributions": ["<a href=\"https://maps.google.com/maps/contrib/100279249599759203380\">Ahmed Alkhateb</a>"], "height": 4032}], "scope": "GOOGLE", "business_status": "OPERATIONAL", "types": ["doctor", "hospital", "health", "point_of_interest", "establishment"], "icon": "https://maps.gstatic.com/mapfiles/place_api/icons/v1/png_71/generic_business-71.png"}, {"rating": 4, "user_ratings_total": 2, "name": "Maruthi Medicals", "reference": "ChIJ8w8XnP8YrjsRJHGJGGILj4Q", "geometry": {"location": {"lat": 13.1042891, "lng": 77.6050565}, "viewport": {"northeast": {"lat": 13.1056815302915, "lng": 77.6064054302915}, "southwest": {"lat": 13.1029835697085, "lng": 77.6037074697085}}}, "opening_hours": {"open_now": true}, "place_id": "ChIJ8w8XnP8YrjsRJHGJGGILj4Q", "plus_code": {"global_code": "7J5V4J34+P2", "compound_code": "4J34+P2 Bengaluru, Karnataka, India"}, "vicinity": "Shankrappa Layout, Prakruthi Nagar, Kogilu, Bengaluru", "photos": [{"photo_reference": "ATtYBwLY7M_bePQ2ekaX_Ygq6VD5rIE4QXzPU9h_mzMHM8Q1iSfvNlOdb26xjdWjAzTSdmPtzxrntbqVPxJgSggzV_8AF5THwKDaTVdfYZ0z-Lpf2EOT0L6WrgxTVD3_-9D5jaKztLa9mj5_T0N6SvoqMO6kwQnUmpxkdFfdOfVP720d4EGy", "width": 1280, "html_attributions": ["<a href=\"https://maps.google.com/maps/contrib/118363964971561935975\">Maruthi Medicals</a>"], "height": 960}], "scope": "GOOGLE", "business_status": "OPERATIONAL", "types": ["hospital", "health", "point_of_interest", "establishment"], "icon": "https://maps.gstatic.com/mapfiles/place_api/icons/v1/png_71/hospital-71.png"}, {"rating": 5, "user_ratings_total": 6, "name": "Womens Massage Clinic", "reference": "ChIJF57tc_8YrjsRLPNndm7lt3o", "geometry": {"location": {"lat": 13.1048576, "lng": 77.6044221}, "viewport": {"northeast": {"lat": 13.1061940802915, "lng": 77.60573718029151}, "southwest": {"lat": 13.1034961197085, "lng": 77.60303921970849}}}, "opening_hours": {"open_now": true}, "place_id": "ChIJF57tc_8YrjsRLPNndm7lt3o", "plus_code": {"global_code": "7J5V4J33+WQ", "compound_code": "4J33+WQ Bengaluru, Karnataka, India"}, "vicinity": "Kogilu Cross, Kogilu Rd, Maruthi Nagar, Yelahanka, Bengaluru", "scope": "GOOGLE", "business_status": "OPERATIONAL", "types": ["jewelry_store", "hospital", "doctor", "health", "point_of_interest", "store", "establishment"], "icon": "https://maps.gstatic.com/mapfiles/place_api/icons/v1/png_71/generic_business-71.png"}, {"rating": 4.8, "user_ratings_total": 1827, "name": "Cytecare Cancer Hospitals Bangalore", "reference": "ChIJud2QhR0ZrjsRjX9LXidg1GE", "geometry": {"location": {"lat": 13.1183348, "lng": 77.6083878}, "viewport": {"northeast": {"lat": 13.1197024802915, "lng": 77.6099260302915}, "southwest": {"lat": 13.1170045197085, "lng": 77.6072280697085}}}, "opening_hours": {"open_now": true}, "place_id": "ChIJud2QhR0ZrjsRjX9LXidg1GE", "plus_code": {"global_code": "7J5V4J95+89", "compound_code": "4J95+89 Bengaluru, Karnataka, India"}, "vicinity": "Near, Venkatala, Bagalur Cross, Yelahanka, Bengaluru", "photos": [{"photo_reference": "ATtYBwIc035Um_W1utm04WFBCiOizH3FvkNNyTBHzX51ggtLgpbiKVLlwPv8hnydMjd7HA-U3C9rtQZ5imAvsFP7omJF8_PeS6FVfIOmNxzV_0yVSTcZGeDkiJ2plO7_FlKGtC0WDliVzTYCJOt2Dv4hKifhSXmecCaTaI7w7G2GXqsnJD4q", "width": 800, "html_attributions": ["<a href=\"https://maps.google.com/maps/contrib/108695804426989054011\">Young Guns Sports</a>"], "height": 475}], "scope": "GOOGLE", "business_status": "OPERATIONAL", "types": ["hospital", "health", "point_of_interest", "establishment"], "icon": "https://maps.gstatic.com/mapfiles/place_api/icons/v1/png_71/generic_business-71.png"}, {"name": "Sri VENKATESHWARA CLINIC", "reference": "ChIJby7ucbIZrjsR_xwdmEslAuM", "geometry": {"location": {"lat": 13.1109078, "lng": 77.6053439}, "viewport": {"northeast": {"lat": 13.1122533302915, "lng": 77.6066925802915}, "southwest": {"lat": 13.1095553697085, "lng": 77.60399461970849}}}, "place_id": "ChIJby7ucbIZrjsR_xwdmEslAuM", "plus_code": {"global_code": "7J5V4J64+94", "compound_code": "4J64+94 Bengaluru, Karnataka, India"}, "vicinity": "Unnamed Road, Venkatala II Division, Maruthi Nagar, Yelahanka, Bengaluru", "photos": [{"photo_reference": "ATtYBwIBpY-6fh-HU4CpFjKXTvm0SY4Q_Qn3ItG1X2hYaUWihvN2egkCNoTIqwj11grJ4FlSl3iJZUwite72lHhvoFws1DIHzd75i_rz3qYX4ahr0MdLiLL6Abfe2Zi5QS0Y_84ioRyDmrDOVLPbIndPBphPq455z3PCqWErXgJNsw6iZEs6", "width": 4608, "html_attributions": ["<a href=\"https://maps.google.com/maps/contrib/109987719321762989854\">Haisam Rides</a>"], "height": 2304}], "scope": "GOOGLE", "business_status": "OPERATIONAL", "types": ["hospital", "health", "point_of_interest", "establishment"], "icon": "https://maps.gstatic.com/mapfiles/place_api/icons/v1/png_71/hospital-71.png"}, {"name": "Amin", "reference": "ChIJq7mNA-kZrjsRYOSSryT4bCI", "geometry": {"location": {"lat": 13.1045365, "lng": 77.60882889999999}, "viewport": {"northeast": {"lat": 13.1058539802915, "lng": 77.61017898029151}, "southwest": {"lat": 13.1031560197085, "lng": 77.60748101970849}}}, "opening_hours": {"open_now": false}, "place_id": "ChIJq7mNA-kZrjsRYOSSryT4bCI", "plus_code": {"global_code": "7J5V4J35+RG", "compound_code": "4J35+RG Bengaluru, Karnataka, India"}, "vicinity": "Kogilu Main Road, Prakruthi Nagar, Yelahanka, Bengaluru", "scope": "GOOGLE", "business_status": "OPERATIONAL", "types": ["hospital", "health", "point_of_interest", "establishment"], "icon": "https://maps.gstatic.com/mapfiles/place_api/icons/v1/png_71/hospital-71.png"}, {"name": "New Maruti Hospital", "reference": "ChIJVTnmNicZrjsRx4XHX3wtF7I", "geometry": {"location": {"lat": 13.1052498, "lng": 77.6060543}, "viewport": {"northeast": {"lat": 13.1066057802915, "lng": 77.60754783029151}, "southwest": {"lat": 13.1039078197085, "lng": 77.6048498697085}}}, "place_id": "ChIJVTnmNicZrjsRx4XHX3wtF7I", "plus_code": {"global_code": "7J5V4J44+3C", "compound_code": "4J44+3C Bengaluru, Karnataka, India"}, "vicinity": "Maruthi Nagar, Yelahanka, Bengaluru", "scope": "GOOGLE", "business_status": "OPERATIONAL", "types": ["hospital", "health", "point_of_interest", "establishment"], "icon": "https://maps.gstatic.com/mapfiles/place_api/icons/v1/png_71/hospital-71.png"}, {"rating": 4.4, "user_ratings_total": 9, "name": "\u0c9c\u0cc0\u0cb5\u0ca8\u0ccd \u0c86\u0cb8\u0ccd\u0caa\u0ca4\u0ccd\u0cb0\u0cc6 Jeevan Hospital", "reference": "ChIJQ1BLQ_wYrjsRcPQEzcMAHnw", "geometry": {"location": {"lat": 13.111109, "lng": 77.60377799999999}, "viewport": {"northeast": {"lat": 13.1124438802915, "lng": 77.60512528029149}, "southwest": {"lat": 13.1097459197085, "lng": 77.60242731970848}}}, "opening_hours": {"open_now": true}, "place_id": "ChIJQ1BLQ_wYrjsRcPQEzcMAHnw", "plus_code": {"global_code": "7J5V4J63+CG", "compound_code": "4J63+CG Bengaluru, Karnataka, India"}, "vicinity": "1st Cross,1st main , Attur layout, Yelahanka Newtown,, Bangalore, Bengaluru", "photos": [{"photo_reference": "ATtYBwL90ag-x14aCHuyU04RBoFmwK0I_MLhVJtrb_dp39LVnV9LQzp8X7VMQZMUE_9ec3k7YUgITdYTXfsIw9w2j44hLFgo1OR0Nb-p2Hs9kGgma14nqhXQgXJtjD811RoYm51rcwFU_1TFCUmv-XmEcs6PR-cV68Fr0qN8Mv2-4H4wR2zK", "width": 1024, "html_attributions": ["<a href=\"https://maps.google.com/maps/contrib/106727761034564774540\">Lakshmi HN</a>"], "height": 578}], "scope": "GOOGLE", "business_status": "OPERATIONAL", "types": ["hospital", "health", "point_of_interest", "establishment"], "icon": "https://maps.gstatic.com/mapfiles/place_api/icons/v1/png_71/hospital-71.png"}, {"name": "Chand Tailor shop", "reference": "ChIJJbps8zsZrjsR32L_Kgb1On4", "geometry": {"location": {"lat": 13.1040658, "lng": 77.60686129999999}, "viewport": {"northeast": {"lat": 13.1055810802915, "lng": 77.6081997302915}, "southwest": {"lat": 13.1028831197085, "lng": 77.60550176970848}}}, "place_id": "ChIJJbps8zsZrjsR32L_Kgb1On4", "plus_code": {"global_code": "7J5V4J34+JP", "compound_code": "4J34+JP Bengaluru, Karnataka, India"}, "vicinity": "near Maruti hospital, Munitimiah layout, near Maruti hospital, Kogilu Main Road, Bengaluru", "scope": "GOOGLE", "business_status": "OPERATIONAL", "types": ["hospital", "health", "point_of_interest", "establishment"], "icon": "https://maps.gstatic.com/mapfiles/place_api/icons/v1/png_71/hospital-71.png"}, {"rating": 2.5, "user_ratings_total": 20, "name": "Maruthi Hospital", "reference": "ChIJk4Zk5f8YrjsRkoKcYcc9eNM", "geometry": {"location": {"lat": 13.104294, "lng": 77.6060084}, "viewport": {"northeast": {"lat": 13.1056854802915, "lng": 77.60735748029151}, "southwest": {"lat": 13.1029875197085, "lng": 77.60465951970849}}}, "opening_hours": {"open_now": true}, "place_id": "ChIJk4Zk5f8YrjsRkoKcYcc9eNM", "plus_code": {"global_code": "7J5V4J34+PC", "compound_code": "4J34+PC Bengaluru, Karnataka, India"}, "vicinity": "Shankrappa Layout, Prakruthi Nagar, Kogilu, Bengaluru", "photos": [{"photo_reference": "ATtYBwJEqkN_Dky3TMVLD5x8Rm6C54BLSnsstdbHWgu0Jtp7G8W-wm4wZviQ8T_cYg7ODGAzBuXIphKqJPIY5ZAriI5CV7IyyLSdd4CLCYYdGryvhtSnZJAhPs-_fCIDCte9rL4bOuF3gIPfvZ9n5C-PuqKEP70iKx6fbj7D92LHJomEsWh_", "width": 2448, "html_attributions": ["<a href=\"https://maps.google.com/maps/contrib/113437211954646020075\">Freedom All</a>"], "height": 3264}], "scope": "GOOGLE", "business_status": "OPERATIONAL", "types": ["hospital", "health", "point_of_interest", "establishment"], "icon": "https://maps.gstatic.com/mapfiles/place_api/icons/v1/png_71/hospital-71.png"}, {"name": "Ayurveda treatment Center", "reference": "ChIJlRoNdP8YrjsRCaeCZH33PUw", "geometry": {"location": {"lat": 13.1045135, "lng": 77.6045997}, "viewport": {"northeast": {"lat": 13.1058257302915, "lng": 77.6059510802915}, "southwest": {"lat": 13.1031277697085, "lng": 77.6032531197085}}}, "place_id": "ChIJlRoNdP8YrjsRCaeCZH33PUw", "plus_code": {"global_code": "7J5V4J33+RR", "compound_code": "4J33+RR Bengaluru, Karnataka, India"}, "vicinity": "6,, Kogilu Main Road, Maruthi Nagar, Yelahanka, Bengaluru", "scope": "GOOGLE", "business_status": "OPERATIONAL", "types": ["hospital", "health", "point_of_interest", "establishment"], "icon": "https://maps.gstatic.com/mapfiles/place_api/icons/v1/png_71/hospital-71.png"}, {"rating": 5, "user_ratings_total": 1, "name": "Brains Hospital", "reference": "ChIJ0QZ7P8EZrjsRXdlwPdxuVnU", "geometry": {"location": {"lat": 13.1183406, "lng": 77.60826949999999}, "viewport": {"northeast": {"lat": 13.1197512302915, "lng": 77.60974908029151}, "southwest": {"lat": 13.1170532697085, "lng": 77.6070511197085}}}, "place_id": "ChIJ0QZ7P8EZrjsRXdlwPdxuVnU", "plus_code": {"global_code": "7J5V4J95+88", "compound_code": "4J95+88 Bengaluru, Karnataka, India"}, "vicinity": "near Bagalur Cross, Cytecare Hospitals, Venkatala, near Bagalur Cross, BSF Campus, Yelahanka, Bengaluru", "photos": [{"photo_reference": "ATtYBwLpfdOtm1U8ViAQQTtN1Cjc422PqzsI4h-4zl_zKxMI4emKYfI4E-gjNsmeoeU2r_0SMbzkBUXSzfaPdO8xbPltUlQgwsk0z8iiynJ105f8u0dhUmvYuSTSbm5QspG87_X0bnc_iX178TJfKAWQbMer7Xw4RIJr5YPsr8__lzdmPsqH", "width": 3120, "html_attributions": ["<a href=\"https://maps.google.com/maps/contrib/104243371080335198067\">Nikhil Ranjan</a>"], "height": 4160}], "scope": "GOOGLE", "business_status": "OPERATIONAL", "types": ["hospital", "doctor", "health", "point_of_interest", "establishment"], "icon": "https://maps.gstatic.com/mapfiles/place_api/icons/v1/png_71/hospital-71.png"}, {"rating": 3.5, "user_ratings_total": 6, "name": "NDR Multi Speciality Hospital", "reference": "ChIJA6ncMP8YrjsRYltMtVqIxas", "geometry": {"location": {"lat": 13.1050594, "lng": 77.6027897}, "viewport": {"northeast": {"lat": 13.1063019302915, "lng": 77.60427398029151}, "southwest": {"lat": 13.1036039697085, "lng": 77.6015760197085}}}, "place_id": "ChIJA6ncMP8YrjsRYltMtVqIxas", "plus_code": {"global_code": "7J5V4J43+24", "compound_code": "4J43+24 Bengaluru, Karnataka, India"}, "vicinity": "114, Kogilu Main Road, K B Sandra, Maruthi Nagar, Yelahanka, Bengaluru", "photos": [{"photo_reference": "ATtYBwKMbYB-SEI8dIGskHD2spXDFMGIJy_xHAhVEhOp0s0REXrBzurVVbQQ9Y9DeWx2SJYmKS8ZOL72JCyHNruwF3PVQCr-qdOuCzDsnmgMoQl7cUGcMkGucoGsURdSIit6N_e0mcdw1O4mE30RJz8iE6h21ehbcWsZ78CY_MVCUAV8mZyE", "width": 2000, "html_attributions": ["<a href=\"https://maps.google.com/maps/contrib/115532348172679425386\">Ananth Ram A</a>"], "height": 1335}], "scope": "GOOGLE", "business_status": "OPERATIONAL", "types": ["hospital", "health", "point_of_interest", "establishment"], "icon": "https://maps.gstatic.com/mapfiles/place_api/icons/v1/png_71/hospital-71.png"}, {"rating": 4.7, "user_ratings_total": 6, "name": "Shree dental wellness", "reference": "ChIJA9hFOPkYrjsRYL1Py6v9Buw", "geometry": {"location": {"lat": 13.1073273, "lng": 77.6012287}, "viewport": {"northeast": {"lat": 13.1084887302915, "lng": 77.60291473029149}, "southwest": {"lat": 13.1057907697085, "lng": 77.60021676970848}}}, "opening_hours": {"open_now": true}, "place_id": "ChIJA9hFOPkYrjsRYL1Py6v9Buw", "plus_code": {"global_code": "7J5V4J42+WF", "compound_code": "4J42+WF Bengaluru, Karnataka, India"}, "vicinity": "K B Sandra, Venkatala Village, Chowdeshwari Layout, Yelahanka, Bengaluru", "scope": "GOOGLE", "business_status": "OPERATIONAL", "types": ["hospital", "health", "point_of_interest", "establishment"], "icon": "https://maps.gstatic.com/mapfiles/place_api/icons/v1/png_71/hospital-71.png"}, {"rating": 5, "user_ratings_total": 21, "name": "AAYURJISHA WOMEN'S CLINIC & AYURVEDIC MEDICINE DISPENSERY", "reference": "ChIJJyfnTf8YrjsR6lsJZKpnISw", "geometry": {"location": {"lat": 13.1040906, "lng": 77.6023111}, "viewport": {"northeast": {"lat": 13.1053935302915, "lng": 77.60367463029151}, "southwest": {"lat": 13.1026955697085, "lng": 77.6009766697085}}}, "opening_hours": {"open_now": true}, "place_id": "ChIJJyfnTf8YrjsR6lsJZKpnISw", "plus_code": {"global_code": "7J5V4J32+JW", "compound_code": "4J32+JW Bengaluru, Karnataka, India"}, "vicinity": "#8/2, Gaurav Complex, Kogilu cross, Kogilu Main Road, Maruthi Nagar, Yelahanka, Bengaluru", "photos": [{"photo_reference": "ATtYBwKxI5jGKEyzEULsfwpgLZjly4B6x1c69QIRMa9Rey3AV0M5y1fgUbmhdAkyPXNBqu9VEUaUg5LD3T3nP7pOOJz3mL2DkMR7kWIRHAMHVSohFPxXbtduk0VFRQwpEbY-R3aY6dDcrH2KDVf_SGRXN96NDUKG29WiIiL9QpYANNlSOPx3", "width": 4096, "html_attributions": ["<a href=\"https://maps.google.com/maps/contrib/117026524577521158913\">Kodanda Rama</a>"], "height": 2304}], "scope": "GOOGLE", "business_status": "OPERATIONAL", "types": ["hospital", "health", "point_of_interest", "establishment"], "icon": "https://maps.gstatic.com/mapfiles/place_api/icons/v1/png_71/hospital-71.png"}, {"rating": 3, "user_ratings_total": 1, "name": "SARANALAYA HOSPITAL MULTISPECIALITY", "reference": "ChIJmc0wux4ZrjsRwBDB8GjE0EE", "geometry": {"location": {"lat": 13.1214726, "lng": 77.6125742}, "viewport": {"northeast": {"lat": 13.1228263302915, "lng": 77.6138673302915}, "southwest": {"lat": 13.1201283697085, "lng": 77.61116936970849}}}, "place_id": "ChIJmc0wux4ZrjsRwBDB8GjE0EE", "plus_code": {"global_code": "7J5V4JC7+H2", "compound_code": "4JC7+H2 Bengaluru, Karnataka, India"}, "vicinity": "NO1&2, ,Baglur Cross, International road, Anandnagar, Hebbal, Bengaluru", "scope": "GOOGLE", "business_status": "OPERATIONAL", "types": ["hospital", "health", "point_of_interest", "establishment"], "icon": "https://maps.gstatic.com/mapfiles/place_api/icons/v1/png_71/hospital-71.png"}, {"rating": 3.1, "user_ratings_total": 72, "name": "Om Shakthi Hospital", "reference": "ChIJZTgPux4ZrjsRF5MJU5A95KA", "geometry": {"location": {"lat": 13.1215883, "lng": 77.61259129999999}, "viewport": {"northeast": {"lat": 13.1229902802915, "lng": 77.6139456302915}, "southwest": {"lat": 13.1202923197085, "lng": 77.61124766970849}}}, "opening_hours": {"open_now": true}, "place_id": "ChIJZTgPux4ZrjsRF5MJU5A95KA", "plus_code": {"global_code": "7J5V4JC7+J2", "compound_code": "4JC7+J2 Bengaluru, Karnataka, India"}, "vicinity": "Vinayak Nagar, Kattigenahalli, Bengaluru", "photos": [{"photo_reference": "ATtYBwI5ab77OoM3T9qle4X2I4PAzMWKRKI3fPOpXTMckJn7SZCk5_O2XJAwbkSnMAmT7Xz0kdVOWhT8Am7C5XIn4ew3xYCNaqZV8bU9jZrfy85q7xB0I7bDBhFfLhVliGTJqQvssPt-1BM2-qyv4W2ee07ZHJXgypzPhBR-smkvyOtEEI4", "width": 640, "html_attributions": ["<a href=\"https://maps.google.com/maps/contrib/101135424811843461016\">Om Shakthi Hospital</a>"], "height": 640}], "scope": "GOOGLE", "business_status": "OPERATIONAL", "types": ["hospital", "health", "point_of_interest", "establishment"], "icon": "https://maps.gstatic.com/mapfiles/place_api/icons/v1/png_71/hospital-71.png"}, {"rating": 4, "user_ratings_total": 1, "name": "Manjunatha Medicals", "reference": "ChIJrzDFURkZrjsRNkBovIdtYoE", "geometry": {"location": {"lat": 13.1214625, "lng": 77.614001}, "viewport": {"northeast": {"lat": 13.1228529802915, "lng": 77.6153559302915}, "southwest": {"lat": 13.1201550197085, "lng": 77.6126579697085}}}, "opening_hours": {"open_now": true}, "place_id": "ChIJrzDFURkZrjsRNkBovIdtYoE", "plus_code": {"global_code": "7J5V4JC7+HJ", "compound_code": "4JC7+HJ Bengaluru, Karnataka, India"}, "vicinity": "98, Bagalur Main Road, Vinayak Nagar, Kattigenahalli, Bengaluru", "scope": "GOOGLE", "business_status": "OPERATIONAL", "types": ["hospital", "health", "point_of_interest", "establishment"], "icon": "https://maps.gstatic.com/mapfiles/place_api/icons/v1/png_71/hospital-71.png"}, {"rating": 5, "user_ratings_total": 2, "name": "Chirayu Clinic", "reference": "ChIJ4ZnZURkZrjsRYGmoXS2F9yc", "geometry": {"location": {"lat": 13.1214916, "lng": 77.6139997}, "viewport": {"northeast": {"lat": 13.1228599302915, "lng": 77.61521458029151}, "southwest": {"lat": 13.1201619697085, "lng": 77.61251661970849}}}, "opening_hours": {"open_now": true}, "place_id": "ChIJ4ZnZURkZrjsRYGmoXS2F9yc", "plus_code": {"global_code": "7J5V4JC7+HH", "compound_code": "4JC7+HH Bengaluru, Karnataka, India"}, "vicinity": "1st Main Road, 5th cross, Vinayak Nagar, Kattigenahalli, Bengaluru", "scope": "GOOGLE", "business_status": "OPERATIONAL", "types": ["hospital", "health", "point_of_interest", "establishment"], "icon": "https://maps.gstatic.com/mapfiles/place_api/icons/v1/png_71/hospital-71.png"}, {"rating": 5, "user_ratings_total": 23, "name": "iDentist Family Dental Care", "reference": "ChIJl4rMURkZrjsRcB9VTtkKxDY", "geometry": {"location": {"lat": 13.1209781, "lng": 77.6164419}, "viewport": {"northeast": {"lat": 13.1223818802915, "lng": 77.6177955302915}, "southwest": {"lat": 13.1196839197085, "lng": 77.6150975697085}}}, "opening_hours": {"open_now": true}, "place_id": "ChIJl4rMURkZrjsRcB9VTtkKxDY", "plus_code": {"global_code": "7J5V4JC8+9H", "compound_code": "4JC8+9H Bengaluru, Karnataka, India"}, "vicinity": "R.C.B. Complex, Site-01, #102, 1st Floor, 8th Main, Vinayaka Nagar, Opposite Krishna Shelton Commercial Gate, Bagalur Cross, IAF Post, Yelahanka, Bengaluru", "photos": [{"photo_reference": "ATtYBwK15XXapRuNdE6dG-mByLmltrr8jbPhwIaPdqZldAadzJVEUhaSYSUDzfbcpQ6X5vukTOSamYr_64Ugolh4NS_xvF-_x5cEReWGn1kGYTidIyErDm-sd-no-NxKOEdWafqpecSZainw3Z07YdAh8kJQYem74EWGeXoF3lBpjKGPm1kG", "width": 960, "html_attributions": ["<a href=\"https://maps.google.com/maps/contrib/115484343089769023048\">Jyotsna Singh</a>"], "height": 540}], "scope": "GOOGLE", "business_status": "OPERATIONAL", "types": ["hospital", "health", "point_of_interest", "establishment"], "icon": "https://maps.gstatic.com/mapfiles/place_api/icons/v1/png_71/hospital-71.png"}]}