{"status": "OK", "next_page_token": "ATtYBwLErqI1JJEN40Mhc5l6sF6ojKCc558zGcyZ6cKUn4ggMgWLNK52HZbc1Vj4Ii9WQBJnj30e8hO9lh8935FnHfB2xWaY79oc6f2wtIgTeRgxbFbKVi7E0PwHlGY3habvvQgfM8ywddL-uN5NG5BfjAM9PoDIoHbBblWEbez8_DhlioLdSGce_sQMI23skqUlAJYpGVqGUoecPBKHRKfYHx49N-wI39ynQ2yUVW1Yw7UUFneOKTSgqO1aA1E2XErFXZHaFn04wjyuvalKy_WUvnbLRXvhc6QLb5exWBV6ufUnzMWU2uiNKpdizGfj0UzGpBKfxVNGr82Q9b-WsLlvQew-OWSnaZdqZizVQXNfQT1esB3_OWEn8l_wRpc2KC-gHxAj-aAu7itft_qWkha3kI66b0Z4VmW7HhQKVc7AufTo-lVo1AlJRyI4-1O87JHWRkcUT8YuR5-pbGyeJTmAVF9N0skxbRCEdLexWaLINIYl7QpQP25MozMxLvPxhAS78PNOtU-eHRy1pa5b3xVsWNbK4IWd9NfbRlvq8kjGCDTFYu6TJWrc3xsTaucdObmQUBWB6k3hA8s2l5uXQ07CHrVSq2C8-sfpYcMHS7yrO2UKZOmoXXVCO-1ueKxDPnNqfZ5TS7Gxz4c", "html_attributions": [], "results": [{"name": "Seva Nursing Home Hospital", "reference": "ChIJ4ZjV5rgUrjsR4dNgzV1Ics4", "geometry": {"location": {"lat": 12.8940076, "lng": 77.63319489999999}, "viewport": {"northeast": {"lat": 12.8953935802915, "lng": 77.63445603029149}, "southwest": {"lat": 12.8926956197085, "lng": 77.63175806970848}}}, "opening_hours": {"open_now": true}, "place_id": "ChIJ4ZjV5rgUrjsR4dNgzV1Ics4", "plus_code": {"global_code": "7J4VVJVM+J7", "compound_code": "VJVM+J7 Bengaluru, Karnataka, India"}, "vicinity": "Pappya Reddy Layout, Papannareddy Layout, Garvebhavi Palya, Bengaluru", "photos": [{"photo_reference": "ATtYBwKxcLEXcPbW-c7uZG3yMHtRfrbyaSgo8LHOxhkhee_96TkOl7zjQ2OuvnzTVMmvQ-nYg5rCepds2T2d71Fw6bu0DIzQfClM5cnx3ou-U5J6CNJ2Ao1_oFPmsM02Ob6xqFYxp4M83ZJB0uEtZeHW5dgCH-l6qDq-LHRPva75kYUwtYj5", "width": 4608, "html_attributions": ["<a href=\"https://maps.google.com/maps/contrib/116903221277816423901\">Bhaskar Yadav</a>"], "height": 3456}], "scope": "GOOGLE", "business_status": "OPERATIONAL", "types": ["hospital", "health", "point_of_interest", "establishment"], "icon": "https://maps.gstatic.com/mapfiles/place_api/icons/v1/png_71/hospital-71.png"}, {"rating": 4.5, "user_ratings_total": 4, "name": "sunshine medical & general stores", "reference": "ChIJEZyQHLkUrjsRBSOZQ1pGKrw", "geometry": {"location": {"lat": 12.893518, "lng": 77.6340148}, "viewport": {"northeast": {"lat": 12.8948354802915, "lng": 77.6353556302915}, "southwest": {"lat": 12.8921375197085, "lng": 77.6326576697085}}}, "opening_hours": {"open_now": true}, "place_id": "ChIJEZyQHLkUrjsRBSOZQ1pGKrw", "plus_code": {"global_code": "7J4VVJVM+CJ", "compound_code": "VJVM+CJ Bengaluru, Karnataka, India"}, "vicinity": "India Building, #1,13th cross, hongasandra main road, Kumbarpet Main Road, Dodpete, Garvebhavi Palya, Bengaluru", "photos": [{"photo_reference": "ATtYBwL15m8qjvaoRKIIoE30LyqikITMzLzek_wgF23M7Fia2FZLqK0zyNPmvzpdogGVetoJtWXCs7Mle_zblqRFXnugIepG6_LA7aLgS0Hfo8EwVuP4jZBaUmkU6AB9pDfSU-9GojU9XP6gG2rrJCbXuGMfmLPoP77QS3_Zhmif6IwLCCYA", "width": 960, "html_attributions": ["<a href=\"https://maps.google.com/maps/contrib/107410461206305905751\">sunshine medical &amp; general stores</a>"], "height": 1280}], "scope": "GOOGLE", "business_status": "OPERATIONAL", "types": ["hospital", "health", "point_of_interest", "establishment"], "icon": "https://maps.gstatic.com/mapfiles/place_api/icons/v1/png_71/hospital-71.png"}, {"rating": 3.7, "user_ratings_total": 3, "name": "PMBJK Pradhan Manthri Jan Aushadhi Kendra", "reference": "ChIJOfFtn-UVrjsRh6SmR-mMR5Q", "geometry": {"location": {"lat": 12.8949184, "lng": 77.6320865}, "viewport": {"northeast": {"lat": 12.8962690302915, "lng": 77.63342308029151}, "southwest": {"lat": 12.8935710697085, "lng": 77.63072511970849}}}, "opening_hours": {"open_now": true}, "place_id": "ChIJOfFtn-UVrjsRh6SmR-mMR5Q", "plus_code": {"global_code": "7J4VVJVJ+XR", "compound_code": "VJVJ+XR Bengaluru, Karnataka, India"}, "vicinity": "No.16, 6th Cross Road, Om Shakthi Layout, Garvebhavi Palya, Bengaluru", "photos": [{"photo_reference": "ATtYBwJYw8D434Wamjif9zkJfJc2uUR-lvP25Ub2ipZoqqnAXH38np3l1aEZRGW5DW35VaCHcaiJtIcHUHn86q2V7ypIX7tLncnlRaHA-sZOzkzKyyupOxx6HrXC42YEqyhVOHYvHLuHbCRxzV2B359-xBSrqGuxShYyKVES0xwJWs3Ft3t8", "width": 4160, "html_attributions": ["<a href=\"https://maps.google.com/maps/contrib/115326064973681350349\">AruN CooL</a>"], "height": 3120}], "scope": "GOOGLE", "business_status": "OPERATIONAL", "types": ["hospital", "health", "point_of_interest", "establishment"], "icon": "https://maps.gstatic.com/mapfiles/place_api/icons/v1/png_71/hospital-71.png"}, {"rating": 5, "user_ratings_total": 1, "name": "anganavadi hongasandra", "reference": "ChIJ-_7hUx0VrjsRpaGlOc0xm3s", "geometry": {"location": {"lat": 12.8936472, "lng": 77.6257342}, "viewport": {"northeast": {"lat": 12.8949964802915, "lng": 77.6270851802915}, "southwest": {"lat": 12.8922985197085, "lng": 77.6243872197085}}}, "place_id": "ChIJ-_7hUx0VrjsRpaGlOc0xm3s", "plus_code": {"global_code": "7J4VVJVG+F7", "compound_code": "VJVG+F7 Bengaluru, Karnataka, India"}, "vicinity": "Shop #256, 9th Main Road, Begur Main Road, Hongasandra, Bengaluru", "photos": [{"photo_reference": "ATtYBwJMzRKheEsX5BSVL7yK0t_44l2Aqo_VvCBSiSsDeRZmQDW283y5lWaHxMjDv2j0n5ecGwZMtsWkdftZbAu3KO5bTb1J_X7z0zX1lWZ3RzBfV3oF9DDbbGRYghkBv3qbfwDBTnNAfPuspW5JbCtm13pa2fgS1QKuKuLLeFWgzVEcKG_-", "width": 1920, "html_attributions": ["<a href=\"https://maps.google.com/maps/contrib/104761393095941330037\">Sudarshana B</a>"], "height": 1080}], "scope": "GOOGLE", "business_status": "OPERATIONAL", "types": ["hospital", "health", "point_of_interest", "establishment"], "icon": "https://maps.gstatic.com/mapfiles/place_api/icons/v1/png_71/hospital-71.png"}, {"name": "Mungi Vani Valasa", "reference": "ChIJB2IslsYUrjsR_aC1u703emM", "geometry": {"location": {"lat": 12.8938139, "lng": 77.62587970000001}, "viewport": {"northeast": {"lat": 12.8951541802915, "lng": 77.62716283029151}, "southwest": {"lat": 12.8924562197085, "lng": 77.6244648697085}}}, "place_id": "ChIJB2IslsYUrjsR_aC1u703emM", "plus_code": {"global_code": "7J4VVJVG+G9", "compound_code": "VJVG+G9 Bengaluru, Karnataka, India"}, "vicinity": "Hongasandra, Bengaluru", "scope": "GOOGLE", "business_status": "OPERATIONAL", "types": ["hospital", "health", "point_of_interest", "establishment"], "icon": "https://maps.gstatic.com/mapfiles/place_api/icons/v1/png_71/hospital-71.png"}, {"name": "Chelmsford", "reference": "ChIJxXvSq78VrjsRwCxjSETCzOE", "geometry": {"location": {"lat": 12.893984, "lng": 77.6341005}, "viewport": {"northeast": {"lat": 12.8953621802915, "lng": 77.63545818029151}, "southwest": {"lat": 12.8926642197085, "lng": 77.6327602197085}}}, "place_id": "ChIJxXvSq78VrjsRwCxjSETCzOE", "plus_code": {"global_code": "7J4VVJVM+HJ", "compound_code": "VJVM+HJ Bengaluru, Karnataka, India"}, "vicinity": "Papannareddy Layout, Garebhavipalya, Garvebhavi Palya, Bengaluru", "scope": "GOOGLE", "business_status": "OPERATIONAL", "types": ["hospital", "health", "point_of_interest", "establishment"], "icon": "https://maps.gstatic.com/mapfiles/place_api/icons/v1/png_71/hospital-71.png"}, {"name": "Dr. Silar Saheb", "reference": "ChIJs8uMsiEVrjsRKew2WTcYI-0", "geometry": {"location": {"lat": 12.895456, "lng": 77.6329129}, "viewport": {"northeast": {"lat": 12.8968326802915, "lng": 77.63428683029152}, "southwest": {"lat": 12.8941347197085, "lng": 77.63158886970851}}}, "opening_hours": {"open_now": true}, "place_id": "ChIJs8uMsiEVrjsRKew2WTcYI-0", "plus_code": {"global_code": "7J4VVJWM+55", "compound_code": "VJWM+55 Bengaluru, Karnataka, India"}, "vicinity": "7th Main 6th Cross, Pappya Reddy Layout, Hongasandra, Bengaluru", "scope": "GOOGLE", "business_status": "OPERATIONAL", "types": ["hospital", "health", "point_of_interest", "establishment"], "icon": "https://maps.gstatic.com/mapfiles/place_api/icons/v1/png_71/hospital-71.png"}, {"rating": 4.6, "user_ratings_total": 5, "name": "Manasa Nursing Home", "reference": "ChIJv7610rgUrjsRQA1yyN2LngE", "geometry": {"location": {"lat": 12.895452, "lng": 77.6329239}, "viewport": {"northeast": {"lat": 12.8968271302915, "lng": 77.6342964802915}, "southwest": {"lat": 12.8941291697085, "lng": 77.63159851970849}}}, "place_id": "ChIJv7610rgUrjsRQA1yyN2LngE", "plus_code": {"global_code": "7J4VVJWM+55", "compound_code": "VJWM+55 Bengaluru, Karnataka, India"}, "vicinity": "5th Cross Rd, 7th Main 6th Cross, Pappya Reddy Layout, Garvebhavi Palya, Bengaluru", "scope": "GOOGLE", "business_status": "OPERATIONAL", "types": ["hospital", "health", "point_of_interest", "establishment"], "icon": "https://maps.gstatic.com/mapfiles/place_api/icons/v1/png_71/hospital-71.png"}, {"rating": 5, "user_ratings_total": 2, "name": "Pawan medicals and general store", "reference": "ChIJAyMOyWsVrjsRnFTtRIRutzs", "geometry": {"location": {"lat": 12.8952357, "lng": 77.6334821}, "viewport": {"northeast": {"lat": 12.8965846802915, "lng": 77.6348310802915}, "southwest": {"lat": 12.8938867197085, "lng": 77.63213311970848}}}, "opening_hours": {"open_now": true}, "place_id": "ChIJAyMOyWsVrjsRnFTtRIRutzs", "plus_code": {"global_code": "7J4VVJWM+39", "compound_code": "VJWM+39 Bengaluru, Karnataka, India"}, "vicinity": "7th Main 3rh Cross Garvebhavipalya Hongasantra, I Main Road, Bengaluru", "photos": [{"photo_reference": "ATtYBwLQIwUhYN9zodBbePtB_iUgZKNuRh91qb-OsJlLGvLHzEFtjMOFEsicweNcp_BsiKvwyuBA-I5H43tjbXYU_JmxPACa0ASeQKLY5_3NvIzRAZRe_eQqAEdhSOw747ortFaVS1B9aSkNa0uWRuEodKOVcUiBZqow_LKdjMH9n-Ih4JG0", "width": 4128, "html_attributions": ["<a href=\"https://maps.google.com/maps/contrib/112452818016706009280\">Pawan medicals and general store</a>"], "height": 3096}], "scope": "GOOGLE", "business_status": "OPERATIONAL", "types": ["hospital", "health", "point_of_interest", "establishment"], "icon": "https://maps.gstatic.com/mapfiles/place_api/icons/v1/png_71/hospital-71.png"}, {"name": "Surya clinic", "reference": "ChIJrZlUA24VrjsR9V2AXZFu4VI", "geometry": {"location": {"lat": 12.8889931, "lng": 77.6363787}, "viewport": {"northeast": {"lat": 12.8903502802915, "lng": 77.6377414802915}, "southwest": {"lat": 12.8876523197085, "lng": 77.63504351970849}}}, "place_id": "ChIJrZlUA24VrjsR9V2AXZFu4VI", "plus_code": {"global_code": "7J4VVJQP+HH", "compound_code": "VJQP+HH Bengaluru, Karnataka, India"}, "vicinity": "Industrial Layout, Begur, Bengaluru", "scope": "GOOGLE", "business_status": "OPERATIONAL", "types": ["hospital", "health", "point_of_interest", "establishment"], "icon": "https://maps.gstatic.com/mapfiles/place_api/icons/v1/png_71/hospital-71.png"}, {"rating": 4.8, "user_ratings_total": 72, "name": "Sunshine Children's Clinic", "reference": "ChIJYes6S8kUrjsR2q4lbmQdpws", "geometry": {"location": {"lat": 12.8855259, "lng": 77.6251281}, "viewport": {"northeast": {"lat": 12.8868642302915, "lng": 77.6265195802915}, "southwest": {"lat": 12.8841662697085, "lng": 77.62382161970848}}}, "opening_hours": {"open_now": true}, "place_id": "ChIJYes6S8kUrjsR2q4lbmQdpws", "plus_code": {"global_code": "7J4VVJPG+63", "compound_code": "VJPG+63 Bengaluru, Karnataka, India"}, "vicinity": "1654, Begur Main Road, Vishwapriya Nagar, Begur, Bengaluru", "photos": [{"photo_reference": "ATtYBwJLhZIBg27Bt52fJsaFQFobds84ImVpQhI3qukuTERrDaTsGY7ZplKZI38b2vT2_vt3PCBaq3ATKjomn8DkFMkiiyKxitltg2burL5O22X7pWpi6T_enlnD0b5CE4LiK4XoD2VK_XpqczzY9mJcWaG5StgWoq3TYnU5dAe4a1KrpRXa", "width": 4608, "html_attributions": ["<a href=\"https://maps.google.com/maps/contrib/103621138303214490332\">Anjan Kumar</a>"], "height": 2592}], "scope": "GOOGLE", "business_status": "OPERATIONAL", "types": ["hospital", "doctor", "health", "point_of_interest", "establishment"], "icon": "https://maps.gstatic.com/mapfiles/place_api/icons/v1/png_71/generic_business-71.png"}, {"name": "Amruth Medical", "reference": "ChIJ7w7dX1wVrjsR00a8WJl3VHY", "geometry": {"location": {"lat": 12.896789, "lng": 77.63113299999999}, "viewport": {"northeast": {"lat": 12.8981494302915, "lng": 77.6324877302915}, "southwest": {"lat": 12.8954514697085, "lng": 77.6297897697085}}}, "opening_hours": {"open_now": true}, "place_id": "ChIJ7w7dX1wVrjsR00a8WJl3VHY", "plus_code": {"global_code": "7J4VVJWJ+PF", "compound_code": "VJWJ+PF Bengaluru, Karnataka, India"}, "vicinity": "7th Main 6th Cross, Garvebhavipalya, Bengaluru", "scope": "GOOGLE", "business_status": "OPERATIONAL", "types": ["hospital", "health", "point_of_interest", "establishment"], "icon": "https://maps.gstatic.com/mapfiles/place_api/icons/v1/png_71/hospital-71.png"}, {"name": "Vinayaka medical & General Stores", "reference": "ChIJS8UcXr8UrjsR4penwsXZkPs", "geometry": {"location": {"lat": 12.896895, "lng": 77.631012}, "viewport": {"northeast": {"lat": 12.8982246302915, "lng": 77.63234898029151}, "southwest": {"lat": 12.8955266697085, "lng": 77.6296510197085}}}, "opening_hours": {"open_now": true}, "place_id": "ChIJS8UcXr8UrjsR4penwsXZkPs", "plus_code": {"global_code": "7J4VVJWJ+QC", "compound_code": "VJWJ+QC Bengaluru, Karnataka, India"}, "vicinity": "#6, Hongasandra main road, Near St. Mary's school, Garvebhavi Palya, Bengaluru", "photos": [{"photo_reference": "ATtYBwIt6VdpbCxuiDnYhgQX9hj5mMzARjkyTAadrZx3Ksp11lNDzXg693_V9nJRN6vHN64hrkGkP3Ls21tRMHHdAtjBxFjbh_v4YQl5KF9OAbL7zW8A5EHlGwHebx2GOFHDKTNie8GgQ6GMhjioPGXT_zr_jFCWMd758HuqTpjhOPoZIOn1", "width": 1280, "html_attributions": ["<a href=\"https://maps.google.com/maps/contrib/105704510733205565665\">Vinayaka medical &amp; General Stores</a>"], "height": 720}], "scope": "GOOGLE", "business_status": "OPERATIONAL", "types": ["hospital", "health", "point_of_interest", "establishment"], "icon": "https://maps.gstatic.com/mapfiles/place_api/icons/v1/png_71/hospital-71.png"}, {"name": "Sri Skanda Medicals", "reference": "ChIJU8uSRsEUrjsR_jjBWPOB_r0", "geometry": {"location": {"lat": 12.8962095, "lng": 77.6261375}, "viewport": {"northeast": {"lat": 12.8975643802915, "lng": 77.62744593029151}, "southwest": {"lat": 12.8948664197085, "lng": 77.6247479697085}}}, "place_id": "ChIJU8uSRsEUrjsR_jjBWPOB_r0", "plus_code": {"global_code": "7J4VVJWG+FF", "compound_code": "VJWG+FF Bengaluru, Karnataka, India"}, "vicinity": "Begur Main Road, Hongasandra, Bengaluru", "scope": "GOOGLE", "business_status": "OPERATIONAL", "types": ["hospital", "health", "point_of_interest", "establishment"], "icon": "https://maps.gstatic.com/mapfiles/place_api/icons/v1/png_71/hospital-71.png"}, {"name": "kiran hospital hongasandra", "reference": "ChIJ_yLz_sMUrjsRNWTgf992964", "geometry": {"location": {"lat": 12.8954585, "lng": 77.624763}, "viewport": {"northeast": {"lat": 12.8968071802915, "lng": 77.6261148302915}, "southwest": {"lat": 12.8941092197085, "lng": 77.62341686970848}}}, "opening_hours": {"open_now": true}, "place_id": "ChIJ_yLz_sMUrjsRNWTgf992964", "plus_code": {"global_code": "7J4VVJWF+5W", "compound_code": "VJWF+5W Bengaluru, Karnataka, India"}, "vicinity": "6th Main Road, Balaji Layout, Hongasandra, Bengaluru", "scope": "GOOGLE", "business_status": "OPERATIONAL", "types": ["hospital", "health", "point_of_interest", "establishment"], "icon": "https://maps.gstatic.com/mapfiles/place_api/icons/v1/png_71/hospital-71.png"}, {"name": "Jeevanajothi groups", "reference": "ChIJ7SAz3bsUrjsRBuwI2Mg7G6o", "geometry": {"location": {"lat": 12.8928379, "lng": 77.6371955}, "viewport": {"northeast": {"lat": 12.8942440302915, "lng": 77.6386379802915}, "southwest": {"lat": 12.8915460697085, "lng": 77.6359400197085}}}, "opening_hours": {"open_now": true}, "place_id": "ChIJ7SAz3bsUrjsRBuwI2Mg7G6o", "plus_code": {"global_code": "7J4VVJVP+4V", "compound_code": "VJVP+4V Bengaluru, Karnataka, India"}, "vicinity": "16, Service Road, Munireddy layout, Garebhavipalya, Garvebhavi Palya, Bengaluru", "scope": "GOOGLE", "business_status": "OPERATIONAL", "types": ["hospital", "health", "point_of_interest", "establishment"], "icon": "https://maps.gstatic.com/mapfiles/place_api/icons/v1/png_71/hospital-71.png"}, {"name": "JAI SRI RAM MEDICAL", "reference": "ChIJd1WiO18VrjsR9HA0qqFGvrY", "geometry": {"location": {"lat": 12.897337, "lng": 77.6277925}, "viewport": {"northeast": {"lat": 12.8986846802915, "lng": 77.6291314302915}, "southwest": {"lat": 12.8959867197085, "lng": 77.62643346970849}}}, "opening_hours": {"open_now": true}, "place_id": "ChIJd1WiO18VrjsR9HA0qqFGvrY", "plus_code": {"global_code": "7J4VVJWH+W4", "compound_code": "VJWH+W4 Bengaluru, Karnataka, India"}, "vicinity": "#176/9/1, Shop No.1, Ground Floor, 2nd Main, 4th Cross, Begur Main Road, Hongasandra, Bengaluru", "scope": "GOOGLE", "business_status": "OPERATIONAL", "types": ["hospital", "health", "point_of_interest", "establishment"], "icon": "https://maps.gstatic.com/mapfiles/place_api/icons/v1/png_71/hospital-71.png"}, {"rating": 5, "user_ratings_total": 2, "name": "S S PHARMA", "reference": "ChIJIz_-45oVrjsRtRmzqCLMQDo", "geometry": {"location": {"lat": 12.8973399, "lng": 77.6277786}, "viewport": {"northeast": {"lat": 12.8986700802915, "lng": 77.6291383302915}, "southwest": {"lat": 12.8959721197085, "lng": 77.62644036970849}}}, "opening_hours": {"open_now": true}, "place_id": "ChIJIz_-45oVrjsRtRmzqCLMQDo", "plus_code": {"global_code": "7J4VVJWH+W4", "compound_code": "VJWH+W4 AECS Layout - A Block, Singasandra, Bengaluru, Karnataka, India"}, "vicinity": "opp. Kala Niketan School, #535A, Shop no.2, Ground Floor, opp. Kala Niketan School, 60 Feet Road, AECS Layout - A Block, Kudiu", "photos": [{"photo_reference": "ATtYBwJQu_W9PkfdPMtE1th9sQffeKI0to0f_CeZyOEX51HgUm-wHQkfzEQzruzTzTIRTxyUqNQXEW1abwxmySFZ7vAJxGZI_GKo35PDU4bfeT8nloz7pd1PlixBZ7csovjG_F1O-QBd1jyxTsclvxO_k1aZFJgien-1wq2Sg6pDnE4Sthi2", "width": 4096, "html_attributions": ["<a href=\"https://maps.google.com/maps/contrib/113077447464802482913\">S S PHARMA</a>"], "height": 2304}], "scope": "GOOGLE", "business_status": "OPERATIONAL", "types": ["pharmacy", "hospital", "health", "point_of_interest", "store", "establishment"], "icon": "https://maps.gstatic.com/mapfiles/place_api/icons/v1/png_71/hospital-71.png"}, {"rating": 4.4, "user_ratings_total": 5, "name": "Seva Health Care Center", "reference": "ChIJXUmUa8EUrjsRm_5u2bigm2Y", "geometry": {"location": {"lat": 12.8969542, "lng": 77.62615269999999}, "viewport": {"northeast": {"lat": 12.8983057802915, "lng": 77.6274863802915}, "southwest": {"lat": 12.8956078197085, "lng": 77.6247884197085}}}, "opening_hours": {"open_now": true}, "place_id": "ChIJXUmUa8EUrjsRm_5u2bigm2Y", "plus_code": {"global_code": "7J4VVJWG+QF", "compound_code": "VJWG+QF Bengaluru, Karnataka, India"}, "vicinity": "159/9, Begur Main Road, Hongasandra, Bengaluru", "photos": [{"photo_reference": "ATtYBwLJEmD_sk2Fz57QQeuk-PXHk_u9DMTP1PDg6x4_t7UNbjjYFwS61LqZE-L1IUdIjcfe7h5QQ0Xz8PzaYpvJ6ugXcH8XPQI01cVOzwF_-AVJf_3xYNztS3tF5o_k6jsoH6WMBIM8x80yt4m2WDNyAPp4g6WkJ9Uj7FhsIpyPkcjDOK0g", "width": 2340, "html_attributions": ["<a href=\"https://maps.google.com/maps/contrib/118393707608637718386\">Deepak Puri</a>"], "height": 4160}], "scope": "GOOGLE", "business_status": "OPERATIONAL", "types": ["hospital", "health", "point_of_interest", "establishment"], "icon": "https://maps.gstatic.com/mapfiles/place_api/icons/v1/png_71/hospital-71.png"}, {"rating": 4, "user_ratings_total": 2, "name": "Rajendra nest", "reference": "ChIJNQpxlecVrjsR2541WttCeY8", "geometry": {"location": {"lat": 12.891815, "lng": 77.622041}, "viewport": {"northeast": {"lat": 12.8931623302915, "lng": 77.6234236302915}, "southwest": {"lat": 12.8904643697085, "lng": 77.62072566970848}}}, "place_id": "ChIJNQpxlecVrjsR2541WttCeY8", "plus_code": {"global_code": "7J4VVJRC+PR", "compound_code": "VJRC+PR Bengaluru, Karnataka, India"}, "vicinity": "Maruthi Layout, Hongasandra, Bengaluru", "scope": "GOOGLE", "business_status": "OPERATIONAL", "types": ["hospital", "health", "point_of_interest", "establishment"], "icon": "https://maps.gstatic.com/mapfiles/place_api/icons/v1/png_71/hospital-71.png"}]}