{"status": "OK", "html_attributions": [], "results": [{"rating": 2.7, "user_ratings_total": 20, "name": "Nelamangala General Hospital", "reference": "ChIJk_TJX5slrjsR44ZMQCk2V0I", "geometry": {"location": {"lat": 13.0987354, "lng": 77.3912107}, "viewport": {"northeast": {"lat": 13.1001571302915, "lng": 77.39256643029151}, "southwest": {"lat": 13.0974591697085, "lng": 77.38986846970849}}}, "opening_hours": {"open_now": true}, "place_id": "ChIJk_TJX5slrjsR44ZMQCk2V0I", "plus_code": {"global_code": "7J5V39XR+FF", "compound_code": "39XR+FF Indiranagara, Karnataka, India"}, "vicinity": "Jayanagara, Indiranagara", "photos": [{"photo_reference": "ATtYBwK4szATLsXUJeyETMTmaO0vvfD2HmXO_ng_Br9cH-fpEVT_itCjaxDaap10jba63CNRqcDddhECzBV3s41uBvCw12En3VvupyQLnesqFL91ndM1EFDAmMoTkLzb0IfEzMhx0e58xJuE_q5XOaRT8-Rw3Gk4Jkn7SPZL2V8AJRU6iP50", "width": 3264, "html_attributions": ["<a href=\"https://maps.google.com/maps/contrib/107690794714281718340\">ashwin bharadwaj</a>"], "height": 1836}], "scope": "GOOGLE", "business_status": "OPERATIONAL", "types": ["hospital", "health", "point_of_interest", "establishment"], "icon": "https://maps.gstatic.com/mapfiles/place_api/icons/v1/png_71/hospital-71.png"}, {"rating": 3.9, "user_ratings_total": 7, "name": "Usha Hospital", "reference": "ChIJD4M6TI4lrjsRgkdF-PQ7N28", "geometry": {"location": {"lat": 13.1071918, "lng": 77.3879326}, "viewport": {"northeast": {"lat": 13.1085403302915, "lng": 77.3893763302915}, "southwest": {"lat": 13.1058423697085, "lng": 77.38667836970849}}}, "place_id": "ChIJD4M6TI4lrjsRgkdF-PQ7N28", "plus_code": {"global_code": "7J5V494Q+V5", "compound_code": "494Q+V5 Vishweshwarapura, Karnataka, India"}, "vicinity": "Vishweshwarapura", "photos": [{"photo_reference": "ATtYBwL56scND5ThFvgcfZcNa_tzDA-ZH3MGBBPGv2diLfunLClUP1ZZGaigePFtHwR-HwQVH-wzQNhrC2AqVtO36bdhU3FqiZuGabDgXQbBJz0OF-YlFsSoqVEhZ_ecQRyrRG2Q_t9rzxQ3nk9PLlBNM4cobgaRRrjVMXI4kzNz_BHswe_B", "width": 1032, "html_attributions": ["<a href=\"https://maps.google.com/maps/contrib/116978444937027644639\">VEENA SRINIVAS</a>"], "height": 581}], "scope": "GOOGLE", "business_status": "OPERATIONAL", "types": ["hospital", "health", "point_of_interest", "establishment"], "icon": "https://maps.gstatic.com/mapfiles/place_api/icons/v1/png_71/hospital-71.png"}, {"name": "USHA HOSPITAL", "reference": "ChIJNaUiYWslrjsRUwTqaysRGfE", "geometry": {"location": {"lat": 13.1064525, "lng": 77.38757489999999}, "viewport": {"northeast": {"lat": 13.1077361802915, "lng": 77.3889098802915}, "southwest": {"lat": 13.1050382197085, "lng": 77.38621191970847}}}, "place_id": "ChIJNaUiYWslrjsRUwTqaysRGfE", "plus_code": {"global_code": "7J5V494Q+H2", "compound_code": "494Q+H2 Vishweshwarapura, Karnataka, India"}, "vicinity": "Vishweshwarapura", "scope": "GOOGLE", "business_status": "OPERATIONAL", "types": ["hospital", "health", "point_of_interest", "establishment"], "icon": "https://maps.gstatic.com/mapfiles/place_api/icons/v1/png_71/hospital-71.png"}, {"name": "Roohani ilaj", "reference": "ChIJTdXDFaclrjsREvo8A8iUX7o", "geometry": {"location": {"lat": 13.1188301, "lng": 77.38593949999999}, "viewport": {"northeast": {"lat": 13.1200915802915, "lng": 77.38731118029149}, "southwest": {"lat": 13.1173936197085, "lng": 77.38461321970848}}}, "place_id": "ChIJTdXDFaclrjsREvo8A8iUX7o", "plus_code": {"global_code": "7J5V499P+G9", "compound_code": "499P+G9 Kannegowdanahalli, Karnataka, India"}, "vicinity": "Kannegowdanahalli", "scope": "GOOGLE", "business_status": "OPERATIONAL", "types": ["hospital", "health", "point_of_interest", "establishment"], "icon": "https://maps.gstatic.com/mapfiles/place_api/icons/v1/png_71/hospital-71.png"}, {"name": "Surya Clinic", "reference": "ChIJk_4J_rclrjsRB6asJbp4ki4", "geometry": {"location": {"lat": 13.1001011, "lng": 77.39127739999999}, "viewport": {"northeast": {"lat": 13.1014104302915, "lng": 77.3925763802915}, "southwest": {"lat": 13.0987124697085, "lng": 77.38987841970848}}}, "place_id": "ChIJk_4J_rclrjsRB6asJbp4ki4", "plus_code": {"global_code": "7J5V492R+2G", "compound_code": "492R+2G Nelamangala Town, Karnataka, India"}, "vicinity": "BH Road, Jyothi Nagar, Nelamangala Town", "scope": "GOOGLE", "business_status": "OPERATIONAL", "types": ["hospital", "health", "point_of_interest", "establishment"], "icon": "https://maps.gstatic.com/mapfiles/place_api/icons/v1/png_71/hospital-71.png"}, {"rating": 4.3, "user_ratings_total": 4, "name": "Sri Vinayaka Medicals", "reference": "ChIJaQLwn5slrjsR5iRs_rGCGKU", "geometry": {"location": {"lat": 13.100028, "lng": 77.392775}, "viewport": {"northeast": {"lat": 13.1013755802915, "lng": 77.39415868029151}, "southwest": {"lat": 13.0986776197085, "lng": 77.3914607197085}}}, "opening_hours": {"open_now": true}, "place_id": "ChIJaQLwn5slrjsR5iRs_rGCGKU", "plus_code": {"global_code": "7J5V492V+24", "compound_code": "492V+24 Nelamangala Town, Karnataka, India"}, "vicinity": "Devanga Street, Nelamangala Town", "photos": [{"photo_reference": "ATtYBwLKB9w1P9N4tno3-coIjdgFwhKjZ_dkv-mDnIejvrZG2Ifje1alvW9nstYgsslE8wqYcrbDjFP-wuJlloekJ9KAYsDfd_ygHY1sawfw3cND0nsq6q-AmKDAlll99F5srnzYxqOFxD08_mrd5WlDwp-mQTOdH5pPCmMjYh2vasDbVAAV", "width": 4128, "html_attributions": ["<a href=\"https://maps.google.com/maps/contrib/101434497163491684993\">MAHESHA J</a>"], "height": 2322}], "scope": "GOOGLE", "business_status": "OPERATIONAL", "types": ["hospital", "health", "point_of_interest", "store", "establishment"], "icon": "https://maps.gstatic.com/mapfiles/place_api/icons/v1/png_71/hospital-71.png"}, {"name": "Panchami Medicals & General Stores", "reference": "ChIJ-esUnZslrjsRRmlhZOAwDtc", "geometry": {"location": {"lat": 13.099472, "lng": 77.392827}, "viewport": {"northeast": {"lat": 13.1008216302915, "lng": 77.39415628029151}, "southwest": {"lat": 13.0981236697085, "lng": 77.3914583197085}}}, "opening_hours": {"open_now": true}, "place_id": "ChIJ-esUnZslrjsRRmlhZOAwDtc", "plus_code": {"global_code": "7J5V39XV+Q4", "compound_code": "39XV+Q4 Bengaluru, Karnataka, India"}, "vicinity": "#1, Balaji Complex, Devanga Street, Nelamangala, Bengaluru", "scope": "GOOGLE", "business_status": "OPERATIONAL", "types": ["hospital", "health", "point_of_interest", "establishment"], "icon": "https://maps.gstatic.com/mapfiles/place_api/icons/v1/png_71/hospital-71.png"}, {"rating": 4, "user_ratings_total": 8, "name": "Prasad Hospital", "reference": "ChIJWYdcZZslrjsRI0A0FaHp4HA", "geometry": {"location": {"lat": 13.0992275, "lng": 77.3918597}, "viewport": {"northeast": {"lat": 13.1005553302915, "lng": 77.39317958029152}, "southwest": {"lat": 13.0978573697085, "lng": 77.3904816197085}}}, "opening_hours": {"open_now": true}, "place_id": "ChIJWYdcZZslrjsRI0A0FaHp4HA", "plus_code": {"global_code": "7J5V39XR+MP", "compound_code": "39XR+MP Indiranagara, Karnataka, India"}, "vicinity": "Opp Mini Vidana Soudha, BH Road, Indiranagara", "photos": [{"photo_reference": "ATtYBwLOrhaANOc3TjgGSCw_2IhOGcsPrfhDbgcmYPK4HYSK1-tROnDhmVgRRZ3wb3DU_2vsrk9uAThA1Ak_kTNrauK0SJmqkWUquod3y_UHTlpK3OZyjbfVXR-GMJjYANW0OkLyfFw53Lp-oJ1dfXaRRo3qI4d5a1qifUqC1UhU2hDc7nh1", "width": 3120, "html_attributions": ["<a href=\"https://maps.google.com/maps/contrib/106283031540718785633\">Nandish Gowda</a>"], "height": 4160}], "scope": "GOOGLE", "business_status": "OPERATIONAL", "types": ["hospital", "health", "point_of_interest", "establishment"], "icon": "https://maps.gstatic.com/mapfiles/place_api/icons/v1/png_71/hospital-71.png"}, {"rating": 5, "user_ratings_total": 2, "name": "Third Eye Scientific Solutionz Pvt Ltd", "reference": "ChIJyeugooQlrjsRqZEiZ1TlhR0", "geometry": {"location": {"lat": 13.0991679, "lng": 77.38855989999999}, "viewport": {"northeast": {"lat": 13.1005764802915, "lng": 77.3898884302915}, "southwest": {"lat": 13.0978785197085, "lng": 77.38719046970849}}}, "place_id": "ChIJyeugooQlrjsRqZEiZ1TlhR0", "plus_code": {"global_code": "7J5V39XQ+MC", "compound_code": "39XQ+MC Indiranagara, Karnataka, India"}, "vicinity": "Nelamangala - Chikkaballapura, Indiranagara", "scope": "GOOGLE", "business_status": "OPERATIONAL", "types": ["hospital", "health", "point_of_interest", "establishment"], "icon": "https://maps.gstatic.com/mapfiles/place_api/icons/v1/png_71/hospital-71.png"}, {"rating": 5, "user_ratings_total": 2, "name": "Avishka Clinic And Teju Medical", "reference": "ChIJQSHgkpslrjsRiTiT54QhISk", "geometry": {"location": {"lat": 13.0996025, "lng": 77.39408139999999}, "viewport": {"northeast": {"lat": 13.1009487302915, "lng": 77.3954498302915}, "southwest": {"lat": 13.0982507697085, "lng": 77.39275186970849}}}, "opening_hours": {"open_now": true}, "place_id": "ChIJQSHgkpslrjsRiTiT54QhISk", "plus_code": {"global_code": "7J5V39XV+RJ", "compound_code": "39XV+RJ Nelamangala Town, Karnataka, India"}, "vicinity": "near, Bus Stand Road, Nelamangala Town", "photos": [{"photo_reference": "ATtYBwK9ed3iCpQ_ae3KCqhJU_NOiCM1nlnA-wzIkiULn0BeTgQVExD57l9UBF8Y5WBgLQtFlQLcV3ELjGgmFskk5fohfQVFVEKnwEs2t56ebxCGoYR5neOZLUQsrnHfpE_S8_-L9ggzgwT68EMDzM1WdVWFIZ9zWNABvU7qn3q-rm-Vf0-t", "width": 3096, "html_attributions": ["<a href=\"https://maps.google.com/maps/contrib/114074393197590772051\">Anusuya K.V</a>"], "height": 4128}], "scope": "GOOGLE", "business_status": "OPERATIONAL", "types": ["hospital", "health", "point_of_interest", "establishment"], "icon": "https://maps.gstatic.com/mapfiles/place_api/icons/v1/png_71/hospital-71.png"}, {"rating": 3.7, "user_ratings_total": 6, "name": "Government Hospital", "reference": "ChIJU8HjXpslrjsR59LzKJ7oVL0", "geometry": {"location": {"lat": 13.098766, "lng": 77.391053}, "viewport": {"northeast": {"lat": 13.1001794302915, "lng": 77.39240798029151}, "southwest": {"lat": 13.0974814697085, "lng": 77.38971001970849}}}, "opening_hours": {"open_now": true}, "place_id": "ChIJU8HjXpslrjsR59LzKJ7oVL0", "plus_code": {"global_code": "7J5V39XR+GC", "compound_code": "39XR+GC Indiranagara, Karnataka, India"}, "vicinity": "Nelamangala Road, Jayanagara, Indiranagara", "scope": "GOOGLE", "business_status": "OPERATIONAL", "types": ["hospital", "health", "point_of_interest", "establishment"], "icon": "https://maps.gstatic.com/mapfiles/place_api/icons/v1/png_71/hospital-71.png"}, {"rating": 4.7, "user_ratings_total": 6, "name": "Sagar Piles Clinic", "reference": "ChIJiU6GNholrjsRgDxItIEbAJQ", "geometry": {"location": {"lat": 13.0991569, "lng": 77.3933835}, "viewport": {"northeast": {"lat": 13.1004958302915, "lng": 77.3947500802915}, "southwest": {"lat": 13.0977978697085, "lng": 77.39205211970848}}}, "opening_hours": {"open_now": true}, "place_id": "ChIJiU6GNholrjsRgDxItIEbAJQ", "plus_code": {"global_code": "7J5V39XV+M9", "compound_code": "39XV+M9 Nelamangala Town, Karnataka, India"}, "vicinity": "opp. Madeena masjid, Old SBM Road, Nelamangala Town", "photos": [{"photo_reference": "ATtYBwJiAP2fzPxAYhyzGvWrS7my7-jabxjvU1PI6A2Oo_l9BOBtmiOLvQ0wHWPllJAoenu0D_isZN1YeT2-omyWMGCYxdNQgyLxqGR9gXaJrcwLFzx84zLVYFkcS4TG7zoxKfFaBoqkaTZGGc2OzHNNIQ9BdcJ56NTiwJKicYo5zsAWv_Xf", "width": 3000, "html_attributions": ["<a href=\"https://maps.google.com/maps/contrib/116273232774280421520\">Kakisha YM</a>"], "height": 4000}], "scope": "GOOGLE", "business_status": "OPERATIONAL", "types": ["hospital", "health", "point_of_interest", "establishment"], "icon": "https://maps.gstatic.com/mapfiles/place_api/icons/v1/png_71/hospital-71.png"}, {"name": "Thalok health office Nelamangala", "reference": "ChIJyTdAAR0lrjsR7tclglhOsZU", "geometry": {"location": {"lat": 13.0983002, "lng": 77.39137769999999}, "viewport": {"northeast": {"lat": 13.0996904802915, "lng": 77.3927347802915}, "southwest": {"lat": 13.0969925197085, "lng": 77.39003681970848}}}, "place_id": "ChIJyTdAAR0lrjsR7tclglhOsZU", "plus_code": {"global_code": "7J5V39XR+8H", "compound_code": "39XR+8H Bengaluru, Karnataka, India"}, "vicinity": "Jayanagara, Bengaluru", "photos": [{"photo_reference": "ATtYBwIlOnXFCKjfsJXTEoBrjXJSRpvFZILGTZmlHoSnEoWMRcemGKhls5ihrolXoqlLJ92QI-kdA6GxVWkg_UtQLRWYmDl1yCgFs-LRbo56dM-SioQ6dArVq_-ewvRG-P2_hbN_E_Eig66FR4DFDVUEQoGRsLkfXiqVL4scvqzJi1djoLUD", "width": 4608, "html_attributions": ["<a href=\"https://maps.google.com/maps/contrib/113459176099937096382\">Kumar Kumar</a>"], "height": 2304}], "scope": "GOOGLE", "business_status": "OPERATIONAL", "types": ["hospital", "health", "point_of_interest", "establishment"], "icon": "https://maps.gstatic.com/mapfiles/place_api/icons/v1/png_71/hospital-71.png"}, {"rating": 1, "user_ratings_total": 1, "name": "Govt Veterinary Hospital", "reference": "ChIJV9I7eZwlrjsRsAsctnHEFto", "geometry": {"location": {"lat": 13.0984367, "lng": 77.3931459}, "viewport": {"northeast": {"lat": 13.0997853302915, "lng": 77.3944947802915}, "southwest": {"lat": 13.0970873697085, "lng": 77.39179681970849}}}, "opening_hours": {"open_now": true}, "place_id": "ChIJV9I7eZwlrjsRsAsctnHEFto", "plus_code": {"global_code": "7J5V39XV+97", "compound_code": "39XV+97 Nelamangala Town, Karnataka, India"}, "vicinity": "BH Road, Jayanagara, Jyothi Nagar, Nelamangala Town", "scope": "GOOGLE", "business_status": "OPERATIONAL", "types": ["hospital", "health", "point_of_interest", "establishment"], "icon": "https://maps.gstatic.com/mapfiles/place_api/icons/v1/png_71/hospital-71.png"}, {"name": "Teju Medical Store", "reference": "ChIJdadQc5wlrjsRCJxS-2mIlm4", "geometry": {"location": {"lat": 13.0983466, "lng": 77.39412089999999}, "viewport": {"northeast": {"lat": 13.0996933802915, "lng": 77.3954696802915}, "southwest": {"lat": 13.0969954197085, "lng": 77.39277171970849}}}, "place_id": "ChIJdadQc5wlrjsRCJxS-2mIlm4", "plus_code": {"global_code": "7J5V39XV+8J", "compound_code": "39XV+8J Nelamangala Town, Karnataka, India"}, "vicinity": "BH Road, Jyothi Nagar, Nelamangala Town", "scope": "GOOGLE", "business_status": "OPERATIONAL", "types": ["hospital", "health", "point_of_interest", "establishment"], "icon": "https://maps.gstatic.com/mapfiles/place_api/icons/v1/png_71/hospital-71.png"}, {"name": "Mediplus Nelamangala Bus Stand", "reference": "ChIJtdWpPHclrjsRKQlttT7ijGc", "geometry": {"location": {"lat": 13.0984351, "lng": 77.39420129999999}, "viewport": {"northeast": {"lat": 13.0997840802915, "lng": 77.3955502802915}, "southwest": {"lat": 13.0970861197085, "lng": 77.3928523197085}}}, "opening_hours": {"open_now": true}, "place_id": "ChIJtdWpPHclrjsRKQlttT7ijGc", "plus_code": {"global_code": "7J5V39XV+9M", "compound_code": "39XV+9M Bengaluru, Karnataka, India"}, "vicinity": "Jyothi Nagar, Bengaluru", "scope": "GOOGLE", "business_status": "OPERATIONAL", "types": ["hospital", "health", "point_of_interest", "establishment"], "icon": "https://maps.gstatic.com/mapfiles/place_api/icons/v1/png_71/hospital-71.png"}]}