{"status": "OK", "html_attributions": [], "results": [{"rating": 5, "user_ratings_total": 1, "name": "Safe Surgicals", "reference": "ChIJV8xzuk4XrjsRspC7KMZMnaw", "geometry": {"location": {"lat": 12.996942, "lng": 77.61986499999999}, "viewport": {"northeast": {"lat": 12.9985397302915, "lng": 77.6214239302915}, "southwest": {"lat": 12.9958417697085, "lng": 77.61872596970849}}}, "opening_hours": {"open_now": true}, "place_id": "ChIJV8xzuk4XrjsRspC7KMZMnaw", "plus_code": {"global_code": "7J4VXJW9+QW", "compound_code": "XJW9+QW Bengaluru, Karnataka, India"}, "vicinity": "Jc keerthi arcade, No 74, Wheeler Road, Cox Town, Bengaluru", "photos": [{"photo_reference": "ATtYBwLXHPQrllFfNjAhKoj_xBd_vEmeRI3-AVtqyN9kdY3HwGzDhP3OS9TqHnJrBMU7VaOXq4IqklzHilWfpBbG99Ak2FgY_pStCSgdHj2Qvw4uI4GKjxyvljC3ocXfD7WTaGPYcjGKE6LaOCOyg3OsAf0r_reiK21qPmNkc6ccCaEebkMz", "width": 622, "html_attributions": ["<a href=\"https://maps.google.com/maps/contrib/118005244000861094638\">Safe Surgicals</a>"], "height": 778}], "scope": "GOOGLE", "business_status": "OPERATIONAL", "types": ["hospital", "health", "point_of_interest", "establishment"], "icon": "https://maps.gstatic.com/mapfiles/place_api/icons/v1/png_71/generic_business-71.png"}, {"rating": 4, "user_ratings_total": 10, "name": "Government Maternity Home and Primary Health Center", "reference": "ChIJ2wyCPO4WrjsRL08m_EmnIoU", "geometry": {"location": {"lat": 12.9983762, "lng": 77.62076119999999}, "viewport": {"northeast": {"lat": 12.9996760802915, "lng": 77.6219873802915}, "southwest": {"lat": 12.9969781197085, "lng": 77.61928941970848}}}, "opening_hours": {"open_now": false}, "place_id": "ChIJ2wyCPO4WrjsRL08m_EmnIoU", "plus_code": {"global_code": "7J4VXJXC+98", "compound_code": "XJXC+98 Bengaluru, Karnataka, India"}, "vicinity": "163, Madhavaraya Mudaliar Road, Sarvagnya Nagar, Cox Town, Bengaluru", "scope": "GOOGLE", "business_status": "OPERATIONAL", "types": ["hospital", "health", "point_of_interest", "establishment"], "icon": "https://maps.gstatic.com/mapfiles/place_api/icons/v1/png_71/hospital-71.png"}, {"rating": 2.8, "user_ratings_total": 5, "name": "pooja pharma pharmacy medicines cosmetics daily care", "reference": "ChIJocFo4ScRrjsREI4x9te61EY", "geometry": {"location": {"lat": 13.0020894, "lng": 77.6324509}, "viewport": {"northeast": {"lat": 13.0034004302915, "lng": 77.6338078302915}, "southwest": {"lat": 13.0007024697085, "lng": 77.6311098697085}}}, "opening_hours": {"open_now": true}, "place_id": "ChIJocFo4ScRrjsREI4x9te61EY", "plus_code": {"global_code": "7J5V2J2J+RX", "compound_code": "2J2J+RX Bengaluru, Karnataka, India"}, "vicinity": "Dodda Banaswadi Main Road, Jaibharath Nagar, Vivekananda Nagar, Maruthi Sevanagar, Bengaluru", "photos": [{"photo_reference": "ATtYBwLtJQ5AKbBl7gsHorBdnWpmV7Ct-ue_UOkt3wfmfC1r8sgJdcXGlgTzHWH2bEvE1K-SA3_iGamYm8udW13AagNFeO1YvMadOmdUc7nxzSKnj89FJ6ZN-FRlgtmVitBuReqdqBEk2yID6tCuGO5FoIE8ZZ_0L7-s14cdyyAkk750rnXd", "width": 800, "html_attributions": ["<a href=\"https://maps.google.com/maps/contrib/114194472628448509542\">pooja pharma pharmacy medicines cosmetics daily care</a>"], "height": 584}], "scope": "GOOGLE", "business_status": "OPERATIONAL", "types": ["hospital", "university", "health", "point_of_interest", "establishment"], "icon": "https://maps.gstatic.com/mapfiles/place_api/icons/v1/png_71/hospital-71.png"}, {"rating": 4.5, "user_ratings_total": 4, "name": "Swathi Medicals & General Stores", "reference": "ChIJ6R-DQ6IWrjsRh4BNwvEHKOo", "geometry": {"location": {"lat": 12.9780605, "lng": 77.63319349999999}, "viewport": {"northeast": {"lat": 12.9794101802915, "lng": 77.6344671302915}, "southwest": {"lat": 12.9767122197085, "lng": 77.63176916970849}}}, "opening_hours": {"open_now": true}, "place_id": "ChIJ6R-DQ6IWrjsRh4BNwvEHKOo", "plus_code": {"global_code": "7J4VXJHM+67", "compound_code": "XJHM+67 Bengaluru, Karnataka, India"}, "vicinity": "no.693 shop no, Chinmaya Mission Hospital Road, 1, 17th E Cross Road, Indiranagar, Bengaluru", "photos": [{"photo_reference": "ATtYBwLM56rn6HFUmrJb2s27npZ6G_-9DLQ6yP4JURKWZVxTj0NCPkd26hFtIBweUAvuvEUZQpLXoEmrHyA9ZJnTdIJ6Gm4lr-UeaJnj7vFaHOG90clRFAFORNsKq1GM9fSSN41jEkFYRi9n7BF-vNu8xrs3yLvImMd8kTDvZbbQGC1c1sp4", "width": 2048, "html_attributions": ["<a href=\"https://maps.google.com/maps/contrib/103404190971425875899\">Swathi Medicals &amp; General Stores</a>"], "height": 1152}], "scope": "GOOGLE", "business_status": "OPERATIONAL", "types": ["hospital", "health", "point_of_interest", "establishment"], "icon": "https://maps.gstatic.com/mapfiles/place_api/icons/v1/png_71/hospital-71.png"}, {"name": "Cox Town Hospital", "reference": "ChIJIwQHPe4WrjsRbikX7GV6m58", "geometry": {"location": {"lat": 12.9982371, "lng": 77.6201305}, "viewport": {"northeast": {"lat": 12.9994267802915, "lng": 77.6215477302915}, "southwest": {"lat": 12.9967288197085, "lng": 77.61884976970849}}}, "place_id": "ChIJIwQHPe4WrjsRbikX7GV6m58", "plus_code": {"global_code": "7J4VXJXC+73", "compound_code": "XJXC+73 Bengaluru, Karnataka, India"}, "vicinity": "Pulikeshi Nagar, Bengaluru", "photos": [{"photo_reference": "ATtYBwL3Km0v4t5zy4bLvZNNu0xznImNTW5xIO0xEcUY80B_45gTaU51-jvO3gNXV6PkwuwO0hblPu_zC-59zRW8tL7olajZqBN4yubskDf73UO8gGOE_mdKxguzo2Dp2oF9GbnogULqAz8OxG6CgeWcOclY4zxsvzIU8eHYIxWEC3rNHN_D", "width": 1920, "html_attributions": ["<a href=\"https://maps.google.com/maps/contrib/115918645477682971877\">S Jaya Prakash</a>"], "height": 1080}], "scope": "GOOGLE", "business_status": "OPERATIONAL", "types": ["hospital", "health", "point_of_interest", "establishment"], "icon": "https://maps.gstatic.com/mapfiles/place_api/icons/v1/png_71/hospital-71.png"}, {"name": "Syed's Heart Care", "reference": "ChIJ2-rc9aIWrjsRTeByFdV9ZIk", "geometry": {"location": {"lat": 12.977593, "lng": 77.6324533}, "viewport": {"northeast": {"lat": 12.9789074302915, "lng": 77.63388063029149}, "southwest": {"lat": 12.9762094697085, "lng": 77.63118266970848}}}, "place_id": "ChIJ2-rc9aIWrjsRTeByFdV9ZIk", "plus_code": {"global_code": "7J4VXJHJ+2X", "compound_code": "XJHJ+2X Bengaluru, Karnataka, India"}, "vicinity": "676, 17th F Cross Road, Eshwara Layout, Indiranagar, Bengaluru", "scope": "GOOGLE", "business_status": "OPERATIONAL", "types": ["hospital", "health", "point_of_interest", "establishment"], "icon": "https://maps.gstatic.com/mapfiles/place_api/icons/v1/png_71/hospital-71.png"}]}