{"status": "OK", "html_attributions": [], "results": [{"name": "Bothra Trust Hospital", "reference": "ChIJT5wFCWkXrjsRtkflP6VwYzk", "geometry": {"location": {"lat": 13.0025581, "lng": 77.632471}, "viewport": {"northeast": {"lat": 13.0039033802915, "lng": 77.63380228029149}, "southwest": {"lat": 13.0012054197085, "lng": 77.63110431970848}}}, "opening_hours": {"open_now": false}, "place_id": "ChIJT5wFCWkXrjsRtkflP6VwYzk", "plus_code": {"global_code": "7J5V2J3J+2X", "compound_code": "2J3J+2X Bengaluru, Karnataka, India"}, "vicinity": "12-29, 7th Cross Road, Jaibharath Nagar, Vivekananda Nagar, Maruthi Sevanagar, Bengaluru", "scope": "GOOGLE", "business_status": "OPERATIONAL", "types": ["hospital", "health", "point_of_interest", "establishment"], "icon": "https://maps.gstatic.com/mapfiles/place_api/icons/v1/png_71/hospital-71.png"}, {"rating": 3.7, "user_ratings_total": 24, "name": "Sundar Hospital", "reference": "ChIJeTYOgOQWrjsRXmKknIqSVQA", "geometry": {"location": {"lat": 13.0079705, "lng": 77.62216389999999}, "viewport": {"northeast": {"lat": 13.0093120302915, "lng": 77.6235217802915}, "southwest": {"lat": 13.0066140697085, "lng": 77.62082381970849}}}, "opening_hours": {"open_now": true}, "place_id": "ChIJeTYOgOQWrjsRXmKknIqSVQA", "plus_code": {"global_code": "7J5V2J5C+5V", "compound_code": "2J5C+5V Bengaluru, Karnataka, India"}, "vicinity": "Lingarajapuram, Bengaluru", "photos": [{"photo_reference": "ATtYBwJmY1lxadZoUxCMwXuMErXHk1y0f0jzS-DswMD7Imj5bFJvqOMdeZuku9T8h_vRSlc2nwVRm-MwP8-YiXgKJwZF-8o4EzutV3ESiE0LCEb9kSBVswrRlzUiN7Eogp6A3gN22l4IHgm9_ozXCLt6d4NUmp4KhZV0b85H-ymJ-6b6Z49E", "width": 1648, "html_attributions": ["<a href=\"https://maps.google.com/maps/contrib/106964971603056060622\">durjoy ghose</a>"], "height": 1236}], "scope": "GOOGLE", "business_status": "OPERATIONAL", "types": ["hospital", "health", "point_of_interest", "establishment"], "icon": "https://maps.gstatic.com/mapfiles/place_api/icons/v1/png_71/hospital-71.png"}, {"rating": 3.3, "user_ratings_total": 3, "name": "Amruth Medicals", "reference": "ChIJt1tatOUWrjsRddvQ5qt6Rbg", "geometry": {"location": {"lat": 13.0050549, "lng": 77.6233803}, "viewport": {"northeast": {"lat": 13.0064338302915, "lng": 77.6247467802915}, "southwest": {"lat": 13.0037358697085, "lng": 77.6220488197085}}}, "opening_hours": {"open_now": true}, "place_id": "ChIJt1tatOUWrjsRddvQ5qt6Rbg", "plus_code": {"global_code": "7J5V2J4F+29", "compound_code": "2J4F+29 Bengaluru, Karnataka, India"}, "vicinity": "4th Cross Road, Saint Thomas Town, Cooke Town, Bengaluru", "photos": [{"photo_reference": "ATtYBwKdFSik44cPH9U5WIHHx6-VwshwY_JoL7VtpG2miFS-fCFloo-h36GdOSsSc65IBvFN3QTA91u_8JD9b6dDFLX8TcquaWezCGkxYFqTTGYkBki-bq0tnw8FOwxASwabrMHf6gcbZNFhErPVdYieGBZtPUk8CpLzAVHTAVZ83KD4_OJN", "width": 4032, "html_attributions": ["<a href=\"https://maps.google.com/maps/contrib/106575317785890917340\">\u2022\u2022</a>"], "height": 2268}], "scope": "GOOGLE", "business_status": "OPERATIONAL", "types": ["hospital", "health", "point_of_interest", "establishment"], "icon": "https://maps.gstatic.com/mapfiles/place_api/icons/v1/png_71/hospital-71.png"}, {"name": "Sri Chandmal Bothra Charitable Medical Center", "reference": "ChIJv4SiEOgWrjsRctdZ8wpLaTY", "geometry": {"location": {"lat": 13.0018306, "lng": 77.6299497}, "viewport": {"northeast": {"lat": 13.0031843802915, "lng": 77.63133513029149}, "southwest": {"lat": 13.0004864197085, "lng": 77.62863716970848}}}, "opening_hours": {"open_now": false}, "place_id": "ChIJv4SiEOgWrjsRctdZ8wpLaTY", "plus_code": {"global_code": "7J5V2J2H+PX", "compound_code": "2J2H+PX Bengaluru, Karnataka, India"}, "vicinity": "Vivekananda Nagar, Maruthi Sevanagar, Bengaluru", "scope": "GOOGLE", "business_status": "OPERATIONAL", "types": ["hospital", "health", "point_of_interest", "establishment"], "icon": "https://maps.gstatic.com/mapfiles/place_api/icons/v1/png_71/hospital-71.png"}, {"rating": 4.7, "user_ratings_total": 16, "name": "Like Wings Hospitals", "reference": "ChIJ1_SoS0QXrjsRYB3r6h4SFoo", "geometry": {"location": {"lat": 13.018042, "lng": 77.628427}, "viewport": {"northeast": {"lat": 13.0194644302915, "lng": 77.62979873029151}, "southwest": {"lat": 13.0167664697085, "lng": 77.62710076970849}}}, "opening_hours": {"open_now": true}, "place_id": "ChIJ1_SoS0QXrjsRYB3r6h4SFoo", "plus_code": {"global_code": "7J5V2J9H+69", "compound_code": "2J9H+69 Bengaluru, Karnataka, India"}, "vicinity": "next to ISKCON Temple & Goshal, 74, 4th Main Rd, Kacharakanahalli, next to ISKCON Temple & Goshal, 1st Block, 1st Stage, HBR Layout, Bengaluru", "photos": [{"photo_reference": "ATtYBwJrGG3iY18pkyTblzQc0LASIOcExZyCD49JLPWTNmYwZfbUOZBcsvsOU0-x1q2SWQUf-cel5URQRsMS-m5ff15gUdqTJXYxvDB2QwtMgw0PF5d-FY0oqx5I5enMxdRT2cIMIK8bmYTSuNlo8stVrLGzJ4dLB2046zqi9MxYi8QWElcc", "width": 4608, "html_attributions": ["<a href=\"https://maps.google.com/maps/contrib/108553280253119815896\">Like Wings Hospitals</a>"], "height": 3456}], "scope": "GOOGLE", "business_status": "OPERATIONAL", "types": ["hospital", "doctor", "dentist", "health", "point_of_interest", "establishment"], "icon": "https://maps.gstatic.com/mapfiles/place_api/icons/v1/png_71/hospital-71.png"}, {"rating": 2.8, "user_ratings_total": 5, "name": "pooja pharma pharmacy medicines cosmetics daily care", "reference": "ChIJocFo4ScRrjsREI4x9te61EY", "geometry": {"location": {"lat": 13.0020894, "lng": 77.6324509}, "viewport": {"northeast": {"lat": 13.0034004302915, "lng": 77.6338078302915}, "southwest": {"lat": 13.0007024697085, "lng": 77.6311098697085}}}, "opening_hours": {"open_now": true}, "place_id": "ChIJocFo4ScRrjsREI4x9te61EY", "plus_code": {"global_code": "7J5V2J2J+RX", "compound_code": "2J2J+RX Bengaluru, Karnataka, India"}, "vicinity": "Dodda Banaswadi Main Road, Jaibharath Nagar, Vivekananda Nagar, Maruthi Sevanagar, Bengaluru", "photos": [{"photo_reference": "ATtYBwIbRkFQqNZSzTb-n0RJ2m6Qbd9LRg8NClWdNZy8wItjDr7VaPzN_s5kBObsVaZMd_ODeFZiZLNozxrzN8zFN3HlyB2QvsOckBPeqmGju7cUVwCJ3GTIHYVJQv4D7s2tAIsjlPPi6tILfGTDcZI_OXIvNJAK3zjtVF-n-MJORjbpeS2r", "width": 800, "html_attributions": ["<a href=\"https://maps.google.com/maps/contrib/114194472628448509542\">pooja pharma pharmacy medicines cosmetics daily care</a>"], "height": 584}], "scope": "GOOGLE", "business_status": "OPERATIONAL", "types": ["hospital", "university", "health", "point_of_interest", "establishment"], "icon": "https://maps.gstatic.com/mapfiles/place_api/icons/v1/png_71/hospital-71.png"}, {"rating": 4.8, "user_ratings_total": 6, "name": "Shree Lakshmi Venkateshwara Medicals", "reference": "ChIJrfMwkW8XrjsR00gAaZnAVzE", "geometry": {"location": {"lat": 13.016196, "lng": 77.6355753}, "viewport": {"northeast": {"lat": 13.0175762302915, "lng": 77.63693208029152}, "southwest": {"lat": 13.0148782697085, "lng": 77.6342341197085}}}, "opening_hours": {"open_now": true}, "place_id": "ChIJrfMwkW8XrjsR00gAaZnAVzE", "plus_code": {"global_code": "7J5V2J8P+F6", "compound_code": "2J8P+F6 Bengaluru, Karnataka, India"}, "vicinity": "#42, 2nd G Cross Road, Saint Thomas Town, Post, Kammanahalli, Bengaluru", "photos": [{"photo_reference": "ATtYBwKO-BcGPFnlav-HTxZvt9xJAbIz-aBsg9_ls6WukD_3syiKvx8bhdDhC9f2U9uBL1CX5U3brxRbEsxVaUURc2kSPdgMH5u4kd9Jkk-pBBObQxz266InL8tJwVz4oraMQOTneTw1PlwQmFDIVzvWF7JD7UXzMPKg4cVh0yxfBKH_tZbw", "width": 555, "html_attributions": ["<a href=\"https://maps.google.com/maps/contrib/100609962771024140110\">Shree Lakshmi Venkateshwara Medicals</a>"], "height": 311}], "scope": "GOOGLE", "business_status": "OPERATIONAL", "types": ["pharmacy", "hospital", "health", "point_of_interest", "store", "establishment"], "icon": "https://maps.gstatic.com/mapfiles/place_api/icons/v1/png_71/hospital-71.png"}, {"name": "Tooth Craft Dental Clinic", "reference": "ChIJl_xUvNgWrjsRErJB3mf8mLU", "geometry": {"location": {"lat": 13.0135864, "lng": 77.6376741}, "viewport": {"northeast": {"lat": 13.0149271302915, "lng": 77.6390213302915}, "southwest": {"lat": 13.0122291697085, "lng": 77.63632336970849}}}, "place_id": "ChIJl_xUvNgWrjsRErJB3mf8mLU", "plus_code": {"global_code": "7J5V2J7Q+C3", "compound_code": "2J7Q+C3 Bengaluru, Karnataka, India"}, "vicinity": "Lakhmamma Road, Venkateshappa Layout, Kammanahalli, Bengaluru", "scope": "GOOGLE", "business_status": "OPERATIONAL", "types": ["hospital", "health", "point_of_interest", "establishment"], "icon": "https://maps.gstatic.com/mapfiles/place_api/icons/v1/png_71/hospital-71.png"}, {"rating": 4.5, "user_ratings_total": 2, "name": "The Dental Centre", "reference": "ChIJe-eMM54XrjsRi3h2K4pP5as", "geometry": {"location": {"lat": 13.0161634, "lng": 77.6356895}, "viewport": {"northeast": {"lat": 13.0175462302915, "lng": 77.6370469302915}, "southwest": {"lat": 13.0148482697085, "lng": 77.63434896970848}}}, "opening_hours": {"open_now": true}, "place_id": "ChIJe-eMM54XrjsRi3h2K4pP5as", "plus_code": {"global_code": "7J5V2J8P+F7", "compound_code": "2J8P+F7 Bengaluru, Karnataka, India"}, "vicinity": "4, 3rd Main Road, Saint Thomas Town, Heerti Layout, Kacharakanahalli, Bengaluru", "photos": [{"photo_reference": "ATtYBwJZ9n6689btk-DGI4QFhQpQAyWUHz_OknenyDqPjiDMFwaBHF4ovABmghgmtX7X9eUelksTkgMS25HFCm8ggb1pMPCdPMuzQ-0xY8rL46lEB3gIOg8uuucSjUcU6Z1Oce2kT1pFnTowRc1upiMu_CssV93mwbipyD81gCTuPcl1llGF", "width": 3456, "html_attributions": ["<a href=\"https://maps.google.com/maps/contrib/115578160178662933667\">Anand Tauro</a>"], "height": 4608}], "scope": "GOOGLE", "business_status": "OPERATIONAL", "types": ["hospital", "health", "point_of_interest", "establishment"], "icon": "https://maps.gstatic.com/mapfiles/place_api/icons/v1/png_71/hospital-71.png"}, {"rating": 5, "user_ratings_total": 7, "name": "Sharadhambe Clinic", "reference": "ChIJ1xDGLcMWrjsRncxhqts9vHI", "geometry": {"location": {"lat": 13.0027228, "lng": 77.6341511}, "viewport": {"northeast": {"lat": 13.0040629302915, "lng": 77.6354681802915}, "southwest": {"lat": 13.0013649697085, "lng": 77.63277021970849}}}, "opening_hours": {"open_now": true}, "place_id": "ChIJ1xDGLcMWrjsRncxhqts9vHI", "plus_code": {"global_code": "7J5V2J3M+3M", "compound_code": "2J3M+3M Bengaluru, Karnataka, India"}, "vicinity": "1, 560033, 30, Kempanna Road, Ramaiahreddy Colony, Maruthi Sevanagar, Bengaluru", "photos": [{"photo_reference": "ATtYBwIna7k_TG3tBgOBowyyMybDGfw6MSZVUFEhnl3qBjecMfhe_mGgdwtJ9j63y8zvuhvkBIVLZhLisC03ba62Xm9zd3ek57ewkT2CfKxSZYJLPLZSrNW2Pyo6w6NJt9FvIkVMEwQdWUtrerQil0EM4V8dGw7LH7ZaGKpFgoAiVXYRbOP8", "width": 2448, "html_attributions": ["<a href=\"https://maps.google.com/maps/contrib/102564358829610442898\">Anil Nair</a>"], "height": 3264}], "scope": "GOOGLE", "business_status": "OPERATIONAL", "types": ["hospital", "health", "point_of_interest", "establishment"], "icon": "https://maps.gstatic.com/mapfiles/place_api/icons/v1/png_71/hospital-71.png"}, {"name": "Sri Basaveshwara Medicals", "reference": "ChIJabV5LcMWrjsRN3xiUYCMUtc", "geometry": {"location": {"lat": 13.002599, "lng": 77.63413129999999}, "viewport": {"northeast": {"lat": 13.0039532802915, "lng": 77.6354993802915}, "southwest": {"lat": 13.0012553197085, "lng": 77.6328014197085}}}, "opening_hours": {"open_now": true}, "place_id": "ChIJabV5LcMWrjsRN3xiUYCMUtc", "plus_code": {"global_code": "7J5V2J3M+2M", "compound_code": "2J3M+2M Bengaluru, Karnataka, India"}, "vicinity": "#30,shop no 4 layout m.s,nagar, Kempanna Road, Banaswadi, Bengaluru", "scope": "GOOGLE", "business_status": "OPERATIONAL", "types": ["hospital", "health", "point_of_interest", "establishment"], "icon": "https://maps.gstatic.com/mapfiles/place_api/icons/v1/png_71/hospital-71.png"}, {"rating": 5, "user_ratings_total": 3, "name": "pooja pharma", "reference": "ChIJNbDpcx4XrjsREsVLIbQQwvs", "geometry": {"location": {"lat": 13.0027692, "lng": 77.6345405}, "viewport": {"northeast": {"lat": 13.0041212802915, "lng": 77.6358999802915}, "southwest": {"lat": 13.0014233197085, "lng": 77.63320201970849}}}, "opening_hours": {"open_now": true}, "place_id": "ChIJNbDpcx4XrjsREsVLIbQQwvs", "plus_code": {"global_code": "7J5V2J3M+4R", "compound_code": "2J3M+4R Bengaluru, Karnataka, India"}, "vicinity": "17/1 banaswadi main road jai bharath nagar maruti sevanagar opp orion east mall, Bengaluru", "scope": "GOOGLE", "business_status": "OPERATIONAL", "types": ["hospital", "health", "point_of_interest", "establishment"], "icon": "https://maps.gstatic.com/mapfiles/place_api/icons/v1/png_71/hospital-71.png"}, {"rating": 3.4, "user_ratings_total": 5, "name": "Primecare Pharma - Maruti Sevanagar Branch", "reference": "ChIJWatCMcMWrjsRqZdo1fYHqrE", "geometry": {"location": {"lat": 13.0027984, "lng": 77.6346208}, "viewport": {"northeast": {"lat": 13.0041018302915, "lng": 77.63599888029151}, "southwest": {"lat": 13.0014038697085, "lng": 77.63330091970849}}}, "opening_hours": {"open_now": true}, "place_id": "ChIJWatCMcMWrjsRqZdo1fYHqrE", "plus_code": {"global_code": "7J5V2J3M+4R", "compound_code": "2J3M+4R Bengaluru, Karnataka, India"}, "vicinity": "#33/5,Ground floor, Dodda Banaswadi Main Road, Maruthi Sevanagar, Bengaluru", "photos": [{"photo_reference": "ATtYBwLE0MwENrcZ4sOeqsWudkzbE0QDKuR04RgvrRpt_lnz7TsfCCPK5sIacKy0v_OvgRzCKD5-39pNcfJFP6C2fqTf4MuC9A7asjLOJfUKEwrebMlpl2sF2LBzJhO0XahlM5PVjv31OirCchK1XhdKW-lX7bKWNet2-Uhkrt6aod977W5N", "width": 640, "html_attributions": ["<a href=\"https://maps.google.com/maps/contrib/101353778730884857359\">Primecare Pharma - Maruti Sevanagar Branch</a>"], "height": 480}], "scope": "GOOGLE", "business_status": "OPERATIONAL", "types": ["drugstore", "pharmacy", "hospital", "veterinary_care", "food", "health", "point_of_interest", "store", "establishment"], "icon": "https://maps.gstatic.com/mapfiles/place_api/icons/v1/png_71/shopping-71.png"}, {"rating": 4, "user_ratings_total": 4, "name": "Royale Medicals", "reference": "ChIJo7RqfdgWrjsRJJvkcTyRzo4", "geometry": {"location": {"lat": 13.0138274, "lng": 77.6377657}, "viewport": {"northeast": {"lat": 13.0153373302915, "lng": 77.63913153029151}, "southwest": {"lat": 13.0126393697085, "lng": 77.6364335697085}}}, "opening_hours": {"open_now": true}, "place_id": "ChIJo7RqfdgWrjsRJJvkcTyRzo4", "plus_code": {"global_code": "7J5V2J7Q+G4", "compound_code": "2J7Q+G4 Bengaluru, Karnataka, India"}, "vicinity": "6, #181, muniswammapa, Nehru Road, Saint Thomas Town, Muniswamappa Layout, Kacharakanahalli, Bengaluru", "photos": [{"photo_reference": "ATtYBwLkA6dZeKyOHDAVgH_u5duYMU38qizpHy9EIsK27_aDKuZe3CuJJFbgulOzajkxjopJrQEusz8OFFVn0LNdzoZVvqItiR0Daiw0Hs_5zG7H1MQpoYVaT23R_f1gH29mlPfF3ksHAx5ouK7efDWDWW6CxH367v589jjYXoT5N779_kFp", "width": 4160, "html_attributions": ["<a href=\"https://maps.google.com/maps/contrib/107944150332953887997\">muhammed asadulla</a>"], "height": 3120}], "scope": "GOOGLE", "business_status": "OPERATIONAL", "types": ["pharmacy", "hospital", "health", "point_of_interest", "store", "establishment"], "icon": "https://maps.gstatic.com/mapfiles/place_api/icons/v1/png_71/hospital-71.png"}, {"rating": 5, "user_ratings_total": 1, "name": "Akshaya neuro & Multi Speciality Hospital", "reference": "ChIJJ-QmBYcXrjsRAhtzxPbnSVs", "geometry": {"location": {"lat": 13.0163596, "lng": 77.6360318}, "viewport": {"northeast": {"lat": 13.0177085802915, "lng": 77.6373807802915}, "southwest": {"lat": 13.0150106197085, "lng": 77.63468281970849}}}, "place_id": "ChIJJ-QmBYcXrjsRAhtzxPbnSVs", "plus_code": {"global_code": "7J5V2J8P+GC", "compound_code": "2J8P+GC Bengaluru, Karnataka, India"}, "vicinity": "Pius church, No -09 ,Kammanahalli Main Road ,Near Door, Church Street, Bengaluru", "scope": "GOOGLE", "business_status": "OPERATIONAL", "types": ["hospital", "health", "point_of_interest", "establishment"], "icon": "https://maps.gstatic.com/mapfiles/place_api/icons/v1/png_71/hospital-71.png"}, {"rating": 5, "user_ratings_total": 1, "name": "Nagendra Clinic", "reference": "ChIJf3LzscEXrjsRqNZzV0Uh_VQ", "geometry": {"location": {"lat": 13.0023425, "lng": 77.63437669999999}, "viewport": {"northeast": {"lat": 13.0037241802915, "lng": 77.6357084802915}, "southwest": {"lat": 13.0010262197085, "lng": 77.63301051970849}}}, "place_id": "ChIJf3LzscEXrjsRqNZzV0Uh_VQ", "plus_code": {"global_code": "7J5V2J2M+WQ", "compound_code": "2J2M+WQ Bengaluru, Karnataka, India"}, "vicinity": "no m, 1, Dodda Banaswadi Main Road, Delhi Narayanappa Layout, Subbannaiah Palya, Sampangi Rama Nagar, Bengaluru", "scope": "GOOGLE", "business_status": "OPERATIONAL", "types": ["hospital", "health", "point_of_interest", "establishment"], "icon": "https://maps.gstatic.com/mapfiles/place_api/icons/v1/png_71/hospital-71.png"}, {"name": "Standard Surgical Company", "reference": "ChIJyzWlNScXrjsRdrhZBcw3_f8", "geometry": {"location": {"lat": 13.0159726, "lng": 77.6366526}, "viewport": {"northeast": {"lat": 13.0172667802915, "lng": 77.63798493029151}, "southwest": {"lat": 13.0145688197085, "lng": 77.63528696970849}}}, "place_id": "ChIJyzWlNScXrjsRdrhZBcw3_f8", "plus_code": {"global_code": "7J5V2J8P+9M", "compound_code": "2J8P+9M Bengaluru, Karnataka, India"}, "vicinity": "501, 5th Cross Road, Saint Thomas Town, Inasappa Layout, Kacharakanahalli, Bengaluru", "scope": "GOOGLE", "business_status": "OPERATIONAL", "types": ["hospital", "health", "point_of_interest", "establishment"], "icon": "https://maps.gstatic.com/mapfiles/place_api/icons/v1/png_71/hospital-71.png"}, {"rating": 4.5, "user_ratings_total": 2, "name": "Vision 360", "reference": "ChIJBUO_0yAXrjsRSN7-03BAJhs", "geometry": {"location": {"lat": 13.0167771, "lng": 77.63616480000002}, "viewport": {"northeast": {"lat": 13.0181309802915, "lng": 77.63751448029151}, "southwest": {"lat": 13.0154330197085, "lng": 77.63481651970851}}}, "opening_hours": {"open_now": true}, "place_id": "ChIJBUO_0yAXrjsRSN7-03BAJhs", "plus_code": {"global_code": "7J5V2J8P+PF", "compound_code": "2J8P+PF Bengaluru, Karnataka, India"}, "vicinity": "Bengaluru, Ramaiah Layout, Kacharakanahalli, Bengaluru", "photos": [{"photo_reference": "ATtYBwJ--1X0FsWQKANt2kF9ICcOw30Zsq2_Zqjikvl-xGoHcqWqI5dugv_Zrc10mpWTGn1J3CfjKEKvpFGjFRmZYp4PigBQeUnTJs8yLueFgBOLd4w6_47EZzuUNZEoC6X4F6wy-oxSKz0yUYxNgy3WEE1E6JYju2EnkgdMC2yvvv-w5QL1", "width": 2448, "html_attributions": ["<a href=\"https://maps.google.com/maps/contrib/106339882681579687127\">Antony Robinson</a>"], "height": 3264}], "scope": "GOOGLE", "business_status": "OPERATIONAL", "types": ["hospital", "health", "point_of_interest", "establishment"], "icon": "https://maps.gstatic.com/mapfiles/place_api/icons/v1/png_71/hospital-71.png"}, {"name": "dental clinic", "reference": "ChIJk11rytsWrjsRnh1jITmgCEw", "geometry": {"location": {"lat": 13.0075516, "lng": 77.63903049999999}, "viewport": {"northeast": {"lat": 13.0089010802915, "lng": 77.6403850802915}, "southwest": {"lat": 13.0062031197085, "lng": 77.63768711970849}}}, "place_id": "ChIJk11rytsWrjsRnh1jITmgCEw", "plus_code": {"global_code": "7J5V2J5Q+2J", "compound_code": "2J5Q+2J Bengaluru, Karnataka, India"}, "vicinity": "96, Jayalakshmi School Road, Ramaswamipalya, Banaswadi, Bengaluru", "scope": "GOOGLE", "business_status": "OPERATIONAL", "types": ["hospital", "health", "point_of_interest", "establishment"], "icon": "https://maps.gstatic.com/mapfiles/place_api/icons/v1/png_71/hospital-71.png"}, {"rating": 5, "user_ratings_total": 1, "name": "Dental care clinic", "reference": "ChIJsztptNsWrjsRok2_9wsdtKs", "geometry": {"location": {"lat": 13.0071979, "lng": 77.6390552}, "viewport": {"northeast": {"lat": 13.0085457302915, "lng": 77.64038078029151}, "southwest": {"lat": 13.0058477697085, "lng": 77.63768281970849}}}, "place_id": "ChIJsztptNsWrjsRok2_9wsdtKs", "plus_code": {"global_code": "7J5V2J4Q+VJ", "compound_code": "2J4Q+VJ Bengaluru, Karnataka, India"}, "vicinity": "96, Jayalakshmi School Road, Ramaswamipalya, Banaswadi, Bengaluru", "scope": "GOOGLE", "business_status": "OPERATIONAL", "types": ["hospital", "health", "point_of_interest", "establishment"], "icon": "https://maps.gstatic.com/mapfiles/place_api/icons/v1/png_71/hospital-71.png"}]}