{"status": "OK", "html_attributions": [], "results": [{"name": "Patwals Dental", "reference": "ChIJXVLYTZhvrjsR2FP8KYYSBUk", "geometry": {"location": {"lat": 12.7834933, "lng": 77.6840233}, "viewport": {"northeast": {"lat": 12.7848428802915, "lng": 77.6853734302915}, "southwest": {"lat": 12.7821449197085, "lng": 77.6826754697085}}}, "place_id": "ChIJXVLYTZhvrjsR2FP8KYYSBUk", "plus_code": {"global_code": "7J4VQMMM+9J", "compound_code": "QMMM+9J Hennagara Amanikere, Karnataka, India"}, "vicinity": "Unnamed Road", "scope": "GOOGLE", "business_status": "OPERATIONAL", "types": ["hospital", "health", "point_of_interest", "establishment"], "icon": "https://maps.gstatic.com/mapfiles/place_api/icons/v1/png_71/hospital-71.png"}, {"name": "Surya Nagar Govt Hospital", "reference": "ChIJL5joqCpsrjsR7PpC6f1jI4g", "geometry": {"location": {"lat": 12.7916878, "lng": 77.6988356}, "viewport": {"northeast": {"lat": 12.7931160802915, "lng": 77.7001873802915}, "southwest": {"lat": 12.7904181197085, "lng": 77.69748941970849}}}, "place_id": "ChIJL5joqCpsrjsR7PpC6f1jI4g", "plus_code": {"global_code": "7J4VQMRX+MG", "compound_code": "QMRX+MG Bommasandra, Karnataka, India"}, "vicinity": "Suryanagar Phase I, Suryanagar, Bommasandra", "scope": "GOOGLE", "business_status": "OPERATIONAL", "types": ["hospital", "health", "point_of_interest", "establishment"], "icon": "https://maps.gstatic.com/mapfiles/place_api/icons/v1/png_71/hospital-71.png"}, {"name": "PARNIKA CLINIC,", "reference": "ChIJJ7XD0NRtrjsRD2Oqpt-ln4g", "geometry": {"location": {"lat": 12.7947466, "lng": 77.70001719999999}, "viewport": {"northeast": {"lat": 12.7960553302915, "lng": 77.70136448029149}, "southwest": {"lat": 12.7933573697085, "lng": 77.69866651970848}}}, "opening_hours": {"open_now": true}, "place_id": "ChIJJ7XD0NRtrjsRD2Oqpt-ln4g", "plus_code": {"global_code": "7J4VQPV2+V2", "compound_code": "QPV2+V2 Bommasandra, Karnataka, India"}, "vicinity": "Bommasandra, Suryanagar Phase I, Suryanagar, Bommasandra", "scope": "GOOGLE", "business_status": "OPERATIONAL", "types": ["hospital", "health", "point_of_interest", "establishment"], "icon": "https://maps.gstatic.com/mapfiles/place_api/icons/v1/png_71/hospital-71.png"}, {"name": "Srinivasa Medicals & General Store", "reference": "ChIJp7_dDS5srjsRxAXa6FhZ2TI", "geometry": {"location": {"lat": 12.8013698, "lng": 77.6930749}, "viewport": {"northeast": {"lat": 12.8026924802915, "lng": 77.69442338029151}, "southwest": {"lat": 12.7999945197085, "lng": 77.69172541970849}}}, "opening_hours": {"open_now": true}, "place_id": "ChIJp7_dDS5srjsRxAXa6FhZ2TI", "plus_code": {"global_code": "7J4VRM2V+G6", "compound_code": "RM2V+G6 Kithiganahalli, Karnataka, India"}, "vicinity": "Hennagara Main Road, Kithiganahalli", "photos": [{"photo_reference": "ATtYBwLx00SanWm-FXGgpJ5-EHIQqKn2MO09wuETZMzsbdfC7facr6sXoJmeJqfDs1Jc3O9i9NCegZsJQu2LRPB0JNAgjcsVOKQkpDQEklLeVWmCwYUv9l342JW5fIuOJi4RCLLFJ0OPpn7lavtjRYPqNxNTPsLCDFOfRfI7mDQpKERKi5Ay", "width": 3120, "html_attributions": ["<a href=\"https://maps.google.com/maps/contrib/102453963908192774738\">SANTHOSH</a>"], "height": 4160}], "scope": "GOOGLE", "business_status": "OPERATIONAL", "types": ["hospital", "health", "point_of_interest", "establishment"], "icon": "https://maps.gstatic.com/mapfiles/place_api/icons/v1/png_71/hospital-71.png"}, {"rating": 5, "user_ratings_total": 1, "name": "Balaji clinic", "reference": "ChIJxZRgStNtrjsRh8ZnKK2UsQI", "geometry": {"location": {"lat": 12.7984482, "lng": 77.6996144}, "viewport": {"northeast": {"lat": 12.7998198302915, "lng": 77.70091603029151}, "southwest": {"lat": 12.7971218697085, "lng": 77.6982180697085}}}, "place_id": "ChIJxZRgStNtrjsRh8ZnKK2UsQI", "plus_code": {"global_code": "7J4VQMXX+9R", "compound_code": "QMXX+9R Bommasandra, Karnataka, India"}, "vicinity": "Bommasandra, Banahalli, Suryanagar, Bommasandra", "scope": "GOOGLE", "business_status": "OPERATIONAL", "types": ["hospital", "health", "point_of_interest", "establishment"], "icon": "https://maps.gstatic.com/mapfiles/place_api/icons/v1/png_71/hospital-71.png"}]}