{"status": "OK", "next_page_token": "ATtYBwJGpZCMksgtCKLL5hosvdlDaSPxFpM-0Cbl5q5LYscbjS6k4tXJ-euPby0QgRIpkGLkrfb2Wc1Aehl6_fQl8fsur8lL6qBdHnzpYpZgvw08eiVvwEWy6k3Bv5GTpiUVt0yM2wf38NiomJMq-w56pEPHHd_JPUvYaIXGX_jrGil8-qwtjpyseCL8cJBzCPpandvvp2KleyxvYGItXt-RrZne7e6TBq0Ys2kHxDAsNXmDjh4LDoDuYs3F6lFecucmG9H4ItZFhpX-I-QeFSR_zSFrPvOqn5M1pLVeRJEXBXx6vY9gjt_w_btWh_72wi-VrLBArBsEekFZ3X0oCf7msqfbd4M6ONs8AHIU3S32zDtzoDK_BAcbMw8MelE56M3-lCdyNCeFZuRet0tIcNEnFDncBVIQm0AhNkBNsoOqaqLpOFCSqNk", "html_attributions": [], "results": [{"rating": 4.3, "user_ratings_total": 20, "name": "F S Endocrinology & Diabetic Center", "reference": "ChIJq3qOkm-YyzsRqU_EE5SNImU", "geometry": {"location": {"lat": 17.3554172, "lng": 78.5056719}, "viewport": {"northeast": {"lat": 17.3567183802915, "lng": 78.5070201302915}, "southwest": {"lat": 17.3540204197085, "lng": 78.50432216970849}}}, "opening_hours": {"open_now": false}, "place_id": "ChIJq3qOkm-YyzsRqU_EE5SNImU", "plus_code": {"global_code": "7J9W9G44+57", "compound_code": "9G44+57 Hyderabad, Telangana, India"}, "vicinity": "opposite Ioc Petrol Pump, Bintrif Nagar, Saidabad, Hyderabad", "photos": [{"photo_reference": "ATtYBwIOIdzKeuoGH5a46YeOoUdkBRy1v7QOM5z3kiiArs14XjnIuDghGjFLsNXaMqNdDYx2BcpBLRtEKcTIa5F6nxDKshg_fjFqkQEILm5BUuesrGA0qHAxgMoRhi8lynbpfn-MU8_KfKBs_dB0LpS4HbMU_iLwG4-lGkE8hQddTQtMQw-7", "width": 4032, "html_attributions": ["<a href=\"https://maps.google.com/maps/contrib/107762296038570886327\">F S Endocrinology &amp; Diabetic Center</a>"], "height": 3024}], "scope": "GOOGLE", "business_status": "OPERATIONAL", "types": ["doctor", "health", "point_of_interest", "establishment"], "icon": "https://maps.gstatic.com/mapfiles/place_api/icons/v1/png_71/generic_business-71.png"}, {"name": "Medi Quest Clinic", "reference": "ChIJN00i0UOYyzsR1ApbgVu6zb8", "geometry": {"location": {"lat": 17.3625816, "lng": 78.5040394}, "viewport": {"northeast": {"lat": 17.3639249802915, "lng": 78.50534538029152}, "southwest": {"lat": 17.3612270197085, "lng": 78.5026474197085}}}, "place_id": "ChIJN00i0UOYyzsR1ApbgVu6zb8", "plus_code": {"global_code": "7J9W9G73+2J", "compound_code": "9G73+2J Hyderabad, Telangana, India"}, "vicinity": "Sayeedabad Colony, Saidabad, Hyderabad", "scope": "GOOGLE", "business_status": "OPERATIONAL", "types": ["doctor", "health", "point_of_interest", "establishment"], "icon": "https://maps.gstatic.com/mapfiles/place_api/icons/v1/png_71/generic_business-71.png"}, {"rating": 4.5, "user_ratings_total": 22, "name": "Dr Rajeev Garg", "reference": "ChIJVVVVYRqXyzsRW0uhmGh6hNk", "geometry": {"location": {"lat": 17.3511536, "lng": 78.50714839999999}, "viewport": {"northeast": {"lat": 17.3525421302915, "lng": 78.50856718029151}, "southwest": {"lat": 17.3498441697085, "lng": 78.5058692197085}}}, "opening_hours": {"open_now": false}, "place_id": "ChIJVVVVYRqXyzsRW0uhmGh6hNk", "plus_code": {"global_code": "7J9W9G24+FV", "compound_code": "9G24+FV Hyderabad, Telangana, India"}, "vicinity": "17-1-210, 4, Santosh Nagar Main Road, New Santoshnagar, Santosh Nagar, Hyderabad", "scope": "GOOGLE", "business_status": "OPERATIONAL", "types": ["doctor", "health", "point_of_interest", "establishment"], "icon": "https://maps.gstatic.com/mapfiles/place_api/icons/v1/png_71/generic_business-71.png"}, {"rating": 3.7, "user_ratings_total": 46, "name": "Sri Srinivasa Hospital", "reference": "ChIJ81lMdW-YyzsRnHD642bc-hI", "geometry": {"location": {"lat": 17.35063899999999, "lng": 78.50785499999999}, "viewport": {"northeast": {"lat": 17.3519431302915, "lng": 78.5092267802915}, "southwest": {"lat": 17.3492451697085, "lng": 78.50652881970849}}}, "opening_hours": {"open_now": true}, "place_id": "ChIJ81lMdW-YyzsRnHD642bc-hI", "plus_code": {"global_code": "7J9W9G25+74", "compound_code": "9G25+74 Hyderabad, Telangana, India"}, "vicinity": "Door No. 17, 1-380/E/28 & 32, CE Colony, Santosh Nagar, Hyderabad", "photos": [{"photo_reference": "ATtYBwINbe-ebZjA806Fja-1vdW9ha6eVmN-ehVC6bzHSZv0fTDMFzr5yDfJesyO88wbwMBwPAfYXhRyAi6CWaCbuyxho63F3Gdyv-eMlCV4Xfg5ZIN7wgrHpRFQ6e2b6kGRzONdbYHB4SmGeyeG3xFqYTd7Ujl3KAd0w2tlMLXJCQtgw3wZ", "width": 3377, "html_attributions": ["<a href=\"https://maps.google.com/maps/contrib/110488993051771216911\">Mohammed Hussain</a>"], "height": 1960}], "scope": "GOOGLE", "business_status": "OPERATIONAL", "types": ["hospital", "doctor", "health", "point_of_interest", "establishment"], "icon": "https://maps.gstatic.com/mapfiles/place_api/icons/v1/png_71/hospital-71.png"}, {"rating": 4, "user_ratings_total": 233, "name": "Dr Batra's Homeopathy", "reference": "ChIJLdmlOvaYyzsRcNUPHC7t7Yg", "geometry": {"location": {"lat": 17.3678284, "lng": 78.5196134}, "viewport": {"northeast": {"lat": 17.3692324802915, "lng": 78.52099718029152}, "southwest": {"lat": 17.3665345197085, "lng": 78.5182992197085}}}, "opening_hours": {"open_now": false}, "place_id": "ChIJLdmlOvaYyzsRcNUPHC7t7Yg", "plus_code": {"global_code": "7J9W9G99+4R", "compound_code": "9G99+4R Hyderabad, Telangana, India"}, "vicinity": "near Konark Diagnostics, No 16/2/753/A, 1st Floor Gadiannaram, near Konark Diagnostics, Asmangadh Road, Dilsukhnagar, Hyderabad", "photos": [{"photo_reference": "ATtYBwJdx5S8kHxd70Y_ZEsPfGJoWrGA-R4GvcTX7VTtlgxuIk1U5kdnQWwVYLoK5p_HSFAB7Zm80ciTIdLCu4luTg7HG8XidvCoTJwhetulZVv63vJQ2c9F9-EWansnJO2XdnJRQFtVnkSd-etZrXbifuC3KJMPeKaNJZC5gnTdmSjDL5OJ", "width": 1568, "html_attributions": ["<a href=\"https://maps.google.com/maps/contrib/113136012674236462806\">Ppr</a>"], "height": 1168}], "scope": "GOOGLE", "business_status": "OPERATIONAL", "types": ["drugstore", "pharmacy", "doctor", "health", "point_of_interest", "store", "establishment"], "icon": "https://maps.gstatic.com/mapfiles/place_api/icons/v1/png_71/generic_business-71.png"}, {"rating": 3.6, "user_ratings_total": 91, "name": "Malakpet Neuro center", "reference": "ChIJRfrAW0WYyzsRqxSMDHo6Njw", "geometry": {"location": {"lat": 17.3705472, "lng": 78.5083118}, "viewport": {"northeast": {"lat": 17.3718949802915, "lng": 78.5097057802915}, "southwest": {"lat": 17.3691970197085, "lng": 78.50700781970849}}}, "opening_hours": {"open_now": false}, "place_id": "ChIJRfrAW0WYyzsRqxSMDHo6Njw", "plus_code": {"global_code": "7J9W9GC5+68", "compound_code": "9GC5+68 Hyderabad, Telangana, India"}, "vicinity": "Mumtaz College Road, Andhra Colony, Malakpet, Hyderabad", "photos": [{"photo_reference": "ATtYBwJcBY0bNygie2dMh6VcpRlNqDNpOQm2ic6e0bDmLc4HK2J8CmFOjFSN8O-cxAl-dJ4oylyJA1I6eezrwJ7-5vXG-s6tvlZ8Hv8aPdFmQJQLLh7Qw1mOpmnTSsANRyzt2BKOGoCR3GraAUFDvrVr0X-vi1m99bYb7X-V2kDziZrFSWEG", "width": 2048, "html_attributions": ["<a href=\"https://maps.google.com/maps/contrib/112882875606308042271\">Ajay Chanti</a>"], "height": 1536}], "scope": "GOOGLE", "business_status": "OPERATIONAL", "types": ["doctor", "health", "point_of_interest", "establishment"], "icon": "https://maps.gstatic.com/mapfiles/place_api/icons/v1/png_71/generic_business-71.png"}, {"rating": 4.5, "user_ratings_total": 13, "name": "Dr.Dhar's Heart Clinic", "reference": "ChIJzw_WnYeYyzsRRxnDJjz78gQ", "geometry": {"location": {"lat": 17.3500244, "lng": 78.514173}, "viewport": {"northeast": {"lat": 17.3513604802915, "lng": 78.5155553302915}, "southwest": {"lat": 17.3486625197085, "lng": 78.51285736970848}}}, "opening_hours": {"open_now": false}, "place_id": "ChIJzw_WnYeYyzsRRxnDJjz78gQ", "plus_code": {"global_code": "7J9W9G27+2M", "compound_code": "9G27+2M Hyderabad, Telangana, India"}, "vicinity": "H.No9-9-172,Reddy Colony,Near D-Mart,Opp.lane to Indian Oil petrol pump, Champapet, Hyderabad", "photos": [{"photo_reference": "ATtYBwLflgvLEFCisMWH8svCyftrqnpT2b4SO0ORPfurX8dUFRWb8cLiwoJ6B-eyHYIXrR_97I3r7YPweYQtuXzUWxMKd5bLNEmbklz0jNZcxQ0rCDucMKd8scFk2zX-THXPAqVtqpx3B4NfrfqTn1oq4NxsLtBqLj_bcLSY8J6O-_1_Gvz8", "width": 2048, "html_attributions": ["<a href=\"https://maps.google.com/maps/contrib/104504828474574766763\">Dr.Dhar&#39;s Heart Clinic</a>"], "height": 1536}], "scope": "GOOGLE", "business_status": "OPERATIONAL", "types": ["hospital", "doctor", "health", "point_of_interest", "establishment"], "icon": "https://maps.gstatic.com/mapfiles/place_api/icons/v1/png_71/generic_business-71.png"}, {"rating": 2.9, "user_ratings_total": 43, "name": "Midas ENT Head & Neck Super Speciality Hospital", "reference": "ChIJt6KPplmYyzsReoISNkwdPx8", "geometry": {"location": {"lat": 17.3689497, "lng": 78.5168666}, "viewport": {"northeast": {"lat": 17.3702906302915, "lng": 78.51826088029149}, "southwest": {"lat": 17.3675926697085, "lng": 78.51556291970849}}}, "opening_hours": {"open_now": false}, "place_id": "ChIJt6KPplmYyzsReoISNkwdPx8", "plus_code": {"global_code": "7J9W9G98+HP", "compound_code": "9G98+HP Hyderabad, Telangana, India"}, "vicinity": "beside Konark Diagnostic Centre, House No 16-2-741/2,Plot 64 ,Andhra Bank Colony, Dilsukhnagar, beside Konark Diagnostic Centre, Hyderabad", "photos": [{"photo_reference": "ATtYBwJEfyjPB3ITt6EBXXw66q1ocCGBF-BMcZ8CI9OU-mOvqDbrgpKnlg7OYdZCi3DKp3JXQvrKrvmMJ5ud-D7wGe1y-EaA3UlWRlZ3Rpr0IlkN0fqRTOb0iiThZ_AdXVDTRb1N8NbcSJP6lN5Kcn4YN1hA_404wT0zlIGRDX0yVpNR22Bo", "width": 2048, "html_attributions": ["<a href=\"https://maps.google.com/maps/contrib/114632391547329126142\">Midas ENT Head &amp; Neck Super Speciality Hospital</a>"], "height": 1536}], "scope": "GOOGLE", "business_status": "OPERATIONAL", "types": ["doctor", "health", "point_of_interest", "establishment"], "icon": "https://maps.gstatic.com/mapfiles/place_api/icons/v1/png_71/generic_business-71.png"}, {"rating": 4.7, "user_ratings_total": 41, "name": "Dr. Mohan's Diabetes Specialities Centre - Mallakpet", "reference": "ChIJU8YBfFCYyzsR8_qjSXrGpTE", "geometry": {"location": {"lat": 17.371619, "lng": 78.511788}, "viewport": {"northeast": {"lat": 17.3729309802915, "lng": 78.5132038302915}, "southwest": {"lat": 17.3702330197085, "lng": 78.5105058697085}}}, "place_id": "ChIJU8YBfFCYyzsR8_qjSXrGpTE", "plus_code": {"global_code": "7J9W9GC6+JP", "compound_code": "9GC6+JP Hyderabad, Telangana, India"}, "vicinity": "Plot No.10 & 11, H.No.16-11-2017/A, 2nd Floor, Opp to T.V. Tower, Mallakpet, (Dilsukh Nagar), Hyderabad", "photos": [{"photo_reference": "ATtYBwJrx15zjnAZUhzdzelcZN8UWFcclaAhuhp6ZTdjhZRS7yk2j7qpgPOtPfqcjtpcOUM0wl7Ejqv29XnDWYiPVRfRz3Ye8y1n3Pmo1_XPSk4zh3hxr14CWlNqe36mP0HTb7ksTeEKDuMkdhHIbQL10cMaAYM_nNFLmOqiUBZ8RrH_vBCZ", "width": 3264, "html_attributions": ["<a href=\"https://maps.google.com/maps/contrib/115654458079562247194\">prk bharadwaja</a>"], "height": 2448}], "scope": "GOOGLE", "business_status": "OPERATIONAL", "types": ["doctor", "health", "point_of_interest", "establishment"], "icon": "https://maps.gstatic.com/mapfiles/place_api/icons/v1/png_71/generic_business-71.png"}, {"rating": 4.9, "user_ratings_total": 9, "name": "AIS Clinic - Homeopathy Clinic, Dilsukhnagar, Hyderabad", "reference": "ChIJxbH7kliYyzsRgmP5Of-oG2k", "geometry": {"location": {"lat": 17.3679297, "lng": 78.5193841}, "viewport": {"northeast": {"lat": 17.3692026302915, "lng": 78.5207152802915}, "southwest": {"lat": 17.3665046697085, "lng": 78.51801731970849}}}, "opening_hours": {"open_now": false}, "place_id": "ChIJxbH7kliYyzsRgmP5Of-oG2k", "plus_code": {"global_code": "7J9W9G99+5Q", "compound_code": "9G99+5Q Hyderabad, Telangana, India"}, "vicinity": "beside Konark Diagnostic Centre, 1st Floor, Sri Sri House, Above Bata Showroom, beside Konark Diagnostic Centre, Dilsukhnagar, Hyderabad", "photos": [{"photo_reference": "ATtYBwJExfmRPiZIQ2wb8VFYIpHAIcfzbJQVB_x9W33BKjjqjlx5ou7KpkeQv9Wl1UYmiovL9VnuzjQru5P-jDZYCY63sQhMSGXR-Yo-tvvVAxhwdvY5Rs63-Nd3g9aNCkGroa_4KNDecdgxL-hTF87b3jFTf5LhsHxBFOw1MS_bypNmnqyM", "width": 850, "html_attributions": ["<a href=\"https://maps.google.com/maps/contrib/107416522193756474549\">AIS Clinic - Homeopathy Clinic, Dilsukhnagar, Hyderabad</a>"], "height": 312}], "scope": "GOOGLE", "business_status": "OPERATIONAL", "types": ["doctor", "health", "point_of_interest", "establishment"], "icon": "https://maps.gstatic.com/mapfiles/place_api/icons/v1/png_71/generic_business-71.png"}, {"rating": 4.8, "user_ratings_total": 12, "name": "Rajesh Dental Specialities", "reference": "ChIJp4f6o1iYyzsRGnfQXMBdRiU", "geometry": {"location": {"lat": 17.3670492, "lng": 78.5202379}, "viewport": {"northeast": {"lat": 17.3684136802915, "lng": 78.5215528302915}, "southwest": {"lat": 17.3657157197085, "lng": 78.51885486970849}}}, "opening_hours": {"open_now": false}, "place_id": "ChIJp4f6o1iYyzsRGnfQXMBdRiU", "plus_code": {"global_code": "7J9W9G8C+R3", "compound_code": "9G8C+R3 Hyderabad, Telangana, India"}, "vicinity": "opp. Heritage Mart, 16-2-754/A, First Floor, opp. Heritage Mart, Shiva-Ganga Theater Road, Gaddiannaram, Hyderabad", "photos": [{"photo_reference": "ATtYBwIfvs1cL35eznHm3MhAFBbOjGnhu-EkHBebQIHpChzHIZs-taNnz-cWa1kav9CWfmEL6R04Ye4filOK9ArvyPaO6pk1E0wFyt2UFI61Y5v3sCzwDPuaWlxTc59BOj0UUcGLYiPp4lUIppn3FpDTZXT4IhQf8J955GGa1Vc5goHG4Br-", "width": 2576, "html_attributions": ["<a href=\"https://maps.google.com/maps/contrib/109053903059429448862\">Rajesh Dental Specialities</a>"], "height": 1932}], "scope": "GOOGLE", "business_status": "OPERATIONAL", "types": ["doctor", "dentist", "health", "point_of_interest", "establishment"], "icon": "https://maps.gstatic.com/mapfiles/place_api/icons/v1/png_71/generic_business-71.png"}, {"rating": 4, "user_ratings_total": 4, "name": "NephroPlus Dialysis Center", "reference": "ChIJN8-0qmeYyzsRbIi4vg7ad98", "geometry": {"location": {"lat": 17.3512818, "lng": 78.5094245}, "viewport": {"northeast": {"lat": 17.3525464302915, "lng": 78.5107350802915}, "southwest": {"lat": 17.34984846970849, "lng": 78.50803711970849}}}, "opening_hours": {"open_now": false}, "place_id": "ChIJN8-0qmeYyzsRbIi4vg7ad98", "plus_code": {"global_code": "7J9W9G25+GQ", "compound_code": "9G25+GQ Hyderabad, Telangana, India"}, "vicinity": "Nightingale Hospital,17-1-383/9, Opp Ambar Biscuit Factory Chowrastha, Santoshnagar,, Saidabad, Hyderabad", "photos": [{"photo_reference": "ATtYBwIZ3UMQUs2KsX2MoRbnOx4pzZIr4hL4XnRjpuZwgwOpyNgMbx3Yx_PXh4SATyAmPDgegmH2R9Z0AKpsPO27oOkS-RtUHFrL_JR1DE01lCUkb6fVFqbX2Z7m_nZLdA106X_rD4jAcGwFoXYgt9m9Gx9oeLdq2EKVCTjFquru3MlCNs-A", "width": 3000, "html_attributions": ["<a href=\"https://maps.google.com/maps/contrib/116271808413606365348\">Naveen Thathari</a>"], "height": 4000}], "scope": "GOOGLE", "business_status": "OPERATIONAL", "types": ["hospital", "doctor", "health", "point_of_interest", "establishment"], "icon": "https://maps.gstatic.com/mapfiles/place_api/icons/v1/png_71/generic_business-71.png"}, {"rating": 5, "user_ratings_total": 1, "name": "Maskan-E-Zuha", "reference": "ChIJLyd01_iZyzsReX2nwl177x8", "geometry": {"location": {"lat": 17.3604035, "lng": 78.5116908}, "viewport": {"northeast": {"lat": 17.3617684302915, "lng": 78.5129730302915}, "southwest": {"lat": 17.3590704697085, "lng": 78.5102750697085}}}, "place_id": "ChIJLyd01_iZyzsReX2nwl177x8", "plus_code": {"global_code": "7J9W9G66+5M", "compound_code": "9G66+5M Hyderabad, Telangana, India"}, "vicinity": "New Farah Colony, Madhav Nagar, Saidabad, Hyderabad", "photos": [{"photo_reference": "ATtYBwK8Ck_nHVwHUWe1CkAKhj_s-C2ylZcQ9c0mMi-tMoRClTRxB0W8LGjnPvTsS0uTk7GJmzLfgkcktb3A6hGMhX3CAMfcebL4tgrVSfHihUVPVVcGWfn5PWWTCXFcJuQKOMUt00MQkxso2GRCA31mudpKU0xqpFcN5EXujjA0qxy0BhM", "width": 3000, "html_attributions": ["<a href=\"https://maps.google.com/maps/contrib/111559737691303803758\">MKM Faiyaz Ahmed</a>"], "height": 4000}], "scope": "GOOGLE", "business_status": "OPERATIONAL", "types": ["doctor", "health", "point_of_interest", "establishment"], "icon": "https://maps.gstatic.com/mapfiles/place_api/icons/v1/png_71/generic_business-71.png"}, {"name": "Childrens Doctor Raman & Vaccination Center", "reference": "ChIJjVSpdjOZyzsRa4YW49xkUf8", "geometry": {"location": {"lat": 17.3621002, "lng": 78.5097163}, "viewport": {"northeast": {"lat": 17.3635289302915, "lng": 78.5110684802915}, "southwest": {"lat": 17.3608309697085, "lng": 78.50837051970848}}}, "opening_hours": {"open_now": false}, "place_id": "ChIJjVSpdjOZyzsRa4YW49xkUf8", "plus_code": {"global_code": "7J9W9G65+RV", "compound_code": "9G65+RV Hyderabad, Telangana, India"}, "vicinity": "opposite Faizululoom, Colony Main Road, Saidabad, Hyderabad", "scope": "GOOGLE", "business_status": "OPERATIONAL", "types": ["doctor", "health", "point_of_interest", "establishment"], "icon": "https://maps.gstatic.com/mapfiles/place_api/icons/v1/png_71/generic_business-71.png"}, {"name": "Dr Bari", "reference": "ChIJLdLs6OKZyzsRmObqMAHpy44", "geometry": {"location": {"lat": 17.3605045, "lng": 78.5124878}, "viewport": {"northeast": {"lat": 17.3618535302915, "lng": 78.5138020302915}, "southwest": {"lat": 17.3591555697085, "lng": 78.5111040697085}}}, "opening_hours": {"open_now": false}, "place_id": "ChIJLdLs6OKZyzsRmObqMAHpy44", "plus_code": {"global_code": "7J9W9G66+6X", "compound_code": "9G66+6X Hyderabad, Telangana, India"}, "vicinity": "Green land Road, New Farah Colony, Sayeedabad Colony, Saidabad, Hyderabad", "scope": "GOOGLE", "business_status": "OPERATIONAL", "types": ["doctor", "health", "point_of_interest", "establishment"], "icon": "https://maps.gstatic.com/mapfiles/place_api/icons/v1/png_71/generic_business-71.png"}, {"name": "Chavn Dental Clinic", "reference": "ChIJuwnCZkGYyzsR5_x0MRH26Ck", "geometry": {"location": {"lat": 17.3612525, "lng": 78.5123727}, "viewport": {"northeast": {"lat": 17.3625878802915, "lng": 78.51378718029152}, "southwest": {"lat": 17.3598899197085, "lng": 78.5110892197085}}}, "place_id": "ChIJuwnCZkGYyzsR5_x0MRH26Ck", "plus_code": {"global_code": "7J9W9G66+GW", "compound_code": "9G66+GW Hyderabad, Telangana, India"}, "vicinity": "India", "scope": "GOOGLE", "business_status": "OPERATIONAL", "types": ["doctor", "health", "point_of_interest", "establishment"], "icon": "https://maps.gstatic.com/mapfiles/place_api/icons/v1/png_71/generic_business-71.png"}, {"rating": 3.4, "user_ratings_total": 16, "name": "Jaya Nursing Home", "reference": "ChIJY9Mk_EKYyzsRSbosxPBpJJ8", "geometry": {"location": {"lat": 17.3619888, "lng": 78.50684629999999}, "viewport": {"northeast": {"lat": 17.3632394302915, "lng": 78.5082171302915}, "southwest": {"lat": 17.3605414697085, "lng": 78.50551916970849}}}, "opening_hours": {"open_now": true}, "place_id": "ChIJY9Mk_EKYyzsRSbosxPBpJJ8", "plus_code": {"global_code": "7J9W9G64+QP", "compound_code": "9G64+QP Hyderabad, Telangana, India"}, "vicinity": "16-2, Near, Police Station, 842/1, Saidabad Road, Saidabad, Hyderabad", "scope": "GOOGLE", "business_status": "OPERATIONAL", "types": ["hospital", "doctor", "health", "point_of_interest", "establishment"], "icon": "https://maps.gstatic.com/mapfiles/place_api/icons/v1/png_71/hospital-71.png"}, {"name": "Mahboobia poly clinic", "reference": "ChIJJcPJvTSZyzsRpP7nGJBLXGQ", "geometry": {"location": {"lat": 17.364244, "lng": 78.51021999999999}, "viewport": {"northeast": {"lat": 17.3655986302915, "lng": 78.5115695802915}, "southwest": {"lat": 17.36290066970849, "lng": 78.5088716197085}}}, "place_id": "ChIJJcPJvTSZyzsRpP7nGJBLXGQ", "plus_code": {"global_code": "7J9W9G76+M3", "compound_code": "9G76+M3 Hyderabad, Telangana, India"}, "vicinity": "Gulmarg Enclave, New Malakpet, Hyderabad", "scope": "GOOGLE", "business_status": "OPERATIONAL", "types": ["doctor", "health", "point_of_interest", "establishment"], "icon": "https://maps.gstatic.com/mapfiles/place_api/icons/v1/png_71/generic_business-71.png"}, {"name": "family physiotherapy clinic", "reference": "ChIJB_YoXEeZyzsRfB7F1yddiXQ", "geometry": {"location": {"lat": 17.3632083, "lng": 78.51315490000002}, "viewport": {"northeast": {"lat": 17.36452038029151, "lng": 78.51449638029152}, "southwest": {"lat": 17.3618224197085, "lng": 78.5117984197085}}}, "place_id": "ChIJB_YoXEeZyzsRfB7F1yddiXQ", "plus_code": {"global_code": "7J9W9G77+77", "compound_code": "9G77+77 Hyderabad, Telangana, India"}, "vicinity": "16-2-836/d/8/4, Bramhananda Nagar Colony, New Malakpet, Hyderabad", "scope": "GOOGLE", "business_status": "OPERATIONAL", "types": ["doctor", "health", "point_of_interest", "establishment"], "icon": "https://maps.gstatic.com/mapfiles/place_api/icons/v1/png_71/generic_business-71.png"}, {"rating": 4.5, "user_ratings_total": 2, "name": "Sri Om Sai Acupuncture Clinic & General Orthopaedic", "reference": "ChIJbcec512YyzsRvlLSNNSNbQA", "geometry": {"location": {"lat": 17.354852, "lng": 78.5112874}, "viewport": {"northeast": {"lat": 17.3561450802915, "lng": 78.51264113029151}, "southwest": {"lat": 17.3534471197085, "lng": 78.5099431697085}}}, "opening_hours": {"open_now": false}, "place_id": "ChIJbcec512YyzsRvlLSNNSNbQA", "plus_code": {"global_code": "7J9W9G36+WG", "compound_code": "9G36+WG Hyderabad, Telangana, India"}, "vicinity": "D.NO.17-1-382/SN/3, Srinivas Nagar Colony, Saidabad, Hyderabad", "photos": [{"photo_reference": "ATtYBwInhTRjZwbGUu3Jvhu4RUw3vMoLSA53ON2GgG7DSryylViqZJYWXAjzTfThIFtWZ6Lwv6u6ZdsnwsE5XDbPx8OkpOxIXc2L9GwUHBGQX-r4B-Yx_X37mjA1KZ9plYnHFyUQ8u9IEdFZ_-4TXMh6PY2OqD5TFpp7Uxfimqi1bTVK7sfT", "width": 2016, "html_attributions": ["<a href=\"https://maps.google.com/maps/contrib/110633113270418414350\">Sumanth Setty</a>"], "height": 3946}], "scope": "GOOGLE", "business_status": "OPERATIONAL", "types": ["doctor", "health", "point_of_interest", "establishment"], "icon": "https://maps.gstatic.com/mapfiles/place_api/icons/v1/png_71/generic_business-71.png"}]}