{"status": "OK", "next_page_token": "ATtYBwK7Mv_s_90aWFd8GFJ_S9EE5QiuxegCXv-L5Ct9WzE0muMWlZLO_nUqEQO7unaBxMoj2o8dWqN7hpyMtaZVs2ESPZVpzDvxq-odMiCg473171cErPS1kg21tmOcUmjz-bsM_Ebz9hiSVzOXCOdUHgoJpIv6OQ-WwZzM4mwa3ioUGcnsJFSPhgb0X3ALJPGYDBdxRdP-6UizFVVNphK7co-ITri-TTo1C0QyO3yW2PWh9m4ImRPJyO40B7TfEjjLxerKFwE3zhbOe2t1Me1sdEL4_BwLG2iqBDV-4vO0TJOKsv1sH7RQcA68qiD52XPdzBOBs9GnZwnfK9emPE39Ajikv8QOoRH_oSw9Eym7QJz-vJHH7_eeX2b0VPQPY6O43BWPQmpZvpMIqzathRJWnyEVwB476Mz-5MlniGiD2fB-FPTt8YUSe9L29BpK1lNbZV0U8oyD7aMTAp4H456vCSdgRMoawaJrsQVznKpTbiU-zpXyuERY6xUHc9MRFSK6zmvpWG4A-CgYLixWH_Mo8b1AfNzabBbW_9ioFtURNCbvUHHr1Sq0N6yavtszeJgDOEygjfAHFgSsQfLPcxdMTJqY57w9muI0XJvxC6f5CEApNkEyQALxN9aPokuCyiKq4DTDWWnU", "html_attributions": [], "results": [{"rating": 2.6, "user_ratings_total": 7, "name": "E.N.T. Clinic", "reference": "ChIJofi1I7mbyzsRk9ZqF8u8Nsg", "geometry": {"location": {"lat": 17.4575778, "lng": 78.5364503}, "viewport": {"northeast": {"lat": 17.4589092302915, "lng": 78.5378592802915}, "southwest": {"lat": 17.4562112697085, "lng": 78.5351613197085}}}, "opening_hours": {"open_now": false}, "place_id": "ChIJofi1I7mbyzsRk9ZqF8u8Nsg", "plus_code": {"global_code": "7J9WFG5P+2H", "compound_code": "FG5P+2H Secunderabad, Telangana, India"}, "vicinity": "Shop No. # 23-74/2, First Floor, Malakareddy Complex, Malkajgiri Road, RK Nagar Colony, Malkajgiri, Secunderabad", "scope": "GOOGLE", "business_status": "OPERATIONAL", "types": ["doctor", "health", "point_of_interest", "establishment"], "icon": "https://maps.gstatic.com/mapfiles/place_api/icons/v1/png_71/generic_business-71.png"}, {"rating": 3.9, "user_ratings_total": 14, "name": "Dr. Bindu's Skin n Hair Clinic", "reference": "ChIJBdBm7nCbyzsRVU6P6tRS764", "geometry": {"location": {"lat": 17.4566212, "lng": 78.53650209999999}, "viewport": {"northeast": {"lat": 17.4579303802915, "lng": 78.5378159302915}, "southwest": {"lat": 17.4552324197085, "lng": 78.5351179697085}}}, "opening_hours": {"open_now": false}, "place_id": "ChIJBdBm7nCbyzsRVU6P6tRS764", "plus_code": {"global_code": "7J9WFG4P+JJ", "compound_code": "FG4P+JJ Secunderabad, Telangana, India"}, "vicinity": "beside swagath grand hotel, Dr.bindu's skin n hair clinic, beside swagath grand hotel, Anandbagh, Malkajgiri, Secunderabad", "scope": "GOOGLE", "business_status": "OPERATIONAL", "types": ["doctor", "health", "point_of_interest", "establishment"], "icon": "https://maps.gstatic.com/mapfiles/place_api/icons/v1/png_71/generic_business-71.png"}, {"name": "Queen Apartment", "reference": "ChIJG0Gq4dybyzsRJKJmgweA3KY", "geometry": {"location": {"lat": 17.4533616, "lng": 78.5266243}, "viewport": {"northeast": {"lat": 17.4546533302915, "lng": 78.5279518802915}, "southwest": {"lat": 17.4519553697085, "lng": 78.52525391970849}}}, "place_id": "ChIJG0Gq4dybyzsRJKJmgweA3KY", "plus_code": {"global_code": "7J9WFG3G+8J", "compound_code": "FG3G+8J Secunderabad, Telangana, India"}, "vicinity": "Queen's Apartment, Gowtham Nagar Road, Gautham Nagar, Malkajgiri, Secunderabad", "scope": "GOOGLE", "business_status": "OPERATIONAL", "types": ["doctor", "health", "point_of_interest", "establishment"], "icon": "https://maps.gstatic.com/mapfiles/place_api/icons/v1/png_71/generic_business-71.png"}, {"rating": 1, "user_ratings_total": 2, "name": "Rajasri Clinic", "reference": "ChIJRwibPrmbyzsR3DmySBN25i4", "geometry": {"location": {"lat": 17.4583549, "lng": 78.5378923}, "viewport": {"northeast": {"lat": 17.4596923302915, "lng": 78.5393028802915}, "southwest": {"lat": 17.4569943697085, "lng": 78.53660491970848}}}, "opening_hours": {"open_now": false}, "place_id": "ChIJRwibPrmbyzsR3DmySBN25i4", "plus_code": {"global_code": "7J9WFG5Q+85", "compound_code": "FG5Q+85 Secunderabad, Telangana, India"}, "vicinity": "ADR Hospital, Near Sri Venkateswara Swami Temple, Anand Bagh Cross Roads, Malkajgiri, Secunderabad", "scope": "GOOGLE", "business_status": "OPERATIONAL", "types": ["doctor", "health", "point_of_interest", "establishment"], "icon": "https://maps.gstatic.com/mapfiles/place_api/icons/v1/png_71/generic_business-71.png"}, {"name": "AcePhysiotherapyRehabilitation", "reference": "ChIJj6rKjUqbyzsRe_9OthV-MMk", "geometry": {"location": {"lat": 17.46041719999999, "lng": 78.5386852}, "viewport": {"northeast": {"lat": 17.4618008302915, "lng": 78.5400482302915}, "southwest": {"lat": 17.4591028697085, "lng": 78.5373502697085}}}, "place_id": "ChIJj6rKjUqbyzsRe_9OthV-MMk", "plus_code": {"global_code": "7J9WFG6Q+5F", "compound_code": "FG6Q+5F Secunderabad, Telangana, India"}, "vicinity": "24-81/10, Pansy Home Apartments, East Anandbagh Main Road, Surya nagar, VSR Enclave, Safilguda, Malkajgiri, Secunderabad", "photos": [{"photo_reference": "ATtYBwKNfe9rCkk7waW3G_wwwySrh1-AKhXiT5_ZlDvUL_keROqIXGXdb35xfsWfsQb8FM8VPcHfg2SjLDYu3n_MDemQ6OrOBb14mzpw5QSM1iSEybRSt0ZbZ57aoasLxihl6w0G69sDqg8msSfvvSu-JoRX41ygKFHdrUv4_q30CkmOs3uW", "width": 800, "html_attributions": ["<a href=\"https://maps.google.com/maps/contrib/117760390732084077816\">abdulaleem munawar</a>"], "height": 800}], "scope": "GOOGLE", "business_status": "OPERATIONAL", "types": ["doctor", "health", "point_of_interest", "establishment"], "icon": "https://maps.gstatic.com/mapfiles/place_api/icons/v1/png_71/generic_business-71.png"}, {"name": "Mahalaxmi Kirana & General Stores", "reference": "ChIJzyzHpribyzsRXXEz3wHX5T4", "geometry": {"location": {"lat": 17.454501, "lng": 78.536692}, "viewport": {"northeast": {"lat": 17.4558395802915, "lng": 78.5379456302915}, "southwest": {"lat": 17.4531416197085, "lng": 78.5352476697085}}}, "opening_hours": {"open_now": false}, "place_id": "ChIJzyzHpribyzsRXXEz3wHX5T4", "plus_code": {"global_code": "7J9WFG3P+RM", "compound_code": "FG3P+RM Secunderabad, Telangana, India"}, "vicinity": "H. No. 3-221, Maruthi Nagar, Malkajgiri,, Secundrabad", "scope": "GOOGLE", "business_status": "OPERATIONAL", "types": ["doctor", "health", "point_of_interest", "establishment"], "icon": "https://maps.gstatic.com/mapfiles/place_api/icons/v1/png_71/generic_business-71.png"}, {"rating": 4.9, "user_ratings_total": 118, "name": "Clove Dental", "reference": "ChIJbZ-6yMebyzsR7pkvhmudKT8", "geometry": {"location": {"lat": 17.451794, "lng": 78.533121}, "viewport": {"northeast": {"lat": 17.4531208802915, "lng": 78.5345045802915}, "southwest": {"lat": 17.45042291970849, "lng": 78.53180661970849}}}, "opening_hours": {"open_now": false}, "place_id": "ChIJbZ-6yMebyzsR7pkvhmudKT8", "plus_code": {"global_code": "7J9WFG2M+P6", "compound_code": "FG2M+P6 Hyderabad, Telangana, India"}, "vicinity": "Building no, 2-8, plot No. 30, Bhavani Nagar, malkajgiri,, Hyderabad", "photos": [{"photo_reference": "ATtYBwKpTqmHYS3MkgxzB8hfIL5ceMpk9tYL6c4dHjDjKaXmaMuLdRNCke6sNfwwCYhzlaQe_k6k6aIn1VT4E0gaUt3IEyzq6j1eewsgUIi9l8oAERbSIFvNyt5aZXqkwxY2BfKA59SJo2ABHxA4jbMH-H-_e8kvbxIN3duAMBgWK6nNgZmc", "width": 1024, "html_attributions": ["<a href=\"https://maps.google.com/maps/contrib/116800173655587111018\">Samanth Ganduri</a>"], "height": 768}], "scope": "GOOGLE", "business_status": "OPERATIONAL", "types": ["doctor", "dentist", "health", "point_of_interest", "establishment"], "icon": "https://maps.gstatic.com/mapfiles/place_api/icons/v1/png_71/generic_business-71.png"}, {"rating": 1, "user_ratings_total": 1, "name": "Malatkar Dr Srikrishna", "reference": "ChIJ____r6SbyzsR-kLkiuvdNcg", "geometry": {"location": {"lat": 17.466634, "lng": 78.53698059999999}, "viewport": {"northeast": {"lat": 17.46796958029151, "lng": 78.5383212802915}, "southwest": {"lat": 17.4652716197085, "lng": 78.53562331970849}}}, "place_id": "ChIJ____r6SbyzsR-kLkiuvdNcg", "vicinity": "6/11, Sairam Nagar, West Marredpally, West Marredapplly Sairam Nagar,, Secunderabad", "scope": "GOOGLE", "business_status": "OPERATIONAL", "types": ["doctor", "health", "point_of_interest", "establishment"], "icon": "https://maps.gstatic.com/mapfiles/place_api/icons/v1/png_71/generic_business-71.png"}, {"rating": 4.5, "user_ratings_total": 35, "name": "Sree Krishna children and Maternity Hospital", "reference": "ChIJhy79NcabyzsRIa-3_RoAJ4Y", "geometry": {"location": {"lat": 17.4508787, "lng": 78.5333027}, "viewport": {"northeast": {"lat": 17.4522037302915, "lng": 78.53468798029151}, "southwest": {"lat": 17.4495057697085, "lng": 78.53199001970849}}}, "opening_hours": {"open_now": true}, "place_id": "ChIJhy79NcabyzsRIa-3_RoAJ4Y", "plus_code": {"global_code": "7J9WFG2M+98", "compound_code": "FG2M+98 Secunderabad, Telangana, India"}, "vicinity": "4-224, Malkajgiri Road, Geetha Nagar, Malkajgiri, Secunderabad", "photos": [{"photo_reference": "ATtYBwJgiQpESGNk3QOm72EF_vvdxTMlZ9My5EMVluuZZj_1veJ3sMny4zMOm0rj0NKrhwmYFknLWuBuKDSfDUVNMrv_UegdjB5VJwwAkBUUjE8FI4HlA7osj-8MI_orUQGAqeCE-Gpe-qKARV4ME0FyzYJx6IT266Qp2KCfO6-Mbvmuv6pw", "width": 4624, "html_attributions": ["<a href=\"https://maps.google.com/maps/contrib/110683004056968935990\">Sree Krishna children and Maternity Hospital</a>"], "height": 3468}], "scope": "GOOGLE", "business_status": "OPERATIONAL", "types": ["hospital", "doctor", "health", "point_of_interest", "establishment"], "icon": "https://maps.gstatic.com/mapfiles/place_api/icons/v1/png_71/hospital-71.png"}, {"name": "Dr. Srikanth R", "reference": "ChIJoYBJuwabyzsRQZ3BLaAiEa8", "geometry": {"location": {"lat": 17.4653944, "lng": 78.5390053}, "viewport": {"northeast": {"lat": 17.4666794302915, "lng": 78.54033228029151}, "southwest": {"lat": 17.4639814697085, "lng": 78.5376343197085}}}, "opening_hours": {"open_now": false}, "place_id": "ChIJoYBJuwabyzsRQZ3BLaAiEa8", "plus_code": {"global_code": "7J9WFG8Q+5J", "compound_code": "FG8Q+5J Secunderabad, Telangana, India"}, "vicinity": "MAA Furniture Line, Bus Stop, 30-1591/5/G3,Chandra giri Colony Krupa Complex, Surya nagar, Kripa Complex, Safilguda, Malkajgiri, Secunderabad", "scope": "GOOGLE", "business_status": "OPERATIONAL", "types": ["doctor", "health", "point_of_interest", "establishment"], "icon": "https://maps.gstatic.com/mapfiles/place_api/icons/v1/png_71/generic_business-71.png"}, {"rating": 5, "user_ratings_total": 1, "name": "Ramalakshmi Homeo Clinic", "reference": "ChIJR5vO6LybyzsRkRJg4EYtVVc", "geometry": {"location": {"lat": 17.4642676, "lng": 78.5397014}, "viewport": {"northeast": {"lat": 17.4656075802915, "lng": 78.5410812802915}, "southwest": {"lat": 17.46290961970849, "lng": 78.53838331970849}}}, "place_id": "ChIJR5vO6LybyzsRkRJg4EYtVVc", "plus_code": {"global_code": "7J9WFG7Q+PV", "compound_code": "FG7Q+PV Secunderabad, Telangana, India"}, "vicinity": "Surya nagar, Kripa Complex, Safilguda, Malkajgiri, Secunderabad", "scope": "GOOGLE", "business_status": "OPERATIONAL", "types": ["doctor", "health", "point_of_interest", "establishment"], "icon": "https://maps.gstatic.com/mapfiles/place_api/icons/v1/png_71/generic_business-71.png"}, {"name": "Shree Saikrupa Clinic Chandragiri Colony PO R", "reference": "ChIJ9fhMPY2byzsRys2LHoUiZr8", "geometry": {"location": {"lat": 17.4649577, "lng": 78.53946549999999}, "viewport": {"northeast": {"lat": 17.4663724802915, "lng": 78.5408379302915}, "southwest": {"lat": 17.4636745197085, "lng": 78.5381399697085}}}, "opening_hours": {"open_now": true}, "place_id": "ChIJ9fhMPY2byzsRys2LHoUiZr8", "plus_code": {"global_code": "7J9WFG7Q+XQ", "compound_code": "FG7Q+XQ Secunderabad, Telangana, India"}, "vicinity": "Kripa Complex, Safilguda, Malkajgiri, Secunderabad", "scope": "GOOGLE", "business_status": "OPERATIONAL", "types": ["doctor", "health", "point_of_interest", "establishment"], "icon": "https://maps.gstatic.com/mapfiles/place_api/icons/v1/png_71/generic_business-71.png"}, {"name": "Mohan Rao Dr M", "reference": "ChIJ3-tG2sibyzsRMG_ZnFpCnaE", "geometry": {"location": {"lat": 17.4489379, "lng": 78.529681}, "viewport": {"northeast": {"lat": 17.4502868802915, "lng": 78.5310299802915}, "southwest": {"lat": 17.4475889197085, "lng": 78.5283320197085}}}, "place_id": "ChIJ3-tG2sibyzsRMG_ZnFpCnaE", "plus_code": {"global_code": "7J9WCGXH+HV", "compound_code": "CGXH+HV Hyderabad, Telangana, India"}, "vicinity": "Pavan Puri Colony Kharman Ghat 963, Malkajgiri, Malkajgiri, Hyderabad", "scope": "GOOGLE", "business_status": "OPERATIONAL", "types": ["doctor", "health", "point_of_interest", "establishment"], "icon": "https://maps.gstatic.com/mapfiles/place_api/icons/v1/png_71/generic_business-71.png"}, {"name": "Subba Rao Dr B", "reference": "ChIJ3-tG2sibyzsR1tmTvDqXeQs", "geometry": {"location": {"lat": 17.4489379, "lng": 78.529681}, "viewport": {"northeast": {"lat": 17.4502868802915, "lng": 78.5310299802915}, "southwest": {"lat": 17.4475889197085, "lng": 78.5283320197085}}}, "place_id": "ChIJ3-tG2sibyzsR1tmTvDqXeQs", "plus_code": {"global_code": "7J9WCGXH+HV", "compound_code": "CGXH+HV Hyderabad, Telangana, India"}, "vicinity": "3-84, Narsimha Reddy Nagar, Malkajgiri, Malkajgiri, Hyderabad", "scope": "GOOGLE", "business_status": "OPERATIONAL", "types": ["doctor", "health", "point_of_interest", "establishment"], "icon": "https://maps.gstatic.com/mapfiles/place_api/icons/v1/png_71/generic_business-71.png"}, {"name": "Vali Ahmed Dr", "reference": "ChIJ3-tG2sibyzsRiYZWdOKnFHM", "geometry": {"location": {"lat": 17.4489379, "lng": 78.529681}, "viewport": {"northeast": {"lat": 17.4502868802915, "lng": 78.5310299802915}, "southwest": {"lat": 17.4475889197085, "lng": 78.5283320197085}}}, "place_id": "ChIJ3-tG2sibyzsRiYZWdOKnFHM", "plus_code": {"global_code": "7J9WCGXH+HV", "compound_code": "CGXH+HV Hyderabad, Telangana, India"}, "vicinity": "Flat No 102, Neha Tower, Gauttam Nagar, Malkajgiri, Malkajgiri, Hyderabad", "scope": "GOOGLE", "business_status": "OPERATIONAL", "types": ["doctor", "health", "point_of_interest", "establishment"], "icon": "https://maps.gstatic.com/mapfiles/place_api/icons/v1/png_71/generic_business-71.png"}, {"rating": 5, "user_ratings_total": 1, "name": "Dai Krupa Clinic", "reference": "ChIJ3-tG2sibyzsRRYKNEGsfud0", "geometry": {"location": {"lat": 17.4489379, "lng": 78.529681}, "viewport": {"northeast": {"lat": 17.4502868802915, "lng": 78.5310299802915}, "southwest": {"lat": 17.4475889197085, "lng": 78.5283320197085}}}, "place_id": "ChIJ3-tG2sibyzsRRYKNEGsfud0", "plus_code": {"global_code": "7J9WCGXH+HV", "compound_code": "CGXH+HV Hyderabad, Telangana, India"}, "vicinity": "1-131/2, Bhavani Nagar, Malkajgiri, Malkajgiri, Hyderabad", "scope": "GOOGLE", "business_status": "OPERATIONAL", "types": ["doctor", "health", "point_of_interest", "establishment"], "icon": "https://maps.gstatic.com/mapfiles/place_api/icons/v1/png_71/generic_business-71.png"}, {"name": "Venkat Rao Dr S", "reference": "ChIJ3-tG2sibyzsRX10zM0jrPBU", "geometry": {"location": {"lat": 17.4489379, "lng": 78.529681}, "viewport": {"northeast": {"lat": 17.4502868802915, "lng": 78.5310299802915}, "southwest": {"lat": 17.4475889197085, "lng": 78.5283320197085}}}, "place_id": "ChIJ3-tG2sibyzsRX10zM0jrPBU", "plus_code": {"global_code": "7J9WCGXH+HV", "compound_code": "CGXH+HV Hyderabad, Telangana, India"}, "vicinity": "Dr Venkat Rao, Venkateshwar Nagar, Malkajgiri, Malkajgiri, Hyderabad", "scope": "GOOGLE", "business_status": "OPERATIONAL", "types": ["doctor", "health", "point_of_interest", "establishment"], "icon": "https://maps.gstatic.com/mapfiles/place_api/icons/v1/png_71/generic_business-71.png"}, {"rating": 1, "user_ratings_total": 1, "name": "Anil Kumar Dr R S", "reference": "ChIJ3-tG2sibyzsRkuu1vIls6Yk", "geometry": {"location": {"lat": 17.4489379, "lng": 78.529681}, "viewport": {"northeast": {"lat": 17.4502868802915, "lng": 78.5310299802915}, "southwest": {"lat": 17.4475889197085, "lng": 78.5283320197085}}}, "place_id": "ChIJ3-tG2sibyzsRkuu1vIls6Yk", "plus_code": {"global_code": "7J9WCGXH+HV", "compound_code": "CGXH+HV Hyderabad, Telangana, India"}, "vicinity": "18-179, Hanumanpet Mlkj Giri, Malkajgiri, Malkajgiri, Hyderabad", "scope": "GOOGLE", "business_status": "OPERATIONAL", "types": ["doctor", "health", "point_of_interest", "establishment"], "icon": "https://maps.gstatic.com/mapfiles/place_api/icons/v1/png_71/generic_business-71.png"}, {"name": "Chandra Mohan Dr P V N", "reference": "ChIJ3-tG2sibyzsRNNZyW1eaiAU", "geometry": {"location": {"lat": 17.4489379, "lng": 78.529681}, "viewport": {"northeast": {"lat": 17.4502868802915, "lng": 78.5310299802915}, "southwest": {"lat": 17.4475889197085, "lng": 78.5283320197085}}}, "place_id": "ChIJ3-tG2sibyzsRNNZyW1eaiAU", "plus_code": {"global_code": "7J9WCGXH+HV", "compound_code": "CGXH+HV Hyderabad, Telangana, India"}, "vicinity": "15-17/43, Malkajgiri, Malkajgiri, Hyderabad", "scope": "GOOGLE", "business_status": "OPERATIONAL", "types": ["doctor", "health", "point_of_interest", "establishment"], "icon": "https://maps.gstatic.com/mapfiles/place_api/icons/v1/png_71/generic_business-71.png"}, {"rating": 4, "user_ratings_total": 1, "name": "Gajraj Stadium", "reference": "ChIJTSskmnmbyzsRWdapXAKUxmo", "geometry": {"location": {"lat": 17.4623166, "lng": 78.51816529999999}, "viewport": {"northeast": {"lat": 17.4638399802915, "lng": 78.5195394302915}, "southwest": {"lat": 17.4611420197085, "lng": 78.5168414697085}}}, "place_id": "ChIJTSskmnmbyzsRWdapXAKUxmo", "plus_code": {"global_code": "7J9WFG69+W7", "compound_code": "FG69+W7 Secunderabad, Telangana, India"}, "vicinity": "Neredmet, Secunderabad", "scope": "GOOGLE", "business_status": "OPERATIONAL", "types": ["doctor", "health", "point_of_interest", "establishment"], "icon": "https://maps.gstatic.com/mapfiles/place_api/icons/v1/png_71/generic_business-71.png"}]}