{"status": "OK", "html_attributions": [], "results": [{"rating": 5, "user_ratings_total": 1, "name": "Balaji Clinic", "reference": "ChIJR0koh8q9yzsRwtx8gZ7nR_s", "geometry": {"location": {"lat": 17.3159753, "lng": 78.4481137}, "viewport": {"northeast": {"lat": 17.3173233302915, "lng": 78.4494555302915}, "southwest": {"lat": 17.3146253697085, "lng": 78.4467575697085}}}, "opening_hours": {"open_now": true}, "place_id": "ChIJR0koh8q9yzsRwtx8gZ7nR_s", "plus_code": {"global_code": "7J9W8C8X+96", "compound_code": "8C8X+96 Hyderabad, Telangana, India"}, "vicinity": "Mailardevpally, Durga Nagar, Kattedan", "photos": [{"photo_reference": "ATtYBwIvBoEa2ASgQdobkNpFRXh3Q5ikKwpOAlnBywX0GBkYHVfbZBH53Tue-ZFAA8P3ijlTdAv37CUDohzWtoSC_K26BOWhSrXP1oWxjaWJj9yEPY5CHhKYxT38oQpGdo_hnMjtN5cMjOuWUtbHtixdO1tmr9ecjTY1kSpjXzFminQQQ27F", "width": 1080, "html_attributions": ["<a href=\"https://maps.google.com/maps/contrib/103645015773980303426\">Harikumar Vadithyavath</a>"], "height": 1920}], "scope": "GOOGLE", "business_status": "OPERATIONAL", "types": ["doctor", "health", "point_of_interest", "establishment"], "icon": "https://maps.gstatic.com/mapfiles/place_api/icons/v1/png_71/generic_business-71.png"}, {"name": "Baba Health Care Centre", "reference": "ChIJAQAAAES9yzsREtZaH8248AA", "geometry": {"location": {"lat": 17.3157731, "lng": 78.4581323}, "viewport": {"northeast": {"lat": 17.3168757302915, "lng": 78.4593767802915}, "southwest": {"lat": 17.3141777697085, "lng": 78.45667881970849}}}, "place_id": "ChIJAQAAAES9yzsREtZaH8248AA", "vicinity": "Phahadi Sharif Post: Keshwagri, Chandrayanagutta, Chandrayanagutta, Hyderabad", "scope": "GOOGLE", "business_status": "OPERATIONAL", "types": ["doctor", "health", "point_of_interest", "establishment"], "icon": "https://maps.gstatic.com/mapfiles/place_api/icons/v1/png_71/generic_business-71.png"}, {"name": "Dr Syed Naseeruddin", "reference": "ChIJAQAAAES9yzsREq0iu9Jbv-A", "geometry": {"location": {"lat": 17.3157731, "lng": 78.4581323}, "viewport": {"northeast": {"lat": 17.3168757302915, "lng": 78.4593767802915}, "southwest": {"lat": 17.3141777697085, "lng": 78.45667881970849}}}, "place_id": "ChIJAQAAAES9yzsREq0iu9Jbv-A", "vicinity": "near Golgunda Hotel, Moin Minsion, Masab Bank, Chandrayanagutta, Chandrayanagutta, near Golgunda Hotel, Hyderabad", "scope": "GOOGLE", "business_status": "OPERATIONAL", "types": ["doctor", "health", "point_of_interest", "establishment"], "icon": "https://maps.gstatic.com/mapfiles/place_api/icons/v1/png_71/generic_business-71.png"}, {"name": "Habeeb Clinic", "reference": "ChIJCxPezmq9yzsRmIfPyEav6VY", "geometry": {"location": {"lat": 17.3273116, "lng": 78.4562191}, "viewport": {"northeast": {"lat": 17.3286378802915, "lng": 78.4576309302915}, "southwest": {"lat": 17.3259399197085, "lng": 78.4549329697085}}}, "opening_hours": {"open_now": false}, "place_id": "ChIJCxPezmq9yzsRmIfPyEav6VY", "plus_code": {"global_code": "7J9W8FG4+WF", "compound_code": "8FG4+WF Hyderabad, Telangana, India"}, "vicinity": "3, HNo 8-15-70, 2, Vattepally Road, Mohammadi Colony, Mustafa Nagar, Falaknuma, Hyderabad", "scope": "GOOGLE", "business_status": "OPERATIONAL", "types": ["doctor", "health", "point_of_interest", "establishment"], "icon": "https://maps.gstatic.com/mapfiles/place_api/icons/v1/png_71/generic_business-71.png"}, {"name": "Habeeb dispensery", "reference": "ChIJT4pssNO9yzsRImsWfRRmYx0", "geometry": {"location": {"lat": 17.3275724, "lng": 78.4561476}, "viewport": {"northeast": {"lat": 17.3288692302915, "lng": 78.4576357302915}, "southwest": {"lat": 17.3261712697085, "lng": 78.4549377697085}}}, "opening_hours": {"open_now": true}, "place_id": "ChIJT4pssNO9yzsRImsWfRRmYx0", "plus_code": {"global_code": "7J9W8FH4+2F", "compound_code": "8FH4+2F Hyderabad, Telangana, India"}, "vicinity": "Vattepally Road, Mohammadi Colony, Mustafa Nagar, Vattepally, Hyderabad", "scope": "GOOGLE", "business_status": "OPERATIONAL", "types": ["doctor", "health", "point_of_interest", "establishment"], "icon": "https://maps.gstatic.com/mapfiles/place_api/icons/v1/png_71/generic_business-71.png"}, {"name": "Hakeem sab", "reference": "ChIJS9zk6Ou9yzsRYtjuByXdr4A", "geometry": {"location": {"lat": 17.330006, "lng": 78.4473296}, "viewport": {"northeast": {"lat": 17.3313540802915, "lng": 78.44872433029151}, "southwest": {"lat": 17.3286561197085, "lng": 78.44602636970849}}}, "place_id": "ChIJS9zk6Ou9yzsRYtjuByXdr4A", "plus_code": {"global_code": "7J9W8CJW+2W", "compound_code": "8CJW+2W Hyderabad, Telangana, India"}, "vicinity": "Kings Colony, Nawab Saheb Kunta, Hyderabad", "scope": "GOOGLE", "business_status": "OPERATIONAL", "types": ["doctor", "health", "point_of_interest", "establishment"], "icon": "https://maps.gstatic.com/mapfiles/place_api/icons/v1/png_71/generic_business-71.png"}, {"rating": 3, "user_ratings_total": 7, "name": "Life Care Maternity Hospital", "reference": "ChIJWeJgtV69yzsRCNvdrMmZFwg", "geometry": {"location": {"lat": 17.3289716, "lng": 78.4574904}, "viewport": {"northeast": {"lat": 17.3302212802915, "lng": 78.45889898029151}, "southwest": {"lat": 17.3275233197085, "lng": 78.45620101970849}}}, "opening_hours": {"open_now": true}, "place_id": "ChIJWeJgtV69yzsRCNvdrMmZFwg", "plus_code": {"global_code": "7J9W8FH4+HX", "compound_code": "8FH4+HX Hyderabad, Telangana, India"}, "vicinity": "near Masjid e Omer Bin Khattab, Vattepally Road, Hyderabad", "photos": [{"photo_reference": "ATtYBwI3PUFpi8bGXJ6gH4sugD6WQZm3VhRcCnQwglw7t93TiaeNgPV250MRkfmlJ8V0TEQo_0-pfdH4eYtl9C-GnRY7XKHJxT6q-Kk1_z2ZOBcUbrpxqNDCJ0eClhQQNXzQAPDpANRHpOPvov6RZWzTMk59Csq45Erx1M5MSzYS4BTwyZHE", "width": 724, "html_attributions": ["<a href=\"https://maps.google.com/maps/contrib/105215428398383499335\">Life Care Maternity Hospital</a>"], "height": 284}], "scope": "GOOGLE", "business_status": "OPERATIONAL", "types": ["hospital", "doctor", "health", "point_of_interest", "establishment"], "icon": "https://maps.gstatic.com/mapfiles/place_api/icons/v1/png_71/hospital-71.png"}, {"rating": 5, "user_ratings_total": 1, "name": "TGS CLINICS", "reference": "ChIJ5QR4j-69yzsRV4JjA65N2-Q", "geometry": {"location": {"lat": 17.3199065, "lng": 78.46225190000001}, "viewport": {"northeast": {"lat": 17.3212061302915, "lng": 78.46358493029152}, "southwest": {"lat": 17.3185081697085, "lng": 78.4608869697085}}}, "opening_hours": {"open_now": false}, "place_id": "ChIJ5QR4j-69yzsRV4JjA65N2-Q", "plus_code": {"global_code": "7J9W8F96+XW", "compound_code": "8F96+XW Hyderabad, Telangana, India"}, "vicinity": "8-4-68/4/1, Ali Nagar, Bandlaguda, Chandrayangutta, Hyderabad", "scope": "GOOGLE", "business_status": "OPERATIONAL", "types": ["doctor", "health", "point_of_interest", "establishment"], "icon": "https://maps.gstatic.com/mapfiles/place_api/icons/v1/png_71/generic_business-71.png"}, {"rating": 5, "user_ratings_total": 1, "name": "HUSSAIN'S MANSION", "reference": "ChIJV1sikx29yzsRN1fRvaPgcR4", "geometry": {"location": {"lat": 17.3308684, "lng": 78.4568637}, "viewport": {"northeast": {"lat": 17.3321896802915, "lng": 78.45820248029152}, "southwest": {"lat": 17.3294917197085, "lng": 78.4555045197085}}}, "opening_hours": {"open_now": true}, "place_id": "ChIJV1sikx29yzsRN1fRvaPgcR4", "plus_code": {"global_code": "7J9W8FJ4+8P", "compound_code": "8FJ4+8P Hyderabad, Telangana, India"}, "vicinity": "Mustafa Nagar, Nawab Saheb Kunta, Hyderabad", "scope": "GOOGLE", "business_status": "OPERATIONAL", "types": ["doctor", "health", "point_of_interest", "establishment"], "icon": "https://maps.gstatic.com/mapfiles/place_api/icons/v1/png_71/generic_business-71.png"}]}