{"status": "OK", "next_page_token": "ATtYBwI2_J8fs4p84qgew17-un_fnA1YO2iOywSyqD4wESV9gZqMEW0jXtuVciwjayc6L4P6kPOL0k1CJ2vf4ANTLlJ7-ysL4K7Ha51kI0ctmowS_CfhRkQTAjlVlL1PfuJWKt8ty9wLexZVjkgknJQnjRy2rnez_xVkZt1paslkPlSy9rk6k3hL-ShVYclmwVsXzX-aJtFp0hUrIGLkvc3LCjFBVK_9Li-MITj-PWd5nxBX14R6tUbMkU4AhhRM9mSYdMbOGFjcuS0GOs6r5AELzqiWdZkd3uk3ulVVzBCLT9Cl7NHhnsK69XMYQji8KneSN9MnhKGyxYPuvzbgBpBbpbiL_pgy0xppwYH6F-qSkirXgouOH9s9xufvGXeIS7EiS15_b0wh66cSKnJXGovPdqnsfI_LRwKFBvuyDUgq_att1nhgh_o", "html_attributions": [], "results": [{"name": "Alif Polyclinic", "reference": "ChIJh2s3oVaXyzsRLxi4Fdm8Sls", "geometry": {"location": {"lat": 17.37982, "lng": 78.44944}, "viewport": {"northeast": {"lat": 17.3812371802915, "lng": 78.4508152302915}, "southwest": {"lat": 17.3785392197085, "lng": 78.44811726970848}}}, "opening_hours": {"open_now": false}, "place_id": "ChIJh2s3oVaXyzsRLxi4Fdm8Sls", "plus_code": {"global_code": "7J9W9CHX+WQ", "compound_code": "9CHX+WQ Hyderabad, Telangana, India"}, "vicinity": "2/18, Kishan Nagar, Asif Nagar, Hyderabad", "scope": "GOOGLE", "business_status": "OPERATIONAL", "types": ["doctor", "health", "point_of_interest", "establishment"], "icon": "https://maps.gstatic.com/mapfiles/place_api/icons/v1/png_71/generic_business-71.png"}, {"name": "Dr Mirza Kaleemullah Baig", "reference": "ChIJG4Lch82ZyzsRnx6phqHjQwQ", "geometry": {"location": {"lat": 17.378831, "lng": 78.447698}, "viewport": {"northeast": {"lat": 17.3801825802915, "lng": 78.44907033029152}, "southwest": {"lat": 17.3774846197085, "lng": 78.4463723697085}}}, "opening_hours": {"open_now": true}, "place_id": "ChIJG4Lch82ZyzsRnx6phqHjQwQ", "plus_code": {"global_code": "7J9W9CHX+G3", "compound_code": "9CHX+G3 Hyderabad, Telangana, India"}, "vicinity": "12-1-586 -, Syed Ali Guda - Asifnagar, Hyderabad", "scope": "GOOGLE", "business_status": "OPERATIONAL", "types": ["doctor", "health", "point_of_interest", "establishment"], "icon": "https://maps.gstatic.com/mapfiles/place_api/icons/v1/png_71/generic_business-71.png"}, {"name": "Dr Farhat Zafar Clinic", "reference": "ChIJx1pWz62XyzsRjPAM9fJcCVo", "geometry": {"location": {"lat": 17.3823641, "lng": 78.4520308}, "viewport": {"northeast": {"lat": 17.3837468802915, "lng": 78.4533855802915}, "southwest": {"lat": 17.3810489197085, "lng": 78.45068761970849}}}, "opening_hours": {"open_now": false}, "place_id": "ChIJx1pWz62XyzsRjPAM9fJcCVo", "plus_code": {"global_code": "7J9W9FJ2+WR", "compound_code": "9FJ2+WR Hyderabad, Telangana, India"}, "vicinity": "Opp Rahman'S Villa House No : 13, 6-437/A/ 72/1, Khader Bagh, Indira Nagar, Hyderabad", "photos": [{"photo_reference": "ATtYBwI5PQhwDSc129SAx4R1_V1QG5fruAtL48Gx7z1m7a4KH4Q_dWRQO7UOFTPbLB9ulqAB1qWxiEjzXbmC-L4I-MpqVJVX1pOVr4yVkB9GUyVw36T_btJ11gYa8wX4EZoIrkQyaTk0PrcRUAvncJO-WhA4K0t4K8CEBCdWFj-w684YB593", "width": 1080, "html_attributions": ["<a href=\"https://maps.google.com/maps/contrib/105051684060225807234\">mnShah Shah</a>"], "height": 1920}], "scope": "GOOGLE", "business_status": "OPERATIONAL", "types": ["doctor", "health", "point_of_interest", "establishment"], "icon": "https://maps.gstatic.com/mapfiles/place_api/icons/v1/png_71/generic_business-71.png"}, {"name": "Ghani Baba Darbar", "reference": "ChIJj0qr4AmXyzsRp7IgLMtVi7c", "geometry": {"location": {"lat": 17.3794011, "lng": 78.4453582}, "viewport": {"northeast": {"lat": 17.3807523802915, "lng": 78.4466925302915}, "southwest": {"lat": 17.3780544197085, "lng": 78.4439945697085}}}, "place_id": "ChIJj0qr4AmXyzsRp7IgLMtVi7c", "plus_code": {"global_code": "7J9W9CHW+Q4", "compound_code": "9CHW+Q4 Hyderabad, Telangana, India"}, "vicinity": "431/A/171, Tappachabutra, Syed Ali Guda, Hyderabad", "scope": "GOOGLE", "business_status": "OPERATIONAL", "types": ["doctor", "health", "point_of_interest", "establishment"], "icon": "https://maps.gstatic.com/mapfiles/place_api/icons/v1/png_71/generic_business-71.png"}, {"name": "Polyclinic - Dr Shafiq Ahmed", "reference": "ChIJ-TKoetqXyzsRSkSE3rtxVDk", "geometry": {"location": {"lat": 17.3820396, "lng": 78.44559439999999}, "viewport": {"northeast": {"lat": 17.3833900802915, "lng": 78.4469171302915}, "southwest": {"lat": 17.3806921197085, "lng": 78.44421916970849}}}, "place_id": "ChIJ-TKoetqXyzsRSkSE3rtxVDk", "plus_code": {"global_code": "7J9W9CJW+R6", "compound_code": "9CJW+R6 Hyderabad, Telangana, India"}, "vicinity": "Himalaya School Road, Mahaveer Nagar Colony, Saber Nagar Colony, Syed Ali Guda, Hyderabad", "scope": "GOOGLE", "business_status": "OPERATIONAL", "types": ["doctor", "health", "point_of_interest", "establishment"], "icon": "https://maps.gstatic.com/mapfiles/place_api/icons/v1/png_71/generic_business-71.png"}, {"name": "Mukunda Reddy Dr D", "reference": "ChIJE7i4FKGXyzsROxhudLARwNs", "geometry": {"location": {"lat": 17.3749177, "lng": 78.4484399}, "viewport": {"northeast": {"lat": 17.3763231802915, "lng": 78.4497891802915}, "southwest": {"lat": 17.3736252197085, "lng": 78.4470912197085}}}, "place_id": "ChIJE7i4FKGXyzsROxhudLARwNs", "plus_code": {"global_code": "7J9W9CFX+X9", "compound_code": "9CFX+X9 Hyderabad, Telangana, India"}, "vicinity": "Karwan, Near Tappa Chabutra Police Station, Karwan, Hyderabad", "scope": "GOOGLE", "business_status": "OPERATIONAL", "types": ["doctor", "health", "point_of_interest", "establishment"], "icon": "https://maps.gstatic.com/mapfiles/place_api/icons/v1/png_71/generic_business-71.png"}, {"rating": 3, "user_ratings_total": 2, "name": "Shafeeq Alam khan", "reference": "ChIJ25h3sz2XyzsRmhVzF9V68fY", "geometry": {"location": {"lat": 17.3781905, "lng": 78.44387309999999}, "viewport": {"northeast": {"lat": 17.3795405802915, "lng": 78.44521213029151}, "southwest": {"lat": 17.3768426197085, "lng": 78.44251416970849}}}, "opening_hours": {"open_now": false}, "place_id": "ChIJ25h3sz2XyzsRmhVzF9V68fY", "plus_code": {"global_code": "7J9W9CHV+7G", "compound_code": "9CHV+7G Hyderabad, Telangana, India"}, "vicinity": "Unnamed Road, Tappachabutra, Syed Ali Guda, Hyderabad", "scope": "GOOGLE", "business_status": "OPERATIONAL", "types": ["doctor", "health", "point_of_interest", "establishment"], "icon": "https://maps.gstatic.com/mapfiles/place_api/icons/v1/png_71/generic_business-71.png"}, {"name": "Reddy`s Dispensary", "reference": "ChIJ7XMBU6GXyzsR8LEEpLAxi4I", "geometry": {"location": {"lat": 17.37360199999999, "lng": 78.448158}, "viewport": {"northeast": {"lat": 17.3749627302915, "lng": 78.4494456302915}, "southwest": {"lat": 17.37226476970849, "lng": 78.4467476697085}}}, "place_id": "ChIJ7XMBU6GXyzsR8LEEpLAxi4I", "plus_code": {"global_code": "7J9W9CFX+C7", "compound_code": "9CFX+C7 Hyderabad, Telangana, India"}, "vicinity": "13-1-117/A/2, Azeez Bagh; Sitaram Bagh, Puranpool, Puranpool, Hyderabad", "scope": "GOOGLE", "business_status": "OPERATIONAL", "types": ["doctor", "health", "point_of_interest", "establishment"], "icon": "https://maps.gstatic.com/mapfiles/place_api/icons/v1/png_71/generic_business-71.png"}, {"name": "M .S. Clinic", "reference": "ChIJyZgPWqGXyzsRVNmircDP064", "geometry": {"location": {"lat": 17.3737549, "lng": 78.44751990000002}, "viewport": {"northeast": {"lat": 17.3750967302915, "lng": 78.44886658029151}, "southwest": {"lat": 17.3723987697085, "lng": 78.4461686197085}}}, "opening_hours": {"open_now": true}, "place_id": "ChIJyZgPWqGXyzsRVNmircDP064", "plus_code": {"global_code": "7J9W9CFX+G2", "compound_code": "9CFX+G2 Hyderabad, Telangana, India"}, "vicinity": "Karwan Road, Subji Mandi, Syed Ali Guda, Hyderabad", "scope": "GOOGLE", "business_status": "OPERATIONAL", "types": ["doctor", "health", "point_of_interest", "establishment"], "icon": "https://maps.gstatic.com/mapfiles/place_api/icons/v1/png_71/generic_business-71.png"}, {"name": "Rajya Lakshmi Dr K", "reference": "ChIJAQAAwAyXyzsRED8vqgLM9ls", "geometry": {"location": {"lat": 17.3866701, "lng": 78.4510602}, "viewport": {"northeast": {"lat": 17.3879720802915, "lng": 78.45240398029149}, "southwest": {"lat": 17.3852741197085, "lng": 78.44970601970849}}}, "place_id": "ChIJAQAAwAyXyzsRED8vqgLM9ls", "plus_code": {"global_code": "7J9W9FP2+MC", "compound_code": "9FP2+MC Hyderabad, Telangana, India"}, "vicinity": "36, Seha Sauda Apartment, Datatre Clg, Asif Nagar, Asif Nagar, Hyderabad", "scope": "GOOGLE", "business_status": "OPERATIONAL", "types": ["doctor", "health", "point_of_interest", "establishment"], "icon": "https://maps.gstatic.com/mapfiles/place_api/icons/v1/png_71/generic_business-71.png"}, {"name": "Janaki Ramulu Dr R Clinic", "reference": "ChIJAQAAAB-XyzsRMOKtnvW6fgo", "geometry": {"location": {"lat": 17.3861564, "lng": 78.45295759999999}, "viewport": {"northeast": {"lat": 17.3875015802915, "lng": 78.45430543029151}, "southwest": {"lat": 17.3848036197085, "lng": 78.4516074697085}}}, "place_id": "ChIJAQAAAB-XyzsRMOKtnvW6fgo", "vicinity": "Asif Nagar, Dattaray Colony, Asif Nagar, Hyderabad", "scope": "GOOGLE", "business_status": "OPERATIONAL", "types": ["doctor", "health", "point_of_interest", "establishment"], "icon": "https://maps.gstatic.com/mapfiles/place_api/icons/v1/png_71/generic_business-71.png"}, {"rating": 4, "user_ratings_total": 3, "name": "Divya Skin Clinic", "reference": "ChIJM1TJuKaXyzsRtg2ad_kqYgM", "geometry": {"location": {"lat": 17.3745791, "lng": 78.4457315}, "viewport": {"northeast": {"lat": 17.3759325302915, "lng": 78.4470527302915}, "southwest": {"lat": 17.37323456970849, "lng": 78.4443547697085}}}, "opening_hours": {"open_now": false}, "place_id": "ChIJM1TJuKaXyzsRtg2ad_kqYgM", "plus_code": {"global_code": "7J9W9CFW+R7", "compound_code": "9CFW+R7 Hyderabad, Telangana, India"}, "vicinity": "TopeKhana, Ziaguda, Hyderabad", "scope": "GOOGLE", "business_status": "OPERATIONAL", "types": ["doctor", "health", "point_of_interest", "establishment"], "icon": "https://maps.gstatic.com/mapfiles/place_api/icons/v1/png_71/generic_business-71.png"}, {"rating": 5, "user_ratings_total": 1, "name": "Dr. N Suguna", "reference": "ChIJRZoxo0aXyzsRqORR2zpShSs", "geometry": {"location": {"lat": 17.38362249999999, "lng": 78.45603299999999}, "viewport": {"northeast": {"lat": 17.3850029802915, "lng": 78.4573818302915}, "southwest": {"lat": 17.3823050197085, "lng": 78.45468386970849}}}, "place_id": "ChIJRZoxo0aXyzsRqORR2zpShSs", "plus_code": {"global_code": "7J9W9FM4+CC", "compound_code": "9FM4+CC Hyderabad, Telangana, India"}, "vicinity": "Jaganadh Swamy Temple Lane Number 1, Aziz Bagh, Asif Nagar, Hyderabad", "scope": "GOOGLE", "business_status": "OPERATIONAL", "types": ["doctor", "health", "point_of_interest", "establishment"], "icon": "https://maps.gstatic.com/mapfiles/place_api/icons/v1/png_71/generic_business-71.png"}, {"rating": 5, "user_ratings_total": 2, "name": "Mohd Kaleem Hyder Dr", "reference": "ChIJ7XMBU6GXyzsR-kkwN6aOT6E", "geometry": {"location": {"lat": 17.3738544, "lng": 78.4469228}, "viewport": {"northeast": {"lat": 17.37520703029151, "lng": 78.44827298029149}, "southwest": {"lat": 17.3725090697085, "lng": 78.44557501970849}}}, "place_id": "ChIJ7XMBU6GXyzsR-kkwN6aOT6E", "vicinity": "13-4-170, Sabji Mandai, Karvan Road, Near Purana Pul; Near Kismath Cafe, Karvan Road, Hyderabad", "scope": "GOOGLE", "business_status": "OPERATIONAL", "types": ["doctor", "health", "point_of_interest", "establishment"], "icon": "https://maps.gstatic.com/mapfiles/place_api/icons/v1/png_71/generic_business-71.png"}, {"rating": 5, "user_ratings_total": 4, "name": "Dr.Mukunda Reddy Physician & Surgeon", "reference": "ChIJnaH62aOXyzsRUKlZLz0woYc", "geometry": {"location": {"lat": 17.3732124, "lng": 78.4488396}, "viewport": {"northeast": {"lat": 17.3744875802915, "lng": 78.4501467802915}, "southwest": {"lat": 17.37178961970849, "lng": 78.4474488197085}}}, "place_id": "ChIJnaH62aOXyzsRUKlZLz0woYc", "plus_code": {"global_code": "7J9W9CFX+7G", "compound_code": "9CFX+7G Hyderabad, Telangana, India"}, "vicinity": "Tappachabutra, Karwan, Karvan Rd, Karwan, Hyderabad", "scope": "GOOGLE", "business_status": "OPERATIONAL", "types": ["doctor", "health", "point_of_interest", "establishment"], "icon": "https://maps.gstatic.com/mapfiles/place_api/icons/v1/png_71/generic_business-71.png"}, {"rating": 5, "user_ratings_total": 1, "name": "Sai Clinic", "reference": "ChIJZaGS7KeXyzsRTRu81A4x-Z8", "geometry": {"location": {"lat": 17.3778576, "lng": 78.4423788}, "viewport": {"northeast": {"lat": 17.3792045302915, "lng": 78.4437069302915}, "southwest": {"lat": 17.3765065697085, "lng": 78.44100896970849}}}, "opening_hours": {"open_now": false}, "place_id": "ChIJZaGS7KeXyzsRTRu81A4x-Z8", "plus_code": {"global_code": "7J9W9CHR+4X", "compound_code": "9CHR+4X Hyderabad, Telangana, India"}, "vicinity": "Karwan Road, Vasavi Vihar, Talla Gadda, Karwan, Hyderabad", "photos": [{"photo_reference": "ATtYBwK66DO54OEnuEy6cohDsRyUr-6aSRFj584rCzIFeUw9XlxmvHFZ15sAEgvgHqSH0ZVkKaXtENLBfhH3kF1s3hJXFnZhVbP_F6qVDORLcets51jmd4P-cc7wTDpFjXBih0vlmdF9dG2SfSjB3q70QyNyhYW8ERFBDILg4STtRTQ3wvgC", "width": 3869, "html_attributions": ["<a href=\"https://maps.google.com/maps/contrib/105809406651835259592\">Dinesh Singh</a>"], "height": 1075}], "scope": "GOOGLE", "business_status": "OPERATIONAL", "types": ["doctor", "health", "point_of_interest", "establishment"], "icon": "https://maps.gstatic.com/mapfiles/place_api/icons/v1/png_71/generic_business-71.png"}, {"name": "Nayyar Sultana Dr", "reference": "ChIJVVVVhQiXyzsRJPoICNqTvLE", "geometry": {"location": {"lat": 17.3824307, "lng": 78.4419334}, "viewport": {"northeast": {"lat": 17.3839915802915, "lng": 78.44303123029151}, "southwest": {"lat": 17.3812936197085, "lng": 78.44033326970849}}}, "place_id": "ChIJVVVVhQiXyzsRJPoICNqTvLE", "plus_code": {"global_code": "7J9W9CJR+XQ", "compound_code": "9CJR+XQ Hyderabad, Telangana, India"}, "vicinity": "India", "scope": "GOOGLE", "business_status": "OPERATIONAL", "types": ["doctor", "health", "point_of_interest", "establishment"], "icon": "https://maps.gstatic.com/mapfiles/place_api/icons/v1/png_71/generic_business-71.png"}, {"name": "crystal microscopes services", "reference": "ChIJ6ZbunXOXyzsRMZTBY73lpWk", "geometry": {"location": {"lat": 17.3773909, "lng": 78.44188849999999}, "viewport": {"northeast": {"lat": 17.3786864802915, "lng": 78.4432297302915}, "southwest": {"lat": 17.3759885197085, "lng": 78.4405317697085}}}, "opening_hours": {"open_now": true}, "place_id": "ChIJ6ZbunXOXyzsRMZTBY73lpWk", "plus_code": {"global_code": "7J9W9CGR+XQ", "compound_code": "9CGR+XQ Hyderabad, Telangana, India"}, "vicinity": "13-3-995, Hyderabad", "photos": [{"photo_reference": "ATtYBwIq_FF38ZX9Rih9eys7XnJKKahG0m7gJ01-ir9sXLSaXmvrHbxB9K6JlQsPfNU5DjBTwnUwGDoPvxsLJRpLoL0q4pYGVOv5n4yg-OZSTSIyrW5Bn8ArukPWjXRcWycDJ9_50qOqHVlvfn2t47bP6AnfVjJBGJcMu4y0m0AmP8kxT3rB", "width": 782, "html_attributions": ["<a href=\"https://maps.google.com/maps/contrib/109099841706360734713\">crystal microscopes services</a>"], "height": 438}], "scope": "GOOGLE", "business_status": "OPERATIONAL", "types": ["doctor", "health", "point_of_interest", "establishment"], "icon": "https://maps.gstatic.com/mapfiles/place_api/icons/v1/png_71/generic_business-71.png"}, {"name": "Mohammed Rashed Khan", "reference": "ChIJcfVKAh2XyzsR_QkQQGVJGEA", "geometry": {"location": {"lat": 17.3881941, "lng": 78.4486305}, "viewport": {"northeast": {"lat": 17.3895400302915, "lng": 78.44994263029149}, "southwest": {"lat": 17.3868420697085, "lng": 78.44724466970848}}}, "opening_hours": {"open_now": true}, "place_id": "ChIJcfVKAh2XyzsR_QkQQGVJGEA", "plus_code": {"global_code": "7J9W9CQX+7F", "compound_code": "9CQX+7F Hyderabad, Telangana, India"}, "vicinity": "Zeba Bagh, Murad Nagar, Hyderabad", "scope": "GOOGLE", "business_status": "OPERATIONAL", "types": ["doctor", "health", "point_of_interest", "store", "establishment"], "icon": "https://maps.gstatic.com/mapfiles/place_api/icons/v1/png_71/shopping-71.png"}, {"name": "Care Clinic", "reference": "ChIJryXXmduXyzsRh6MxPGqnilg", "geometry": {"location": {"lat": 17.3873504, "lng": 78.4458887}, "viewport": {"northeast": {"lat": 17.3887003802915, "lng": 78.44727848029152}, "southwest": {"lat": 17.38600241970849, "lng": 78.4445805197085}}}, "opening_hours": {"open_now": false}, "place_id": "ChIJryXXmduXyzsRh6MxPGqnilg", "plus_code": {"global_code": "7J9W9CPW+W9", "compound_code": "9CPW+W9 Hyderabad, Telangana, India"}, "vicinity": "near Meraj Royal Sea hotel, Murad Nagar, Hyderabad", "scope": "GOOGLE", "business_status": "OPERATIONAL", "types": ["doctor", "health", "point_of_interest", "establishment"], "icon": "https://maps.gstatic.com/mapfiles/place_api/icons/v1/png_71/generic_business-71.png"}]}