{"status": "OK", "html_attributions": [], "results": [{"name": "A.J Homeopathy", "reference": "ChIJIfJa6iHJ5zsRzimVeos0ju8", "geometry": {"location": {"lat": 19.1148145, "lng": 72.8798238}, "viewport": {"northeast": {"lat": 19.1161663802915, "lng": 72.8811460802915}, "southwest": {"lat": 19.11346841970849, "lng": 72.87844811970848}}}, "place_id": "ChIJIfJa6iHJ5zsRzimVeos0ju8", "plus_code": {"global_code": "7JFJ4V7H+WW", "compound_code": "4V7H+WW Mumbai, Maharashtra, India"}, "vicinity": "Shop No.7,1st floor,Devidas Anand Chawl,Gaondevi Marol Gaon, Marol Maroshi Road, Andheri(E, Mumbai", "scope": "GOOGLE", "business_status": "OPERATIONAL", "types": ["doctor", "health", "point_of_interest", "establishment"], "icon": "https://maps.gstatic.com/mapfiles/place_api/icons/v1/png_71/generic_business-71.png"}, {"name": "Husaini clinic", "reference": "ChIJ5ZveJYLJ5zsRzWBDKn7iwOM", "geometry": {"location": {"lat": 19.1215153, "lng": 72.8857939}, "viewport": {"northeast": {"lat": 19.1228794802915, "lng": 72.88711053029151}, "southwest": {"lat": 19.1201815197085, "lng": 72.8844125697085}}}, "place_id": "ChIJ5ZveJYLJ5zsRzWBDKn7iwOM", "plus_code": {"global_code": "7JFJ4VCP+J8", "compound_code": "4VCP+J8 Mumbai, Maharashtra, India"}, "vicinity": "Ganesh Pada, Bhavani Nagar, Marol, Andheri East, Mumbai", "scope": "GOOGLE", "business_status": "OPERATIONAL", "types": ["doctor", "health", "point_of_interest", "establishment"], "icon": "https://maps.gstatic.com/mapfiles/place_api/icons/v1/png_71/generic_business-71.png"}, {"rating": 4, "user_ratings_total": 2, "name": "Dr. Mrs Vani Ganapathi", "reference": "ChIJg1KphxbI5zsRRV7TFSctkj0", "geometry": {"location": {"lat": 19.1144399, "lng": 72.8782909}, "viewport": {"northeast": {"lat": 19.1157857302915, "lng": 72.87963268029151}, "southwest": {"lat": 19.11308776970849, "lng": 72.87693471970849}}}, "opening_hours": {"open_now": false}, "place_id": "ChIJg1KphxbI5zsRRV7TFSctkj0", "plus_code": {"global_code": "7JFJ4V7H+Q8", "compound_code": "4V7H+Q8 Mumbai, Maharashtra, India"}, "vicinity": "near Hanuman Mandir, Shop No. 1, Marubhai Dhobi Building, Marol Village, Andheri East, near Hanuman Mandir, Mumbai", "scope": "GOOGLE", "business_status": "OPERATIONAL", "types": ["doctor", "health", "point_of_interest", "establishment"], "icon": "https://maps.gstatic.com/mapfiles/place_api/icons/v1/png_71/generic_business-71.png"}, {"rating": 5, "user_ratings_total": 2, "name": "Dr. Vibha Mukesh Agarwal", "reference": "ChIJq6qqqhHI5zsRgb77awYXSn4", "geometry": {"location": {"lat": 19.1154732, "lng": 72.8842348}, "viewport": {"northeast": {"lat": 19.1168119302915, "lng": 72.8856217802915}, "southwest": {"lat": 19.11411396970849, "lng": 72.8829238197085}}}, "opening_hours": {"open_now": false}, "place_id": "ChIJq6qqqhHI5zsRgb77awYXSn4", "plus_code": {"global_code": "7JFJ4V8M+5M", "compound_code": "4V8M+5M Mumbai, Maharashtra, India"}, "vicinity": "Jeevan Prakash Nursing House, Marol, Andheri East, Mumbai", "scope": "GOOGLE", "business_status": "OPERATIONAL", "types": ["doctor", "health", "point_of_interest", "establishment"], "icon": "https://maps.gstatic.com/mapfiles/place_api/icons/v1/png_71/generic_business-71.png"}, {"rating": 4.3, "user_ratings_total": 29, "name": "Rohit Diabetes Centre", "reference": "ChIJicon-G3I5zsRRVA9m0HjfCc", "geometry": {"location": {"lat": 19.1137594, "lng": 72.8799238}, "viewport": {"northeast": {"lat": 19.11513543029151, "lng": 72.8811142302915}, "southwest": {"lat": 19.1124374697085, "lng": 72.8784162697085}}}, "opening_hours": {"open_now": false}, "place_id": "ChIJicon-G3I5zsRRVA9m0HjfCc", "plus_code": {"global_code": "7JFJ4V7H+GX", "compound_code": "4V7H+GX Mumbai, Maharashtra, India"}, "vicinity": "above ICICI bank, 212, 2nd floor, Lok Centre Corporate Park, above ICICI bank, Marol Maroshi Road, Andheri East, Mumbai", "photos": [{"photo_reference": "CmRaAAAANE3MU8exYLHU8iRGBGpWw9Eqk5jUynfblilCebl51_8M9hwRqG_1PzAz7lH4Qtt0aqRtFAsiG4jHUFJN_FD2VgvncW9kfxuE51DnkVcamATc6BBUEfrd3e_XESUHP1reEhBWdIxjuaNfwuSjmNSC4d_2GhTPsJofVYDP04tn_-IZ8_S9oI_xkw", "width": 1280, "html_attributions": ["<a href=\"https://maps.google.com/maps/contrib/102876415416495664310\">Ekgs 20</a>"], "height": 720}], "scope": "GOOGLE", "business_status": "OPERATIONAL", "types": ["doctor", "health", "point_of_interest", "establishment"], "icon": "https://maps.gstatic.com/mapfiles/place_api/icons/v1/png_71/generic_business-71.png"}, {"rating": 5, "user_ratings_total": 1, "name": "Anvekar Amar Gangaram", "reference": "ChIJm5fdJTzI5zsRBfhoFXKdh88", "geometry": {"location": {"lat": 19.117753, "lng": 72.8737017}, "viewport": {"northeast": {"lat": 19.1191450302915, "lng": 72.87492813029151}, "southwest": {"lat": 19.11644706970849, "lng": 72.87223016970849}}}, "place_id": "ChIJm5fdJTzI5zsRBfhoFXKdh88", "vicinity": "No. 11, Sanjeevani Hospital, Nityanand Nagar, Andheri East, Mumbai", "scope": "GOOGLE", "business_status": "OPERATIONAL", "types": ["doctor", "health", "point_of_interest", "establishment"], "icon": "https://maps.gstatic.com/mapfiles/place_api/icons/v1/png_71/generic_business-71.png"}, {"rating": 5, "user_ratings_total": 1, "name": "Dr. Veerale Panchal", "reference": "ChIJGxQs_ozJ5zsRJw6F_UgUNkI", "geometry": {"location": {"lat": 19.1146771, "lng": 72.8840141}, "viewport": {"northeast": {"lat": 19.1160995802915, "lng": 72.88505283029151}, "southwest": {"lat": 19.11340161970849, "lng": 72.8823548697085}}}, "place_id": "ChIJGxQs_ozJ5zsRJw6F_UgUNkI", "plus_code": {"global_code": "7JFJ4V7M+VJ", "compound_code": "4V7M+VJ Mumbai, Maharashtra, India"}, "vicinity": "Vasant Oasis, Makwana Road, Marol, Andheri East, Mumbai", "scope": "GOOGLE", "business_status": "OPERATIONAL", "types": ["doctor", "dentist", "health", "point_of_interest", "establishment"], "icon": "https://maps.gstatic.com/mapfiles/place_api/icons/v1/png_71/generic_business-71.png"}, {"name": "jain sanetorium", "reference": "ChIJv4Et9hPI5zsRV22Qz21SRB8", "geometry": {"location": {"lat": 19.11324, "lng": 72.881131}, "viewport": {"northeast": {"lat": 19.1145915802915, "lng": 72.8824804302915}, "southwest": {"lat": 19.1118936197085, "lng": 72.87978246970849}}}, "place_id": "ChIJv4Et9hPI5zsRV22Qz21SRB8", "plus_code": {"global_code": "7JFJ4V7J+7F", "compound_code": "4V7J+7F Mumbai, Maharashtra, India"}, "vicinity": "Lok Bharti Road, Gamdevi, Marol, Andheri East, Mumbai", "scope": "GOOGLE", "business_status": "OPERATIONAL", "types": ["doctor", "health", "point_of_interest", "establishment"], "icon": "https://maps.gstatic.com/mapfiles/place_api/icons/v1/png_71/generic_business-71.png"}, {"rating": 3.6, "user_ratings_total": 11, "name": "DR. F. F. Pardiwala", "reference": "ChIJxbcXBT3I5zsRH8bde_29E9o", "geometry": {"location": {"lat": 19.116856, "lng": 72.872834}, "viewport": {"northeast": {"lat": 19.11817618029151, "lng": 72.87424058029151}, "southwest": {"lat": 19.1154782197085, "lng": 72.87154261970849}}}, "opening_hours": {"open_now": false}, "place_id": "ChIJxbcXBT3I5zsRH8bde_29E9o", "plus_code": {"global_code": "7JFJ4V8F+P4", "compound_code": "4V8F+P4 Mumbai, Maharashtra, India"}, "vicinity": "Maheshwari Nagar,'J' Building,Shop No.7, Kondivita Road,Andheri East, Mumbai", "scope": "GOOGLE", "business_status": "OPERATIONAL", "types": ["doctor", "health", "point_of_interest", "establishment"], "icon": "https://maps.gstatic.com/mapfiles/place_api/icons/v1/png_71/generic_business-71.png"}, {"name": "Sharifa Phuphu Marol", "reference": "ChIJnbTPKQnJ5zsRps1BdAPcbas", "geometry": {"location": {"lat": 19.1142158, "lng": 72.8742255}, "viewport": {"northeast": {"lat": 19.11541963029151, "lng": 72.87574963029151}, "southwest": {"lat": 19.1127216697085, "lng": 72.8730516697085}}}, "place_id": "ChIJnbTPKQnJ5zsRps1BdAPcbas", "plus_code": {"global_code": "7JFJ4V7F+MM", "compound_code": "4V7F+MM Mumbai, Maharashtra, India"}, "vicinity": "Kadam Wadi, Marol, Andheri East, Mumbai", "scope": "GOOGLE", "business_status": "OPERATIONAL", "types": ["doctor", "health", "point_of_interest", "establishment"], "icon": "https://maps.gstatic.com/mapfiles/place_api/icons/v1/png_71/generic_business-71.png"}, {"name": "Dr Mukesh C Shah", "reference": "ChIJVUPVp1bI5zsRTyA6EHY_nZg", "geometry": {"location": {"lat": 19.1129097, "lng": 72.8761287}, "viewport": {"northeast": {"lat": 19.1142192802915, "lng": 72.8775122302915}, "southwest": {"lat": 19.11152131970849, "lng": 72.8748142697085}}}, "place_id": "ChIJVUPVp1bI5zsRTyA6EHY_nZg", "vicinity": "opposite St Xaviers School, 3, 1st Floor, Vireshwar Ashish, Church Road, Vile Parle West, opposite St Xaviers School, Mumbai", "scope": "GOOGLE", "business_status": "OPERATIONAL", "types": ["doctor", "health", "point_of_interest", "establishment"], "icon": "https://maps.gstatic.com/mapfiles/place_api/icons/v1/png_71/generic_business-71.png"}, {"rating": 2.9, "user_ratings_total": 12, "name": "Dr Vijay Dahiphale Best Sexologist", "reference": "ChIJM1AA8o3J5zsRPsow6cmIcIk", "geometry": {"location": {"lat": 19.1118641, "lng": 72.8790282}, "viewport": {"northeast": {"lat": 19.1131775802915, "lng": 72.8803665302915}, "southwest": {"lat": 19.1104796197085, "lng": 72.87766856970849}}}, "place_id": "ChIJM1AA8o3J5zsRPsow6cmIcIk", "vicinity": "Dr. Vijay Dahiphale . M/Sales STEMRX Bioscience Pvt Ltd, Seven Hills Hospital Level 3 Block 13, Seven Hills Hospital, -Mumbai 400059", "scope": "GOOGLE", "business_status": "OPERATIONAL", "types": ["doctor", "health", "point_of_interest", "establishment"], "icon": "https://maps.gstatic.com/mapfiles/place_api/icons/v1/png_71/generic_business-71.png"}, {"name": "Shree Clinic", "reference": "ChIJn4wlAD3I5zsRCmrPpuGMn1A", "geometry": {"location": {"lat": 19.1158677, "lng": 72.8721899}, "viewport": {"northeast": {"lat": 19.1172349302915, "lng": 72.8736818802915}, "southwest": {"lat": 19.1145369697085, "lng": 72.8709839197085}}}, "place_id": "ChIJn4wlAD3I5zsRCmrPpuGMn1A", "plus_code": {"global_code": "7JFJ4V8C+8V", "compound_code": "4V8C+8V Mumbai, Maharashtra, India"}, "vicinity": "Kondivita Road, J B Nagar, Andheri East, Mumbai", "scope": "GOOGLE", "business_status": "OPERATIONAL", "types": ["doctor", "health", "point_of_interest", "establishment"], "icon": "https://maps.gstatic.com/mapfiles/place_api/icons/v1/png_71/generic_business-71.png"}, {"name": "Bimal Plastics", "reference": "ChIJEcS0Nw3I5zsRcDKzlzlS-g4", "geometry": {"location": {"lat": 19.1165231, "lng": 72.8890976}, "viewport": {"northeast": {"lat": 19.1178709802915, "lng": 72.89045423029151}, "southwest": {"lat": 19.1151730197085, "lng": 72.88775626970849}}}, "place_id": "ChIJEcS0Nw3I5zsRcDKzlzlS-g4", "plus_code": {"global_code": "7JFJ4V8Q+JJ", "compound_code": "4V8Q+JJ Mumbai, Maharashtra, India"}, "vicinity": "212, Saki Vihar Road, Muranjan Wadi, Marol, Andheri East, Mumbai", "scope": "GOOGLE", "business_status": "OPERATIONAL", "types": ["doctor", "health", "point_of_interest", "establishment"], "icon": "https://maps.gstatic.com/mapfiles/place_api/icons/v1/png_71/generic_business-71.png"}, {"rating": 1, "user_ratings_total": 2, "name": "Dr. Dilip K. Trivedi Clinic", "reference": "ChIJ1Z8mVRTI5zsR9DX1wx4ra7g", "geometry": {"location": {"lat": 19.1112148, "lng": 72.8780222}, "viewport": {"northeast": {"lat": 19.1125749302915, "lng": 72.87945438029152}, "southwest": {"lat": 19.1098769697085, "lng": 72.87675641970851}}}, "opening_hours": {"open_now": false}, "place_id": "ChIJ1Z8mVRTI5zsR9DX1wx4ra7g", "plus_code": {"global_code": "7JFJ4V6H+F6", "compound_code": "4V6H+F6 Mumbai, Maharashtra, India"}, "vicinity": "Shop No. 2, Lake View Apartments, Marol Maroshi Road, Off, Marol Village Road, Andheri East, Mumbai", "scope": "GOOGLE", "business_status": "OPERATIONAL", "types": ["doctor", "health", "point_of_interest", "establishment"], "icon": "https://maps.gstatic.com/mapfiles/place_api/icons/v1/png_71/generic_business-71.png"}, {"rating": 4.6, "user_ratings_total": 7, "name": "Dr. Ravindra R. Dwivedi", "reference": "ChIJWZdvgQ_I5zsRimgv_gOXouY", "geometry": {"location": {"lat": 19.1204057, "lng": 72.8897072}, "viewport": {"northeast": {"lat": 19.1217625802915, "lng": 72.8910585302915}, "southwest": {"lat": 19.1190646197085, "lng": 72.8883605697085}}}, "place_id": "ChIJWZdvgQ_I5zsRimgv_gOXouY", "plus_code": {"global_code": "7JFJ4VCQ+5V", "compound_code": "4VCQ+5V Mumbai, Maharashtra, India"}, "vicinity": "Ekta Society, Prem Nagar, Opp. 1st Gate No. 7, Saki Vihar Road, Powai, Mumbai", "photos": [{"photo_reference": "CmRaAAAAiMn8Be2b8MTUEEYMxizw-LdWIx2vukCM31mChvXH4a4T1ephVmB3w11MZwdbwVRNiHYpuYhzkB1T_ccXDLLTmkBClrcBZzFnZKd0Z9oDfVMmXFc0SmFLcIZgZEPMYWzPEhAeBaap0NbdhTwgwzpS4EwFGhRCjopKPxNnhCez3zaFer1JjsXIeg", "width": 4123, "html_attributions": ["<a href=\"https://maps.google.com/maps/contrib/106277184867358038772\">Atul Kamble</a>"], "height": 1145}], "scope": "GOOGLE", "business_status": "OPERATIONAL", "types": ["doctor", "health", "point_of_interest", "establishment"], "icon": "https://maps.gstatic.com/mapfiles/place_api/icons/v1/png_71/generic_business-71.png"}, {"rating": 4.8, "user_ratings_total": 4, "name": "Al Shifa Clinic", "reference": "ChIJnQHaxEXJ5zsRFV25FSBrE-o", "geometry": {"location": {"lat": 19.1209358, "lng": 72.8898738}, "viewport": {"northeast": {"lat": 19.1222817802915, "lng": 72.8912136802915}, "southwest": {"lat": 19.1195838197085, "lng": 72.88851571970848}}}, "opening_hours": {"open_now": false}, "place_id": "ChIJnQHaxEXJ5zsRFV25FSBrE-o", "plus_code": {"global_code": "7JFJ4VCQ+9W", "compound_code": "4VCQ+9W Mumbai, Maharashtra, India"}, "vicinity": "near Ajmeri Masjid, Shop no b/1 NAV Yug society, near Ajmeri Masjid, Tilak Nagar, Saki Naka, Mumbai", "scope": "GOOGLE", "business_status": "OPERATIONAL", "types": ["doctor", "health", "point_of_interest", "establishment"], "icon": "https://maps.gstatic.com/mapfiles/place_api/icons/v1/png_71/generic_business-71.png"}, {"rating": 2.8, "user_ratings_total": 5, "name": "Dr. Sandip Choudhary", "reference": "ChIJ____DzTI5zsR42XguxsFKao", "geometry": {"location": {"lat": 19.1136302, "lng": 72.8714403}, "viewport": {"northeast": {"lat": 19.1150963302915, "lng": 72.87278723029151}, "southwest": {"lat": 19.1123983697085, "lng": 72.8700892697085}}}, "place_id": "ChIJ____DzTI5zsR42XguxsFKao", "vicinity": "3A/4, Shreeji Kripa Building, Behind Akruti Trade Centre, Andheri East, Mumbai", "scope": "GOOGLE", "business_status": "OPERATIONAL", "types": ["doctor", "health", "point_of_interest", "establishment"], "icon": "https://maps.gstatic.com/mapfiles/place_api/icons/v1/png_71/generic_business-71.png"}, {"name": "32 Intact dental clinic", "reference": "ChIJMZzAW3_J5zsRcMFm9HOZjsI", "geometry": {"location": {"lat": 19.1115975, "lng": 72.87491299999999}, "viewport": {"northeast": {"lat": 19.1129492802915, "lng": 72.8762607802915}, "southwest": {"lat": 19.1102513197085, "lng": 72.8735628197085}}}, "opening_hours": {"open_now": false}, "place_id": "ChIJMZzAW3_J5zsRcMFm9HOZjsI", "plus_code": {"global_code": "7JFJ4V6F+JX", "compound_code": "4V6F+JX Mumbai, Maharashtra, India"}, "vicinity": "opposite writers office, Marol Church Road Andheri East Opposite garden nursery school, opposite writers office, Mumbai", "scope": "GOOGLE", "business_status": "OPERATIONAL", "types": ["doctor", "health", "point_of_interest", "establishment"], "icon": "https://maps.gstatic.com/mapfiles/place_api/icons/v1/png_71/generic_business-71.png"}, {"rating": 3.5, "user_ratings_total": 2, "name": "Dr. Shahbaz Khan B.H.M.S. & Dr. Mrs.Lubna.S.Khan", "reference": "ChIJ5c6jAxXI5zsRp6ye4cPqbmE", "geometry": {"location": {"lat": 19.110452, "lng": 72.8778689}, "viewport": {"northeast": {"lat": 19.1117229802915, "lng": 72.87921088029151}, "southwest": {"lat": 19.1090250197085, "lng": 72.8765129197085}}}, "place_id": "ChIJ5c6jAxXI5zsRp6ye4cPqbmE", "plus_code": {"global_code": "7JFJ4V6H+54", "compound_code": "4V6H+54 Mumbai, Maharashtra, India"}, "vicinity": "Shop No.1, Co-Operative Housing Limited, Golden Nest Society Apartments, Mapkhan Nagar, Andheri East, Mumbai", "scope": "GOOGLE", "business_status": "OPERATIONAL", "types": ["doctor", "health", "point_of_interest", "establishment"], "icon": "https://maps.gstatic.com/mapfiles/place_api/icons/v1/png_71/generic_business-71.png"}]}