{"status": "OK", "next_page_token": "CqQCGAEAAFQJ5DvnQEsywrfsDEetvb7aL30_b9cMxqcHaQoT76WUweuMuBGv8scyriZAvWfcyoy8WqwThNin04H3pOax9rbtJ288viFxZjMOj69jqstg5yDftlFe5eG2wO-cqAWuQ2_XVoTW76sDW8odgQroeKDPYgZYEUroV060FuDVuu7ID12WGmlM8IG1ZGCaBTZpVf_jOqAJIBBwSUDWbbRZ1B0txb3prMubRWXbZSw-gTbOxlh4eEUgqmYwqHZInjxeTDm1GnJ6RdZVmZP3hmUvHkD1lEKrwRlV3NsHPXn2CKyhf85dXEWRkSU3B9jztFP9iiNM3DGf-SaDo2Ih82IrG4A7VW8Ojxjzpn9b2k7C8D9J4qVNn4QJO-uSPqG5CbDalxIQnQmmJNWFg_Zj-ALz-Ib-xRoU6H0ekT8z6fm5O4iF_ynv5N77GYs", "html_attributions": [], "results": [{"rating": 3, "user_ratings_total": 2, "name": "Laparoscopic Surgeon in Mumbai", "reference": "ChIJm8wnymrG5zsRZjpxoPPP5EQ", "geometry": {"location": {"lat": 19.064805, "lng": 72.922791}, "viewport": {"northeast": {"lat": 19.0661632302915, "lng": 72.92411908029149}, "southwest": {"lat": 19.06346526970849, "lng": 72.92142111970848}}}, "opening_hours": {"open_now": false}, "place_id": "ChIJm8wnymrG5zsRZjpxoPPP5EQ", "plus_code": {"global_code": "7JFJ3W7F+W4", "compound_code": "3W7F+W4 Mumbai, Maharashtra, India"}, "vicinity": "plot no 20-U-5, Road no 4. Shivaji Nagar., Govandi., Mumbai", "scope": "GOOGLE", "business_status": "OPERATIONAL", "types": ["doctor", "health", "point_of_interest", "establishment"], "icon": "https://maps.gstatic.com/mapfiles/place_api/icons/v1/png_71/generic_business-71.png"}, {"rating": 4.9, "user_ratings_total": 7, "name": "Uzma Pathology Lab", "reference": "ChIJaeKxGEDG5zsRyPPt5Q93NOE", "geometry": {"location": {"lat": 19.0668654, "lng": 72.9238515}, "viewport": {"northeast": {"lat": 19.0681997802915, "lng": 72.92523428029149}, "southwest": {"lat": 19.0655018197085, "lng": 72.92253631970848}}}, "opening_hours": {"open_now": false}, "place_id": "ChIJaeKxGEDG5zsRyPPt5Q93NOE", "plus_code": {"global_code": "7JFJ3W8F+PG", "compound_code": "3W8F+PG Mumbai, Maharashtra, India"}, "vicinity": "28/K/32, Road Number 4, Govandi Slums, Phase 1, Govandi East, Mumbai", "photos": [{"photo_reference": "CmRaAAAA8VrhjvW6Pt15purNHDOq819K2abU_yRMvZ6t1eXhGKkfCsK74UMrKVxJC9zbVR2fXEWHGaMIzmpU3VNGB0zcex7Exa7VmgqK79tlkHqM6N5V3UDPyMFq4AI7hIy6CpmaEhApIxIT_4ySIcdiWh1kM6LOGhR0dgyydG8k02N-c3709YgbJiKv8g", "width": 780, "html_attributions": ["<a href=\"https://maps.google.com/maps/contrib/105947109310502313311\">Uzma Laboratory</a>"], "height": 1040}], "scope": "GOOGLE", "business_status": "OPERATIONAL", "types": ["doctor", "health", "point_of_interest", "establishment"], "icon": "https://maps.gstatic.com/mapfiles/place_api/icons/v1/png_71/generic_business-71.png"}, {"rating": 3.8, "user_ratings_total": 8, "name": "Metropolis Healthcare Ltd", "reference": "ChIJyWn4FA7G5zsRUFwenpChnyE", "geometry": {"location": {"lat": 19.0527169, "lng": 72.91539999999999}, "viewport": {"northeast": {"lat": 19.0542395302915, "lng": 72.9167187302915}, "southwest": {"lat": 19.0515415697085, "lng": 72.9140207697085}}}, "opening_hours": {"open_now": false}, "place_id": "ChIJyWn4FA7G5zsRUFwenpChnyE", "plus_code": {"global_code": "7JFJ3W38+35", "compound_code": "3W38+35 Mumbai, Maharashtra, India"}, "vicinity": "Premises CHS, SN 11, Raikar Chambers, near Sankheswar Parshwanath Jain Derasar, Govandi Station Road, Govandi East, Mumbai", "scope": "GOOGLE", "business_status": "OPERATIONAL", "types": ["doctor", "health", "point_of_interest", "establishment"], "icon": "https://maps.gstatic.com/mapfiles/place_api/icons/v1/png_71/generic_business-71.png"}, {"rating": 5, "user_ratings_total": 1, "name": "Neha Clinic", "reference": "ChIJa__PcWnG5zsROQF7uFkjo1M", "geometry": {"location": {"lat": 19.0628415, "lng": 72.9292258}, "viewport": {"northeast": {"lat": 19.0642364302915, "lng": 72.9304685302915}, "southwest": {"lat": 19.0615384697085, "lng": 72.92777056970849}}}, "opening_hours": {"open_now": false}, "place_id": "ChIJa__PcWnG5zsROQF7uFkjo1M", "plus_code": {"global_code": "7JFJ3W7H+4M", "compound_code": "3W7H+4M Mumbai, Maharashtra, India"}, "vicinity": "39/A/3, Road Number 13, Govandi West, Baiganwadi, Shivaji Nagar, Mumbai", "scope": "GOOGLE", "business_status": "OPERATIONAL", "types": ["doctor", "health", "point_of_interest", "establishment"], "icon": "https://maps.gstatic.com/mapfiles/place_api/icons/v1/png_71/generic_business-71.png"}, {"name": "Healthcare Pathology", "reference": "ChIJtcmBknHG5zsRl3F8UIa9HqM", "geometry": {"location": {"lat": 19.0538683, "lng": 72.9290827}, "viewport": {"northeast": {"lat": 19.0552231802915, "lng": 72.93040738029151}, "southwest": {"lat": 19.0525252197085, "lng": 72.9277094197085}}}, "place_id": "ChIJtcmBknHG5zsRl3F8UIa9HqM", "plus_code": {"global_code": "7JFJ3W3H+GJ", "compound_code": "3W3H+GJ Mumbai, Maharashtra, India"}, "vicinity": "Mankhurd West, Annabhau Sathe Nagar, Govandi East, Mumbai", "scope": "GOOGLE", "business_status": "OPERATIONAL", "types": ["hospital", "doctor", "health", "point_of_interest", "establishment"], "icon": "https://maps.gstatic.com/mapfiles/place_api/icons/v1/png_71/doctor-71.png"}, {"rating": 5, "user_ratings_total": 1, "name": "Jain Lab - Dinesh M Jain", "reference": "ChIJTxTN3A7G5zsRUsaRhUclp04", "geometry": {"location": {"lat": 19.0495285, "lng": 72.91430509999999}, "viewport": {"northeast": {"lat": 19.0508742802915, "lng": 72.9156194302915}, "southwest": {"lat": 19.0481763197085, "lng": 72.9129214697085}}}, "opening_hours": {"open_now": true}, "place_id": "ChIJTxTN3A7G5zsRUsaRhUclp04", "vicinity": "Shop No 3062, Near Hindustan Bank, Gajanan Colony, Shivaji Nagar, Govandi(W), Mumbai", "scope": "GOOGLE", "business_status": "OPERATIONAL", "types": ["doctor", "health", "point_of_interest", "establishment"], "icon": "https://maps.gstatic.com/mapfiles/place_api/icons/v1/png_71/generic_business-71.png"}, {"name": "Dr. Akshata Oswal", "reference": "ChIJE-eNnhPG5zsRS7fQgZRucsY", "geometry": {"location": {"lat": 19.0591416, "lng": 72.9192545}, "viewport": {"northeast": {"lat": 19.06059608029151, "lng": 72.92066908029149}, "southwest": {"lat": 19.0578981197085, "lng": 72.91797111970848}}}, "opening_hours": {"open_now": false}, "place_id": "ChIJE-eNnhPG5zsRS7fQgZRucsY", "plus_code": {"global_code": "7JFJ3W59+MP", "compound_code": "3W59+MP Mumbai, Maharashtra, India"}, "vicinity": "near Bhaji Market, Plot No. 18-U-1-1 (A) & 2, near Bhaji Market, Jeejabai Bhosale Marg, Govandi East, Mumbai", "scope": "GOOGLE", "business_status": "OPERATIONAL", "types": ["doctor", "health", "point_of_interest", "establishment"], "icon": "https://maps.gstatic.com/mapfiles/place_api/icons/v1/png_71/generic_business-71.png"}, {"rating": 5, "user_ratings_total": 1, "name": "Firdous Clinic Ayurveda Care Centre", "reference": "ChIJk1NvvhTG5zsR6YbvsIbpa9s", "geometry": {"location": {"lat": 19.0616074, "lng": 72.9210931}, "viewport": {"northeast": {"lat": 19.0629668802915, "lng": 72.92244343029151}, "southwest": {"lat": 19.0602689197085, "lng": 72.91974546970849}}}, "opening_hours": {"open_now": false}, "place_id": "ChIJk1NvvhTG5zsR6YbvsIbpa9s", "plus_code": {"global_code": "7JFJ3W6C+JC", "compound_code": "3W6C+JC Mumbai, Maharashtra, India"}, "vicinity": "44, Shri Ramdeo Maurya Marg, Govandi West, Raman Mama Nagar, Shivaji Nagar, Mumbai", "scope": "GOOGLE", "business_status": "OPERATIONAL", "types": ["doctor", "health", "point_of_interest", "establishment"], "icon": "https://maps.gstatic.com/mapfiles/place_api/icons/v1/png_71/generic_business-71.png"}, {"rating": 3.5, "user_ratings_total": 2, "name": "Jayant Shah", "reference": "ChIJ__8_ah7G5zsRqhpM_QGXm4A", "geometry": {"location": {"lat": 19.060393, "lng": 72.9222484}, "viewport": {"northeast": {"lat": 19.0616741302915, "lng": 72.92355863029151}, "southwest": {"lat": 19.05897616970849, "lng": 72.92086066970849}}}, "place_id": "ChIJ__8_ah7G5zsRqhpM_QGXm4A", "vicinity": "Rushabh, Near Ambedkar Garden, 18Th Road, Chembur(E), Mumbai", "scope": "GOOGLE", "business_status": "OPERATIONAL", "types": ["doctor", "health", "point_of_interest", "establishment"], "icon": "https://maps.gstatic.com/mapfiles/place_api/icons/v1/png_71/generic_business-71.png"}, {"name": "Acharya Bijan Krishna", "reference": "ChIJ__8_ah7G5zsR1tfaAI1TIW8", "geometry": {"location": {"lat": 19.060393, "lng": 72.9222484}, "viewport": {"northeast": {"lat": 19.0616741302915, "lng": 72.92355863029151}, "southwest": {"lat": 19.05897616970849, "lng": 72.92086066970849}}}, "place_id": "ChIJ__8_ah7G5zsR1tfaAI1TIW8", "vicinity": "2Nd Flrth Floor, Santosh Polyclinic, Ambedkar Garden, 18Th Road, Chembur, Mumbai - 400074", "scope": "GOOGLE", "business_status": "OPERATIONAL", "types": ["doctor", "health", "point_of_interest", "establishment"], "icon": "https://maps.gstatic.com/mapfiles/place_api/icons/v1/png_71/generic_business-71.png"}, {"name": "Pattar Shivaji Nagar", "reference": "ChIJAfZiWVTH5zsR1lffu1TAY9g", "geometry": {"location": {"lat": 19.0623223, "lng": 72.92065149999999}, "viewport": {"northeast": {"lat": 19.0636545302915, "lng": 72.9220375302915}, "southwest": {"lat": 19.0609565697085, "lng": 72.91933956970848}}}, "opening_hours": {"open_now": true}, "place_id": "ChIJAfZiWVTH5zsR1lffu1TAY9g", "plus_code": {"global_code": "7JFJ3W6C+W7", "compound_code": "3W6C+W7 Mumbai, Maharashtra, India"}, "vicinity": "45, Jeejabai Bhosale Marg, ACC Nagar, Chedda Nagar, Mumbai", "scope": "GOOGLE", "business_status": "OPERATIONAL", "types": ["doctor", "health", "point_of_interest", "establishment"], "icon": "https://maps.gstatic.com/mapfiles/place_api/icons/v1/png_71/generic_business-71.png"}, {"rating": 4.2, "user_ratings_total": 11, "name": "S.N. Hospital", "reference": "ChIJ-0eexxTG5zsR8VZ2OkReP1Y", "geometry": {"location": {"lat": 19.062124, "lng": 72.921495}, "viewport": {"northeast": {"lat": 19.0634700802915, "lng": 72.92285053029151}, "southwest": {"lat": 19.0607721197085, "lng": 72.92015256970849}}}, "opening_hours": {"open_now": true}, "place_id": "ChIJ-0eexxTG5zsR8VZ2OkReP1Y", "plus_code": {"global_code": "7JFJ3W6C+RH", "compound_code": "3W6C+RH Mumbai, Maharashtra, India"}, "vicinity": "3, Plot No. 46/K/1,2, Near, Post Office Road, Govandi West, Shivaji Nagar, Mumbai", "photos": [{"photo_reference": "CmRaAAAAux_9aRDvSFrHju3aJ1V7ePujld8VlcW1r4LWXnPkwIt1lA0sx7-Xv1Q4XjVvQ-0tOwyUH6ofQrOKMCr5YVCt9xjrhKFvusDXWxt10lHvd-V6PnsKufvD0RAJNJveH8fWEhBTbHx5LCYPPoDedgW5TfEKGhRvEWhlxJaBO7FpM-QzL2iZZFrqAw", "width": 2000, "html_attributions": ["<a href=\"https://maps.google.com/maps/contrib/100200157349035944969\">S.N. Hospital</a>"], "height": 1200}], "scope": "GOOGLE", "business_status": "OPERATIONAL", "types": ["hospital", "drugstore", "doctor", "health", "point_of_interest", "store", "establishment"], "icon": "https://maps.gstatic.com/mapfiles/place_api/icons/v1/png_71/doctor-71.png"}, {"name": "Dr. NIKHIL PRABHU (DIABETES CLINIC)", "reference": "ChIJEQah2HXH5zsRKetgWOmYOLs", "geometry": {"location": {"lat": 19.0622778, "lng": 72.9213106}, "viewport": {"northeast": {"lat": 19.0636699802915, "lng": 72.92268183029151}, "southwest": {"lat": 19.0609720197085, "lng": 72.91998386970849}}}, "place_id": "ChIJEQah2HXH5zsRKetgWOmYOLs", "plus_code": {"global_code": "7JFJ3W6C+WG", "compound_code": "3W6C+WG Mumbai, Maharashtra, India"}, "vicinity": "Plot no 43-44, near Taxi stand, shivaji nagar, Govandi East, Mumbai", "photos": [{"photo_reference": "CmRaAAAAWLfvPC_57WI4MuEce3EyLwujh4107b7pbeK4zuqc63-HlVDF02xH8u1SL84cresOSOXDbdn3jXkfQ4X_hLMjAsislaXAwot_lrmdjXf95jSbCo5ZZK7ccwly1reWg2jVEhBlxkhCbqN0Czk1LnmTrF8bGhSweEiiBt1G_b_BfUHlIV-5K0FxlA", "width": 1080, "html_attributions": ["<a href=\"https://maps.google.com/maps/contrib/106270838912503243313\">Dr. NIKHIL PRABHU (DIABETES CLINIC)</a>"], "height": 608}], "scope": "GOOGLE", "business_status": "OPERATIONAL", "types": ["doctor", "health", "point_of_interest", "establishment"], "icon": "https://maps.gstatic.com/mapfiles/place_api/icons/v1/png_71/generic_business-71.png"}, {"rating": 4.7, "user_ratings_total": 3, "name": "Dr S. P. Oswal", "reference": "ChIJCaSP5xTG5zsRaXMo-xDwQ-8", "geometry": {"location": {"lat": 19.0627301, "lng": 72.9209201}, "viewport": {"northeast": {"lat": 19.0640813302915, "lng": 72.92226433029151}, "southwest": {"lat": 19.0613833697085, "lng": 72.91956636970849}}}, "opening_hours": {"open_now": true}, "place_id": "ChIJCaSP5xTG5zsRaXMo-xDwQ-8", "plus_code": {"global_code": "7JFJ3W7C+39", "compound_code": "3W7C+39 Mumbai, Maharashtra, India"}, "vicinity": "Road Number 3, Govandi West, Phase 1, Shivaji Nagar, Mumbai", "scope": "GOOGLE", "business_status": "OPERATIONAL", "types": ["doctor", "health", "point_of_interest", "establishment"], "icon": "https://maps.gstatic.com/mapfiles/place_api/icons/v1/png_71/generic_business-71.png"}, {"name": "Dr.Shasikant Shende Clinic", "reference": "ChIJWdWo3hTG5zsRWyoO3uJ20rw", "geometry": {"location": {"lat": 19.0630191, "lng": 72.9212909}, "viewport": {"northeast": {"lat": 19.0644034302915, "lng": 72.9225641302915}, "southwest": {"lat": 19.0617054697085, "lng": 72.9198661697085}}}, "place_id": "ChIJWdWo3hTG5zsRWyoO3uJ20rw", "plus_code": {"global_code": "7JFJ3W7C+6G", "compound_code": "3W7C+6G Mumbai, Maharashtra, India"}, "vicinity": "24-A-7, Rd Number 3, Govandi West, Shivaji Nagar, Govandi East, Road Number 3, Govandi West, Shivaji Nagar, Mumbai", "scope": "GOOGLE", "business_status": "OPERATIONAL", "types": ["doctor", "health", "point_of_interest", "establishment"], "icon": "https://maps.gstatic.com/mapfiles/place_api/icons/v1/png_71/generic_business-71.png"}, {"rating": 5, "user_ratings_total": 1, "name": "Sure Cure Clinic", "reference": "ChIJn41dqhbG5zsRkxFswL2tJKw", "geometry": {"location": {"lat": 19.0602267, "lng": 72.9164296}, "viewport": {"northeast": {"lat": 19.0615745802915, "lng": 72.91781478029151}, "southwest": {"lat": 19.0588766197085, "lng": 72.9151168197085}}}, "opening_hours": {"open_now": false}, "place_id": "ChIJn41dqhbG5zsRkxFswL2tJKw", "plus_code": {"global_code": "7JFJ3W68+3H", "compound_code": "3W68+3H Mumbai, Maharashtra, India"}, "vicinity": "New Link Road, Gautam Nagar, Chedda Nagar, Mumbai", "scope": "GOOGLE", "business_status": "OPERATIONAL", "types": ["doctor", "health", "point_of_interest", "establishment"], "icon": "https://maps.gstatic.com/mapfiles/place_api/icons/v1/png_71/generic_business-71.png"}, {"name": "dr.jain", "reference": "ChIJYYehHhXG5zsRQ20gQcNRtP4", "geometry": {"location": {"lat": 19.0635705, "lng": 72.92061029999999}, "viewport": {"northeast": {"lat": 19.0649193802915, "lng": 72.92195948029149}, "southwest": {"lat": 19.0622214197085, "lng": 72.91926151970848}}}, "place_id": "ChIJYYehHhXG5zsRQ20gQcNRtP4", "plus_code": {"global_code": "7JFJ3W7C+C6", "compound_code": "3W7C+C6 Mumbai, Maharashtra, India"}, "vicinity": "Road Number 2, Phase 1, Shivaji Nagar, Mumbai", "scope": "GOOGLE", "business_status": "OPERATIONAL", "types": ["doctor", "health", "point_of_interest", "establishment"], "icon": "https://maps.gstatic.com/mapfiles/place_api/icons/v1/png_71/generic_business-71.png"}, {"name": "Doctor Kamat", "reference": "ChIJ32wkBBXG5zsRifcQKJf1n54", "geometry": {"location": {"lat": 19.0636526, "lng": 72.9199182}, "viewport": {"northeast": {"lat": 19.0650229802915, "lng": 72.9212222302915}, "southwest": {"lat": 19.0623250197085, "lng": 72.91852426970848}}}, "place_id": "ChIJ32wkBBXG5zsRifcQKJf1n54", "plus_code": {"global_code": "7JFJ3W79+FX", "compound_code": "3W79+FX Mumbai, Maharashtra, India"}, "vicinity": "Road Number 1, Govandi West, Phase 1, Shivaji Nagar, Mumbai", "scope": "GOOGLE", "business_status": "OPERATIONAL", "types": ["doctor", "health", "point_of_interest", "establishment"], "icon": "https://maps.gstatic.com/mapfiles/place_api/icons/v1/png_71/generic_business-71.png"}, {"rating": 5, "user_ratings_total": 1, "name": "Dr. Ashok L. Said Patil Clinic", "reference": "ChIJ-3UJ5hTG5zsRD9EdAtBsNkA", "geometry": {"location": {"lat": 19.0636747, "lng": 72.9205999}, "viewport": {"northeast": {"lat": 19.06502718029151, "lng": 72.9219413802915}, "southwest": {"lat": 19.0623292197085, "lng": 72.9192434197085}}}, "opening_hours": {"open_now": false}, "place_id": "ChIJ-3UJ5hTG5zsRD9EdAtBsNkA", "plus_code": {"global_code": "7JFJ3W7C+F6", "compound_code": "3W7C+F6 Mumbai, Maharashtra, India"}, "vicinity": "Govandi, Road Number 2, Phase 1, Shivaji Nagar, Mumbai", "scope": "GOOGLE", "business_status": "OPERATIONAL", "types": ["doctor", "health", "point_of_interest", "establishment"], "icon": "https://maps.gstatic.com/mapfiles/place_api/icons/v1/png_71/generic_business-71.png"}, {"name": "Chougule Clinic", "reference": "ChIJs0gAKRXG5zsRzlkCTPWmDr4", "geometry": {"location": {"lat": 19.0636009, "lng": 72.92188639999999}, "viewport": {"northeast": {"lat": 19.0648908302915, "lng": 72.92336983029149}, "southwest": {"lat": 19.0621928697085, "lng": 72.92067186970849}}}, "place_id": "ChIJs0gAKRXG5zsRzlkCTPWmDr4", "plus_code": {"global_code": "7JFJ3W7C+CQ", "compound_code": "3W7C+CQ Mumbai, Maharashtra, India"}, "vicinity": "33A, Road Number 4, Govandi West, Phase 1, Shivaji Nagar, Mumbai", "scope": "GOOGLE", "business_status": "OPERATIONAL", "types": ["doctor", "health", "point_of_interest", "establishment"], "icon": "https://maps.gstatic.com/mapfiles/place_api/icons/v1/png_71/generic_business-71.png"}]}