{"status": "OK", "next_page_token": "CsQDuAEAAPXTC6XZmxzNqoxMb59OXU28Nz1uJlhzv2MdWgHhG4dHae_I1JG_oBvaJ1-lgGzzFyjcgk-UJjBJziPbK104t4v03Ivi4J4ZIo1JR-ck8GTlxV18xXR18H_v_-Un4-370mNSBastxMyl9T_nJ0AcaA6thOwLf7cyec2_PvMyaSlexP-xF7UOrIMdgBkiqtmr2ZUXHdoFP54Hy5km005pWWQkm2yJDf0bCFKgGPgW-taRo1B3URHmynmOmQeoDlULPDozfonNppifBOHwZU0-XmrNSWwUctgzSJDvnjU50Unb7GQGZE7-v5rEQPPMk4ZAGTVamSqyqKFqkiCz6L6OqELtX4MPPdi8vX_GnjTknaFV0JAthbOVnk8JTfPZOezyI-SlMHHG5teOkWkDxCB6ApoVaSekQpb9lhDOlhWqG4wJwnEbORdBaISmtGAkCQQqkjhmWOV85zeFDuOADFz1bwhbnvIWgPbLgE3SQZhj7GDGf9-WPKzM4yFrszYszJ8QkJpywO7cLLQPPVeaMyhC3fXhzBhe2LzxCg38PZBJAuDBkCgXn-vG3NaSc5VKalPcpuVi_5fhqyqSjZYCsGUgPeASEBirWgSyaCn-1kzKSYZ2Fs8aFM6BkDGrgaIBsWALqD4WuJjrLqhA", "html_attributions": [], "results": [{"name": "Dr. Sandip Jain", "reference": "ChIJSTFunhrO5zsRJ4UBCsjIc9U", "geometry": {"location": {"lat": 18.95285459999999, "lng": 72.8178938}, "viewport": {"northeast": {"lat": 18.9542939302915, "lng": 72.81927793029149}, "southwest": {"lat": 18.9515959697085, "lng": 72.81657996970849}}}, "place_id": "ChIJSTFunhrO5zsRJ4UBCsjIc9U", "plus_code": {"global_code": "7JCJXR39+45", "compound_code": "XR39+45 Mumbai, Maharashtra, India"}, "vicinity": "Opera House, Girgaon, Mumbai", "scope": "GOOGLE", "business_status": "OPERATIONAL", "types": ["doctor", "health", "point_of_interest", "establishment"], "icon": "https://maps.gstatic.com/mapfiles/place_api/icons/v1/png_71/generic_business-71.png"}, {"rating": 4.9, "user_ratings_total": 10, "name": "Dholakia Eye Clinic", "reference": "ChIJ_eWRug3O5zsRljlFvSKWuAg", "geometry": {"location": {"lat": 18.9611647, "lng": 72.8132998}, "viewport": {"northeast": {"lat": 18.9625512302915, "lng": 72.8147159302915}, "southwest": {"lat": 18.95985326970849, "lng": 72.81201796970849}}}, "place_id": "ChIJ_eWRug3O5zsRljlFvSKWuAg", "plus_code": {"global_code": "7JCJXR67+F8", "compound_code": "XR67+F8 Mumbai, Maharashtra, India"}, "vicinity": "22, Kailash Darshan, 6th floor, Above IDBI bank, Kennedy Bridge, Nana chowk", "photos": [{"photo_reference": "CmRaAAAAbNwt6q5dCLfSIx5pP_nKCjodiSMXdo0QREnzhrt5xH9UFvs4swHW7NGkYdEJRVdaDq96-fEbonuAMvLkTozazTXZWV3Pdl28qD_FKgFiTVhgqH-ac4DVbf8uWfy5RpaWEhB85SSrdaM2Z_5qKDStorhtGhSxpefeOCGRUR485nKTaq8bgT9ZaQ", "width": 4032, "html_attributions": ["<a href=\"https://maps.google.com/maps/contrib/104413994306575691264\">neha dholakia</a>"], "height": 3024}], "scope": "GOOGLE", "business_status": "OPERATIONAL", "types": ["doctor", "health", "point_of_interest", "establishment"], "icon": "https://maps.gstatic.com/mapfiles/place_api/icons/v1/png_71/generic_business-71.png"}, {"rating": 5, "user_ratings_total": 4, "name": "Consultant Plastic Surgeon At Sir HN Reliance Foundation Hospital, Girgaum , MUMBAI", "reference": "ChIJh9hN-O_O5zsRdIcXgHuwKvU", "geometry": {"location": {"lat": 18.959238, "lng": 72.820137}, "viewport": {"northeast": {"lat": 18.9606961802915, "lng": 72.82154088029151}, "southwest": {"lat": 18.9579982197085, "lng": 72.81884291970849}}}, "opening_hours": {"open_now": false}, "place_id": "ChIJh9hN-O_O5zsRdIcXgHuwKvU", "plus_code": {"global_code": "7JCJXR5C+M3", "compound_code": "XR5C+M3 Mumbai, Maharashtra, India"}, "vicinity": "Room313, 3dd Floor Tower, Sir HN Reliance Foundation Hospital and Research Centre, Raja Ram Mohan Roy Road, Prarthana Samaj, Girgaon, Mumbai", "photos": [{"photo_reference": "CmRaAAAAy-p9honidP39O8dI5xvb9Cyll1ED37n-uS6q3-mVBhUjlLqa9ZOgVHufLnhiDr3kDmDjxyZ6EPVcCQhST0Wkj3fYlD0Bk3ThJTjYDPFDcwZs7KnjePrG-6_Ffu3Ln0OnEhChDWm561i5VkQJ3YOfZmqFGhQF03gJqdl_VkLTJlIxhCC40K-Wtg", "width": 4128, "html_attributions": ["<a href=\"https://maps.google.com/maps/contrib/111704405292833081932\">Consultant Plastic Surgeon At Sir HN Reliance Foundation Hospital, Girgaum , MUMBAI</a>"], "height": 3096}], "scope": "GOOGLE", "business_status": "OPERATIONAL", "types": ["doctor", "health", "point_of_interest", "establishment"], "icon": "https://maps.gstatic.com/mapfiles/place_api/icons/v1/png_71/generic_business-71.png"}, {"rating": 5, "user_ratings_total": 55, "name": "Dr. Bipeenchandra Bhamre, cardiac (heart) surgeon,", "reference": "ChIJe8NvYxHO5zsRVzAMClVXmuU", "geometry": {"location": {"lat": 18.9590988, "lng": 72.82023869999999}, "viewport": {"northeast": {"lat": 18.9603959802915, "lng": 72.8212953802915}, "southwest": {"lat": 18.9576980197085, "lng": 72.81859741970848}}}, "opening_hours": {"open_now": true}, "place_id": "ChIJe8NvYxHO5zsRVzAMClVXmuU", "plus_code": {"global_code": "7JCJXR5C+J3", "compound_code": "XR5C+J3 Mumbai, Maharashtra, India"}, "vicinity": "Sir H N Reliance foundation hospital, GirgaonRoad, Raja Rammohan Roy Road, Charni Road East, Opera House, Girgaon, Mumbai", "photos": [{"photo_reference": "CmRaAAAAa-kR2GlG9oz8U6NpyPKpPe2U2v5LmICv6RUvRMu-kK__u9UnMFQaiHd2u1gpdBypLTi7Ix1Q8lj4MOn0PFzX4ZxCv7VrLUKU1BhEjeOe9k3Z2-0cjCWt1eH7PsaIXFPjEhBC2Izy5g6sfpDGoQjfa2-TGhSV48-W-zplrErIG4-KJ-3aP-28FQ", "width": 1206, "html_attributions": ["<a href=\"https://maps.google.com/maps/contrib/106644574862987407974\">BloxssomFlora</a>"], "height": 1205}], "scope": "GOOGLE", "business_status": "OPERATIONAL", "types": ["doctor", "health", "point_of_interest", "establishment"], "icon": "https://maps.gstatic.com/mapfiles/place_api/icons/v1/png_71/generic_business-71.png"}, {"rating": 5, "user_ratings_total": 2, "name": "Best Urologist in Mumbai - Dr. Pradeep P Rao", "reference": "ChIJoed42BPO5zsRExZRxBfGW1U", "geometry": {"location": {"lat": 18.958925, "lng": 72.819946}, "viewport": {"northeast": {"lat": 18.9602501802915, "lng": 72.82116068029151}, "southwest": {"lat": 18.9575522197085, "lng": 72.81846271970849}}}, "opening_hours": {"open_now": true}, "place_id": "ChIJoed42BPO5zsRExZRxBfGW1U", "plus_code": {"global_code": "7JCJXR59+HX", "compound_code": "XR59+HX Mumbai, Maharashtra, India"}, "vicinity": "T 307 3rd floor, Sir H. N. Reliance Foundation Hospital and Research Centre, Raja Rammohan Roy Road (Prarthana Samaj, Girgaon), Mumbai", "photos": [{"photo_reference": "CmRaAAAAVCMLNeAxqwwbFEl95SdgM9CWHhxK1cc5B1T5Pse6WDWdShoNKaKOB5XNIkZjBExw0iHgk2IK-NIQ3c11saq-Lfh41Crdz_WXxreSqjJRmMPz52TGkiqBfXOLDYE2LG8mEhAsoxr6lIlfU-erT2tW5_qEGhQubksZltM6DRFT7YmwdbytjUs3Gg", "width": 500, "html_attributions": ["<a href=\"https://maps.google.com/maps/contrib/112496728075645103921\">Best Urologist in Mumbai - Dr. Pradeep P Rao</a>"], "height": 344}], "scope": "GOOGLE", "business_status": "OPERATIONAL", "types": ["hospital", "doctor", "health", "point_of_interest", "establishment"], "icon": "https://maps.gstatic.com/mapfiles/place_api/icons/v1/png_71/generic_business-71.png"}, {"name": "Dr Manish Parmar", "reference": "ChIJgx4rTxHO5zsR9Lx4-KTaUvk", "geometry": {"location": {"lat": 18.9579877, "lng": 72.82144}, "viewport": {"northeast": {"lat": 18.9593372802915, "lng": 72.8227770302915}, "southwest": {"lat": 18.9566393197085, "lng": 72.82007906970848}}}, "place_id": "ChIJgx4rTxHO5zsR9Lx4-KTaUvk", "vicinity": "21/6 , Khetwadi 9th Lane,Opp. Pavapuri Jain Derasar, Mumbai", "scope": "GOOGLE", "business_status": "OPERATIONAL", "types": ["doctor", "health", "point_of_interest", "establishment"], "icon": "https://maps.gstatic.com/mapfiles/place_api/icons/v1/png_71/generic_business-71.png"}, {"rating": 5, "user_ratings_total": 5, "name": "Picture This By Jankharia, Dr Jankharia's Imaging Centre", "reference": "ChIJJS7N4s_O5zsRGy4PyB3X3ks", "geometry": {"location": {"lat": 18.9578274, "lng": 72.82121}, "viewport": {"northeast": {"lat": 18.9592718802915, "lng": 72.8225509802915}, "southwest": {"lat": 18.9565739197085, "lng": 72.81985301970849}}}, "opening_hours": {"open_now": false}, "place_id": "ChIJJS7N4s_O5zsRGy4PyB3X3ks", "plus_code": {"global_code": "7JCJXR5C+4F", "compound_code": "XR5C+4F Mumbai, Maharashtra, India"}, "vicinity": "Bhaveshwar Vihar, 383, Sardar Vallabhbhai Patel Road, Mumbai", "scope": "GOOGLE", "business_status": "OPERATIONAL", "types": ["doctor", "health", "point_of_interest", "store", "establishment"], "icon": "https://maps.gstatic.com/mapfiles/place_api/icons/v1/png_71/generic_business-71.png"}, {"rating": 4.5, "user_ratings_total": 2, "name": "Dr. Manish N. Parmar-Akshar Clinic And Ace Vaccination Centre", "reference": "ChIJn_dtqRbO5zsRvbC_7KWpU9E", "geometry": {"location": {"lat": 18.9589285, "lng": 72.8224481}, "viewport": {"northeast": {"lat": 18.9602958802915, "lng": 72.8237579302915}, "southwest": {"lat": 18.95759791970849, "lng": 72.82105996970849}}}, "opening_hours": {"open_now": false}, "place_id": "ChIJn_dtqRbO5zsRvbC_7KWpU9E", "plus_code": {"global_code": "7JCJXR5C+HX", "compound_code": "XR5C+HX Mumbai, Maharashtra, India"}, "vicinity": "No-21/6, Opposite Pavapuri Jain Derasar, Khetwadi 9th Lane, Grant Road Area, Khetwadi, Girgaon, Mumbai", "scope": "GOOGLE", "business_status": "OPERATIONAL", "types": ["doctor", "health", "point_of_interest", "establishment"], "icon": "https://maps.gstatic.com/mapfiles/place_api/icons/v1/png_71/generic_business-71.png"}, {"rating": 5, "user_ratings_total": 1, "name": "Manish Parmar", "reference": "ChIJ3Xv-VhbO5zsRHgPO5wymFCY", "geometry": {"location": {"lat": 18.9596874, "lng": 72.82275849999999}, "viewport": {"northeast": {"lat": 18.9610519302915, "lng": 72.82407388029151}, "southwest": {"lat": 18.9583539697085, "lng": 72.8213759197085}}}, "place_id": "ChIJ3Xv-VhbO5zsRHgPO5wymFCY", "plus_code": {"global_code": "7JCJXR5F+V4", "compound_code": "XR5F+V4 Mumbai, Maharashtra, India"}, "vicinity": "9Th Khetwadi Lane, Girgaon, Mumbai - 400004", "scope": "GOOGLE", "business_status": "OPERATIONAL", "types": ["doctor", "health", "point_of_interest", "establishment"], "icon": "https://maps.gstatic.com/mapfiles/place_api/icons/v1/png_71/generic_business-71.png"}, {"rating": 5, "user_ratings_total": 2, "name": "Advance Bone and Joint Centre", "reference": "ChIJtV3TlhHO5zsRdM-KM4O-QII", "geometry": {"location": {"lat": 18.9576588, "lng": 72.8181038}, "viewport": {"northeast": {"lat": 18.95900943029151, "lng": 72.8194522802915}, "southwest": {"lat": 18.9563114697085, "lng": 72.8167543197085}}}, "place_id": "ChIJtV3TlhHO5zsRdM-KM4O-QII", "plus_code": {"global_code": "7JCJXR59+36", "compound_code": "XR59+36 Mumbai, Maharashtra, India"}, "vicinity": "383,S.V.P. road, Bhaveshwer Vihar Building, Mumbai", "scope": "GOOGLE", "business_status": "OPERATIONAL", "types": ["doctor", "health", "point_of_interest", "establishment"], "icon": "https://maps.gstatic.com/mapfiles/place_api/icons/v1/png_71/generic_business-71.png"}, {"name": "Mamta Clinic", "reference": "ChIJSS-9vRbO5zsRFTeCQEAomFY", "geometry": {"location": {"lat": 18.9582972, "lng": 72.8233812}, "viewport": {"northeast": {"lat": 18.9596292802915, "lng": 72.8247606802915}, "southwest": {"lat": 18.9569313197085, "lng": 72.8220627197085}}}, "opening_hours": {"open_now": false}, "place_id": "ChIJSS-9vRbO5zsRFTeCQEAomFY", "plus_code": {"global_code": "7JCJXR5F+89", "compound_code": "XR5F+89 Mumbai, Maharashtra, India"}, "vicinity": "3, Krishna Building, 34, Khetwadi 6th Lane, Khetwadi, Girgaon, Mumbai", "scope": "GOOGLE", "business_status": "OPERATIONAL", "types": ["doctor", "health", "point_of_interest", "establishment"], "icon": "https://maps.gstatic.com/mapfiles/place_api/icons/v1/png_71/generic_business-71.png"}, {"rating": 3.8, "user_ratings_total": 30, "name": "Dr. Varsha Bagul", "reference": "ChIJcyHsnRrO5zsRAn53UzxeIh8", "geometry": {"location": {"lat": 18.9528645, "lng": 72.8180462}, "viewport": {"northeast": {"lat": 18.9542930802915, "lng": 72.81939763029149}, "southwest": {"lat": 18.9515951197085, "lng": 72.81669966970848}}}, "place_id": "ChIJcyHsnRrO5zsRAn53UzxeIh8", "plus_code": {"global_code": "7JCJXR39+46", "compound_code": "XR39+46 Mumbai, Maharashtra, India"}, "vicinity": "Opera House, Girgaon, Mumbai", "scope": "GOOGLE", "business_status": "OPERATIONAL", "types": ["doctor", "health", "point_of_interest", "establishment"], "icon": "https://maps.gstatic.com/mapfiles/place_api/icons/v1/png_71/generic_business-71.png"}, {"name": "Advance Bone & Joint Care Clinic", "reference": "ChIJVReFwhHO5zsRjXYoSWeJdl0", "geometry": {"location": {"lat": 18.9571616, "lng": 72.8169819}, "viewport": {"northeast": {"lat": 18.9585047302915, "lng": 72.8183327802915}, "southwest": {"lat": 18.9558067697085, "lng": 72.81563481970849}}}, "place_id": "ChIJVReFwhHO5zsRjXYoSWeJdl0", "plus_code": {"global_code": "7JCJXR48+VQ", "compound_code": "XR48+VQ Mumbai, Maharashtra, India"}, "vicinity": "4, Ground floor, Bhaveswer Vihar building, Near Haikisandas Hospital Building, A, 383, Sardar Vallabhbhai Patel Road, Bhatwadi, Girgaon, Mumbai", "scope": "GOOGLE", "business_status": "OPERATIONAL", "types": ["doctor", "health", "point_of_interest", "establishment"], "icon": "https://maps.gstatic.com/mapfiles/place_api/icons/v1/png_71/generic_business-71.png"}, {"name": "Alaknanda", "reference": "ChIJCw203RbO5zsRW1jUfDCvYu0", "geometry": {"location": {"lat": 18.9568326, "lng": 72.8233169}, "viewport": {"northeast": {"lat": 18.9581709302915, "lng": 72.8247132802915}, "southwest": {"lat": 18.9554729697085, "lng": 72.8220153197085}}}, "place_id": "ChIJCw203RbO5zsRW1jUfDCvYu0", "plus_code": {"global_code": "7JCJXR4F+P8", "compound_code": "XR4F+P8 Mumbai, Maharashtra, India"}, "vicinity": "Doctor Deshumukh Lane, Khandiwadi, Khetwadi, Girgaon, Mumbai", "scope": "GOOGLE", "business_status": "OPERATIONAL", "types": ["doctor", "health", "point_of_interest", "establishment"], "icon": "https://maps.gstatic.com/mapfiles/place_api/icons/v1/png_71/generic_business-71.png"}, {"rating": 4, "user_ratings_total": 1, "name": "Gamka Office", "reference": "ChIJtbrSoRLO5zsRG7HFHwSE98k", "geometry": {"location": {"lat": 18.9629136, "lng": 72.8162995}, "viewport": {"northeast": {"lat": 18.9642809302915, "lng": 72.81759868029151}, "southwest": {"lat": 18.96158296970849, "lng": 72.81490071970849}}}, "place_id": "ChIJtbrSoRLO5zsRG7HFHwSE98k", "plus_code": {"global_code": "7JCJXR78+5G", "compound_code": "XR78+5G Mumbai, Maharashtra, India"}, "vicinity": "54, Alibhai Premji Road, Pannalal Terrace, Grant Road East, Bharat Nagar, Grant Road, Mumbai", "scope": "GOOGLE", "business_status": "OPERATIONAL", "types": ["doctor", "health", "point_of_interest", "establishment"], "icon": "https://maps.gstatic.com/mapfiles/place_api/icons/v1/png_71/generic_business-71.png"}, {"rating": 4.9, "user_ratings_total": 14, "name": "physio consultation (physiotherapy center)", "reference": "ChIJz-fIkhnO5zsReqEtH18kP7Y", "geometry": {"location": {"lat": 18.9550155, "lng": 72.8183365}, "viewport": {"northeast": {"lat": 18.95633083029151, "lng": 72.8197704302915}, "southwest": {"lat": 18.9536328697085, "lng": 72.81707246970849}}}, "opening_hours": {"open_now": false}, "place_id": "ChIJz-fIkhnO5zsReqEtH18kP7Y", "plus_code": {"global_code": "7JCJXR49+28", "compound_code": "XR49+28 Mumbai, Maharashtra, India"}, "vicinity": "Ratan House, Raja Rammohan Roy Road, Opera House, Girgaon, Mumbai", "photos": [{"photo_reference": "CmRaAAAAoOS2ZJUkhGWsDCcGFdKVEyn2CBWwviaCOyeEbabxT9PEtHAAE6j32N7WNuF_BPCM11dXFNds95PjdXOBKED66ssUMh4KDBl8jFVNGFHxat6WMxWbOYg2YLJXFhMyf3UdEhBfz231bwQDtIQjFD8YlDpEGhQhc1AhxQCviKX35hvWyhq5phsApg", "width": 2304, "html_attributions": ["<a href=\"https://maps.google.com/maps/contrib/113776517798918438794\">physio consultation (physiotherapy center)</a>"], "height": 4608}], "scope": "GOOGLE", "business_status": "OPERATIONAL", "types": ["physiotherapist", "doctor", "health", "point_of_interest", "establishment"], "icon": "https://maps.gstatic.com/mapfiles/place_api/icons/v1/png_71/generic_business-71.png"}, {"rating": 4, "user_ratings_total": 1, "name": "Relevare Health Clinic", "reference": "ChIJD_v57BDO5zsRbJ7hewUmaQE", "geometry": {"location": {"lat": 18.9547737, "lng": 72.8200195}, "viewport": {"northeast": {"lat": 18.9561554802915, "lng": 72.8213484802915}, "southwest": {"lat": 18.9534575197085, "lng": 72.8186505197085}}}, "opening_hours": {"open_now": false}, "place_id": "ChIJD_v57BDO5zsRbJ7hewUmaQE", "plus_code": {"global_code": "7JCJXR3C+W2", "compound_code": "XR3C+W2 Mumbai, Maharashtra, India"}, "vicinity": "F5 Grnd Flr, Girgaon Eakta Housing Society Ltd, Jagannath Shankar Seth Rd, Mangal Wadi, Girgaon, Mumbai", "scope": "GOOGLE", "business_status": "OPERATIONAL", "types": ["doctor", "health", "point_of_interest", "establishment"], "icon": "https://maps.gstatic.com/mapfiles/place_api/icons/v1/png_71/generic_business-71.png"}, {"rating": 4.7, "user_ratings_total": 42, "name": "Dr. Mitul Bhatt's Advanced ENT Centre", "reference": "ChIJA3MBfQ3O5zsReeuCa9x35hM", "geometry": {"location": {"lat": 18.9652439, "lng": 72.81481579999999}, "viewport": {"northeast": {"lat": 18.9666085302915, "lng": 72.8161688802915}, "southwest": {"lat": 18.9639105697085, "lng": 72.81347091970848}}}, "opening_hours": {"open_now": false}, "place_id": "ChIJA3MBfQ3O5zsReeuCa9x35hM", "plus_code": {"global_code": "7JCJXR87+3W", "compound_code": "XR87+3W Mumbai, Maharashtra, India"}, "vicinity": "Dr. Mitul Chaitan Bhatt ENT Clinic, Madhukesh, E/29 Tukaram Javji Marg, Bhatia Hospital Lane, Grant Road West, Mumbai", "photos": [{"photo_reference": "CmRaAAAAQA4RDynGU6SMyZxqamSoHCypENCsVJjege64KTFLI0MC7vj9dQlgMAZ5n2X20yatFDgSmgSmgpAOFBMTGaXIkqSWO40HTIovh-vKDrZ4DZ2rJvoCwI2gC70LZ72QWTcfEhAYTCQc6gdNl9M5L7vrJaE5GhRl2HGw4ayAuE3Hk5kJQDEjXTuupA", "width": 853, "html_attributions": ["<a href=\"https://maps.google.com/maps/contrib/111676424597836769459\">Mitul Bhatt</a>"], "height": 1049}], "scope": "GOOGLE", "business_status": "OPERATIONAL", "types": ["doctor", "health", "point_of_interest", "establishment"], "icon": "https://maps.gstatic.com/mapfiles/place_api/icons/v1/png_71/generic_business-71.png"}, {"rating": 5, "user_ratings_total": 16, "name": "Endovascular Clinic", "reference": "ChIJ0yZA1RHO5zsRpBcH53nvKNU", "geometry": {"location": {"lat": 18.955775, "lng": 72.8161827}, "viewport": {"northeast": {"lat": 18.9571106302915, "lng": 72.8174790802915}, "southwest": {"lat": 18.9544126697085, "lng": 72.8147811197085}}}, "opening_hours": {"open_now": false}, "place_id": "ChIJ0yZA1RHO5zsRpBcH53nvKNU", "vicinity": "503, Panchratna, Opera House, 14, M P Marg, Charni Road, Mumbai", "photos": [{"photo_reference": "CmRaAAAAL44bPpI9-XHYgzWeMXLvuje8osKTk0ruuabMt7iSE8-RHXSrgguiIiOMw6fgqTddHQJvVhPQpdxmmWmR-ZmzBzoodsa71rC5_6eekOdZwfZ25hXEhhs0CdBnIhxReGiPEhBIgBWF5ARlKfMr2301Q_JQGhQ_2IA6GTPuH_XXqmv86Jc4N5nzYw", "width": 800, "html_attributions": ["<a href=\"https://maps.google.com/maps/contrib/103888007138662413130\">Endovascular Clinic</a>"], "height": 400}], "scope": "GOOGLE", "business_status": "OPERATIONAL", "types": ["doctor", "health", "point_of_interest", "establishment"], "icon": "https://maps.gstatic.com/mapfiles/place_api/icons/v1/png_71/generic_business-71.png"}, {"name": "Dr. Narvekars clinic", "reference": "ChIJwzpIPg7O5zsRX0DlWiIls_c", "geometry": {"location": {"lat": 18.956703, "lng": 72.81485150000002}, "viewport": {"northeast": {"lat": 18.9581461302915, "lng": 72.8162490302915}, "southwest": {"lat": 18.9554481697085, "lng": 72.8135510697085}}}, "place_id": "ChIJwzpIPg7O5zsRX0DlWiIls_c", "plus_code": {"global_code": "7JCJXR47+MW", "compound_code": "XR47+MW Mumbai, Maharashtra, India"}, "vicinity": "2/A, AR Rangnekar Road, Opera House, Gamdevi, Mumbai", "scope": "GOOGLE", "business_status": "OPERATIONAL", "types": ["doctor", "health", "point_of_interest", "establishment"], "icon": "https://maps.gstatic.com/mapfiles/place_api/icons/v1/png_71/generic_business-71.png"}]}