{"status": "OK", "next_page_token": "ATtYBwJ3JaTPqYQwS7kH6u1TNg4IWwaVtGErYkLIUEp5LUoQvnZd-6E4-xiIPGfwihSA7fycSGeQxBWEdS35PQyjZ89Z2CP94la4R717l-tO5F_KZxmhKgn-a5o5idw8Pr5Jv4Em9X3kuTjN_5rlE6xEoLVQATN8HkMDjBcTj6oJYlFvkr2_HZ6IanmraIQLQnImL8WxKe4xr2FB10UsWUbYzjldyX1-NEQbXrQfrWnHIpw47K6r1WjAPmK14SW7tCuLfBfTHnVyg_bUdODMBxeudHqilKqzKRpSeCcNi0CcQK8J8Qbt6v7ln4vEV369HtoosNt0BitwdxDSujWA3YTi9RplIdnR0YFfnIqdwMLCscvpHL7iHwTzROnOGVNhm3Z2eDkQufPf_FzEG6y-piU8AW4wDL5dgt3MQKZJGVabWYxAQDarjdKShfOPr80eODZL1TJOQzildGnZIaH3XyN92uf0cqsN4apQWHY4776FPsr6NuqTMam8_a4HFHvM0mq0Zz5rFlLezbgYGX1OTtOaz8tZ0m_WtPpzo-9Fmx0mbnu-n2QNfemchLslyJf8vAOUVoF7f7KeOfn6D6IF2D8-xuRZEFJgrh885UkX4NcxsKj2WgUja_NRW4WdfRZs60AIS0X1DTJo", "html_attributions": [], "results": [{"rating": 4.2, "user_ratings_total": 17, "name": "Roy Academy", "reference": "ChIJVXsmSLdlUjoR5t_ak5RoQ7U", "geometry": {"location": {"lat": 13.1089703, "lng": 80.2419092}, "viewport": {"northeast": {"lat": 13.1103100802915, "lng": 80.2432032802915}, "southwest": {"lat": 13.1076121197085, "lng": 80.24050531970849}}}, "opening_hours": {"open_now": false}, "place_id": "ChIJVXsmSLdlUjoR5t_ak5RoQ7U", "plus_code": {"global_code": "7M52465R+HQ", "compound_code": "465R+HQ Chennai, Tamil Nadu, India"}, "vicinity": "Sri Kumaran Complex, 340, 3rd Floor, Paper Mills Road, Perambur, Chennai", "photos": [{"photo_reference": "ATtYBwKep0A1U6Nz4Gtv6Qrw_Rh0VwMpy3-RRO2eBtg9P532lzU8r9zYCastlbDKCx-AbniPtTNLO-hF7VFGcfLqafDscOeF8jnGcC1-P5Ye4QPQJKBbhv7tcUche5TA_OzpAvWiO6eu9cKRl6eh91QtOpV4AjmQF_Cz1Ue1ToBIG7xYOdR4", "width": 617, "html_attributions": ["<a href=\"https://maps.google.com/maps/contrib/108858041892912055506\">Roy Academy</a>"], "height": 480}], "scope": "GOOGLE", "business_status": "OPERATIONAL", "types": ["police", "school", "point_of_interest", "establishment"], "icon": "https://maps.gstatic.com/mapfiles/place_api/icons/v1/png_71/school-71.png"}, {"permanently_closed": true, "name": "Brainobrain, Perambur", "reference": "ChIJeTc-wLllUjoRtC6OC2WFnUY", "geometry": {"location": {"lat": 13.1080061, "lng": 80.2451296}, "viewport": {"northeast": {"lat": 13.1093377802915, "lng": 80.2464754302915}, "southwest": {"lat": 13.1066398197085, "lng": 80.24377746970848}}}, "place_id": "ChIJeTc-wLllUjoRtC6OC2WFnUY", "plus_code": {"global_code": "7M52465W+63", "compound_code": "465W+63 Chennai, Tamil Nadu, India"}, "vicinity": "82, Perambur High Road, Perambur, Chennai", "photos": [{"photo_reference": "ATtYBwIcWz7lC4sC5cuwKIJrFXGOKiUse0e0KbeFujYQIXbPVF-BqKNoc0W7WziG-UM9GNbj4A-YePyFCOUYLjAcXeiQXV1bos-bbYOtiBCQE4Z0m9dHPXu-OJzZle-6sWLsx0JTWMk8yWOk406smScBLrkPdYhQKeIPzySTBlDZ2ZYqB2E9", "width": 450, "html_attributions": ["<a href=\"https://maps.google.com/maps/contrib/101636589517794124883\">Brainobrain, Perambur</a>"], "height": 258}], "scope": "GOOGLE", "business_status": "CLOSED_TEMPORARILY", "types": ["school", "point_of_interest", "establishment"], "icon": "https://maps.gstatic.com/mapfiles/place_api/icons/v1/png_71/school-71.png"}, {"rating": 3.7, "user_ratings_total": 3, "permanently_closed": true, "name": "Little Stars Play School and Day Care", "reference": "ChIJYUvPcz9kUjoRwwD1ovUQ7Vo", "geometry": {"location": {"lat": 13.0995068, "lng": 80.2304078}, "viewport": {"northeast": {"lat": 13.1008935302915, "lng": 80.2317692302915}, "southwest": {"lat": 13.0981955697085, "lng": 80.2290712697085}}}, "place_id": "ChIJYUvPcz9kUjoRwwD1ovUQ7Vo", "plus_code": {"global_code": "7M5236XJ+R5", "compound_code": "36XJ+R5 Chennai, Tamil Nadu, India"}, "vicinity": "no., (near Bus Terminus, Mylappa Street, 93, Bangaru Street, Ayanavaram, Chennai", "photos": [{"photo_reference": "ATtYBwInJRKiS9iMmgo79RVH_LhiDnQlQR8g_QujVqTpPYiy3N5CVuhjezN-3GaRzaCdEC0E1loV99oe55cX4YeK4ItiYPG6rx8xIhRt_ZxxMR_fWWCemsauIa_a_dMWzD3FPoWHskJ0U6jnFJOpMdgk-rRwOUahvDQ6nXFQhjJjZCl4iwA7", "width": 1061, "html_attributions": ["<a href=\"https://maps.google.com/maps/contrib/100709147447389598729\">LITTLE STARS PLAY SCHOOL</a>"], "height": 1071}], "scope": "GOOGLE", "business_status": "CLOSED_TEMPORARILY", "types": ["school", "point_of_interest", "establishment"], "icon": "https://maps.gstatic.com/mapfiles/place_api/icons/v1/png_71/school-71.png"}, {"rating": 4.3, "user_ratings_total": 21, "name": "Bethel Matric Hr Sec School", "reference": "ChIJfVKfac1lUjoRM5PNtjqoi2o", "geometry": {"location": {"lat": 13.093107, "lng": 80.233383}, "viewport": {"northeast": {"lat": 13.0944236302915, "lng": 80.2347366802915}, "southwest": {"lat": 13.0917256697085, "lng": 80.2320387197085}}}, "opening_hours": {"open_now": false}, "place_id": "ChIJfVKfac1lUjoRM5PNtjqoi2o", "plus_code": {"global_code": "7M5236VM+69", "compound_code": "36VM+69 Chennai, Tamil Nadu, India"}, "vicinity": "13, Ayanavaram Road,, Ayanavaram, Chennai", "photos": [{"photo_reference": "ATtYBwJ83ogeaI_YV7635NtNjVC8Gu79sEvu0FF5NWf9FnyXZemblmXmvPg5ZhNvNKvEaN-mtDlgeXBx20pkEbgP8AvDUIlpko4t_PO7YnVI2gNC5Ng1YxDyhXswvN26rs0KvfRrINmgs3eTE2iCnsi6kbDNVKHfxftNt_-a2Bno7nI1wm_g", "width": 3264, "html_attributions": ["<a href=\"https://maps.google.com/maps/contrib/115980853293627864557\">Sadiq Ali</a>"], "height": 1836}], "scope": "GOOGLE", "business_status": "OPERATIONAL", "types": ["school", "point_of_interest", "establishment"], "icon": "https://maps.gstatic.com/mapfiles/place_api/icons/v1/png_71/school-71.png"}, {"rating": 4.5, "user_ratings_total": 2, "permanently_closed": true, "name": "Siksha. The Learning Center", "reference": "ChIJCcbuotplUjoRtz3w_jlVQF8", "geometry": {"location": {"lat": 13.0912208, "lng": 80.2438691}, "viewport": {"northeast": {"lat": 13.0925705302915, "lng": 80.2452093802915}, "southwest": {"lat": 13.0898725697085, "lng": 80.24251141970849}}}, "place_id": "ChIJCcbuotplUjoRtz3w_jlVQF8", "plus_code": {"global_code": "7M5236RV+FG", "compound_code": "36RV+FG Chennai, Tamil Nadu, India"}, "vicinity": "AK Swamy Nagar 8th Street, A K Swamy Nagar, Purasaiwakkam, Chennai", "scope": "GOOGLE", "business_status": "CLOSED_TEMPORARILY", "types": ["school", "point_of_interest", "establishment"], "icon": "https://maps.gstatic.com/mapfiles/place_api/icons/v1/png_71/school-71.png"}, {"rating": 4, "user_ratings_total": 1, "permanently_closed": true, "name": "Chennai Corporation Middle School", "reference": "ChIJM8Csc7RlUjoRAhZO4YgALSo", "geometry": {"location": {"lat": 13.1093286, "lng": 80.2362704}, "viewport": {"northeast": {"lat": 13.1104193302915, "lng": 80.23754753029151}, "southwest": {"lat": 13.1077213697085, "lng": 80.2348495697085}}}, "place_id": "ChIJM8Csc7RlUjoRAhZO4YgALSo", "plus_code": {"global_code": "7M52465P+PG", "compound_code": "465P+PG Chennai, Tamil Nadu, India"}, "vicinity": "81, Rangasayee Street, Ward 54, Perambur, Chennai", "scope": "GOOGLE", "business_status": "CLOSED_TEMPORARILY", "types": ["secondary_school", "school", "point_of_interest", "establishment"], "icon": "https://maps.gstatic.com/mapfiles/place_api/icons/v1/png_71/school-71.png"}, {"name": "HEXAFIRM MULTITECH SERVICES PVT LTD", "reference": "ChIJAf9SQH9iUjoRVXrgybmtZOk", "geometry": {"location": {"lat": 13.1099724, "lng": 80.2414924}, "viewport": {"northeast": {"lat": 13.1113242302915, "lng": 80.24284308029151}, "southwest": {"lat": 13.1086262697085, "lng": 80.24014511970849}}}, "opening_hours": {"open_now": false}, "place_id": "ChIJAf9SQH9iUjoRVXrgybmtZOk", "plus_code": {"global_code": "7M52465R+XH", "compound_code": "465R+XH Chennai, Tamil Nadu, India"}, "vicinity": "New No: 70 Old No:316 Paper Mills Road 2nd Floor Opposite to Our Lady of Lourdes Church, Perambur, Chennai", "scope": "GOOGLE", "business_status": "OPERATIONAL", "types": ["secondary_school", "university", "general_contractor", "school", "point_of_interest", "establishment"], "icon": "https://maps.gstatic.com/mapfiles/place_api/icons/v1/png_71/generic_business-71.png"}, {"permanently_closed": true, "name": "School", "reference": "ChIJfY_wh8hlUjoRam5J0Ldsk8Y", "geometry": {"location": {"lat": 13.0975055, "lng": 80.2501446}, "viewport": {"northeast": {"lat": 13.0988596302915, "lng": 80.25146738029152}, "southwest": {"lat": 13.0961616697085, "lng": 80.24876941970851}}}, "place_id": "ChIJfY_wh8hlUjoRam5J0Ldsk8Y", "plus_code": {"global_code": "7M5237X2+23", "compound_code": "37X2+23 Chennai, Tamil Nadu, India"}, "vicinity": "TNHB Colony, Purasaiwakkam, Chennai", "scope": "GOOGLE", "business_status": "CLOSED_TEMPORARILY", "types": ["school", "point_of_interest", "establishment"], "icon": "https://maps.gstatic.com/mapfiles/place_api/icons/v1/png_71/school-71.png"}, {"rating": 4.2, "user_ratings_total": 53, "name": "Dharmamurthi Rao Bahadur Calavala Cunnan Chetty's Higher Secondary School", "reference": "ChIJFWD2BrplUjoRpdShXXv73Z8", "geometry": {"location": {"lat": 13.1098936, "lng": 80.2432967}, "viewport": {"northeast": {"lat": 13.1111768802915, "lng": 80.2446518802915}, "southwest": {"lat": 13.1084789197085, "lng": 80.2419539197085}}}, "place_id": "ChIJFWD2BrplUjoRpdShXXv73Z8", "plus_code": {"global_code": "7M52465V+X8", "compound_code": "465V+X8 Chennai, Tamil Nadu, India"}, "vicinity": "Paper Mills Road, Bunder Garden, Perambur, Chennai", "photos": [{"photo_reference": "ATtYBwJmzE6wgSy5cFiamakvBxSyB51eX4UFBC0wnWCkjoz0QySLFx8zope-maKQi4OQi8ZG5YCCqXxPWxbVmPMK715kuxEpDospl89UcAUa--RURA4hcUqzhxZoDzPm4ObQyGEoUsFKAjCkauU0CDyzwZXbqxJW5ovvCYOkIpUOhSq20ZwP", "width": 700, "html_attributions": ["<a href=\"https://maps.google.com/maps/contrib/112838430298368784576\">sriram ranganathan</a>"], "height": 525}], "scope": "GOOGLE", "business_status": "OPERATIONAL", "types": ["school", "point_of_interest", "establishment"], "icon": "https://maps.gstatic.com/mapfiles/place_api/icons/v1/png_71/school-71.png"}, {"rating": 5, "user_ratings_total": 2, "permanently_closed": true, "name": "Railway Mixed Hr Sec Scl", "reference": "ChIJQ6dT47NlUjoRMMp8N50_iZU", "geometry": {"location": {"lat": 13.1100976, "lng": 80.2373882}, "viewport": {"northeast": {"lat": 13.1114349802915, "lng": 80.2388063802915}, "southwest": {"lat": 13.1087370197085, "lng": 80.23610841970849}}}, "place_id": "ChIJQ6dT47NlUjoRMMp8N50_iZU", "plus_code": {"global_code": "7M52466P+2X", "compound_code": "466P+2X Chennai, Tamil Nadu, India"}, "vicinity": "59/2, Foxen Street, Amrithammal Colony, Perambur, Chennai", "scope": "GOOGLE", "business_status": "CLOSED_TEMPORARILY", "types": ["school", "point_of_interest", "establishment"], "icon": "https://maps.gstatic.com/mapfiles/place_api/icons/v1/png_71/school-71.png"}, {"rating": 4.5, "user_ratings_total": 10, "permanently_closed": true, "name": "Kidzee Nursery School (Play School in Ayanavaram/Pre School in Ayanavaram/Day Care in Ayanavaram)", "reference": "ChIJpbnWr51lUjoRH0dWLnKAuv4", "geometry": {"location": {"lat": 13.101284, "lng": 80.22919999999999}, "viewport": {"northeast": {"lat": 13.1025182302915, "lng": 80.2305330802915}, "southwest": {"lat": 13.0998202697085, "lng": 80.22783511970849}}}, "place_id": "ChIJpbnWr51lUjoRH0dWLnKAuv4", "plus_code": {"global_code": "7M52462H+GM", "compound_code": "462H+GM Chennai, Tamil Nadu, India"}, "vicinity": "near Post Office, No: 16/11, Officers Colony, Joint Office, Ayanavaram, near Post Office, Chennai", "scope": "GOOGLE", "business_status": "CLOSED_TEMPORARILY", "types": ["school", "point_of_interest", "establishment"], "icon": "https://maps.gstatic.com/mapfiles/place_api/icons/v1/png_71/school-71.png"}, {"permanently_closed": true, "name": "Css", "reference": "ChIJLU6XBLplUjoRuqdXDmBsKiA", "geometry": {"location": {"lat": 13.110024, "lng": 80.24387399999999}, "viewport": {"northeast": {"lat": 13.1113514802915, "lng": 80.2451971302915}, "southwest": {"lat": 13.1086535197085, "lng": 80.24249916970848}}}, "place_id": "ChIJLU6XBLplUjoRuqdXDmBsKiA", "plus_code": {"global_code": "7M52466V+2G", "compound_code": "466V+2G Chennai, Tamil Nadu, India"}, "vicinity": "Perambur, 67, Madhavaram High Road, Bunder Garden, Perambur, Chennai", "scope": "GOOGLE", "business_status": "CLOSED_TEMPORARILY", "types": ["school", "point_of_interest", "establishment"], "icon": "https://maps.gstatic.com/mapfiles/place_api/icons/v1/png_71/school-71.png"}, {"rating": 4.6, "user_ratings_total": 7, "name": "White Gold Montessori School", "reference": "ChIJkUQuML9lUjoR7cHW5cwqVdg", "geometry": {"location": {"lat": 13.106233, "lng": 80.24954799999999}, "viewport": {"northeast": {"lat": 13.1076341302915, "lng": 80.2509089302915}, "southwest": {"lat": 13.1049361697085, "lng": 80.2482109697085}}}, "place_id": "ChIJkUQuML9lUjoR7cHW5cwqVdg", "plus_code": {"global_code": "7M52464X+FR", "compound_code": "464X+FR Chennai, Tamil Nadu, India"}, "vicinity": "29, Perambur High Road, Adhisesha Nagar, Jamalia, Chennai", "photos": [{"photo_reference": "ATtYBwJG6En5OmIqUyuXpst5hIBCFjfoxPZxQWhd4-Hkauipqrm-OdBg6I1VHl0rxQNxSOVSMUAYC4qDf4f_CZpcQpq1EYkTLX3n-Nxx9W5NwMjVdB59ilerDwtSma5O-_GrFdi9oInx8pPdNDe9Wjt1ssv6cyyZ0gFCSpKRS3--dSft4CE6", "width": 1536, "html_attributions": ["<a href=\"https://maps.google.com/maps/contrib/118070305515646382567\">Kannan Esakki</a>"], "height": 2048}], "scope": "GOOGLE", "business_status": "OPERATIONAL", "types": ["school", "point_of_interest", "establishment"], "icon": "https://maps.gstatic.com/mapfiles/place_api/icons/v1/png_71/school-71.png"}, {"permanently_closed": true, "name": "Corporation Primary School", "reference": "ChIJlwYQd8FlUjoRtQdo-5PFNxE", "geometry": {"location": {"lat": 13.0993558, "lng": 80.2514278}, "viewport": {"northeast": {"lat": 13.1007057302915, "lng": 80.2527756302915}, "southwest": {"lat": 13.0980077697085, "lng": 80.25007766970849}}}, "place_id": "ChIJlwYQd8FlUjoRtQdo-5PFNxE", "plus_code": {"global_code": "7M5237X2+PH", "compound_code": "37X2+PH Chennai, Tamil Nadu, India"}, "vicinity": "56, Cooks Road, Otteri, Jamalia, Chennai", "scope": "GOOGLE", "business_status": "CLOSED_TEMPORARILY", "types": ["primary_school", "school", "point_of_interest", "establishment"], "icon": "https://maps.gstatic.com/mapfiles/place_api/icons/v1/png_71/school-71.png"}, {"permanently_closed": true, "name": "Corporation Primary School,", "reference": "ChIJZ_OhrLRlUjoRpI6wEaNO2Q8", "geometry": {"location": {"lat": 13.1087871, "lng": 80.2322216}, "viewport": {"northeast": {"lat": 13.1101471802915, "lng": 80.23356103029151}, "southwest": {"lat": 13.1074492197085, "lng": 80.23086306970849}}}, "place_id": "ChIJZ_OhrLRlUjoRpI6wEaNO2Q8", "plus_code": {"global_code": "7M52465J+GV", "compound_code": "465J+GV Chennai, Tamil Nadu, India"}, "vicinity": "1, Palavayal Road, Ayanavaram, Chennai", "scope": "GOOGLE", "business_status": "CLOSED_TEMPORARILY", "types": ["primary_school", "school", "point_of_interest", "establishment"], "icon": "https://maps.gstatic.com/mapfiles/place_api/icons/v1/png_71/school-71.png"}, {"permanently_closed": true, "name": "Galaxy Academy", "reference": "ChIJZxxacLFlUjoRU9DBPUPmmh0", "geometry": {"location": {"lat": 13.111709, "lng": 80.23853199999999}, "viewport": {"northeast": {"lat": 13.1130611302915, "lng": 80.2398831802915}, "southwest": {"lat": 13.1103631697085, "lng": 80.2371852197085}}}, "place_id": "ChIJZxxacLFlUjoRU9DBPUPmmh0", "plus_code": {"global_code": "7M52466Q+MC", "compound_code": "466Q+MC Chennai, Tamil Nadu, India"}, "vicinity": "No.45c, paper mills Road, Permabur, Chennai", "photos": [{"photo_reference": "ATtYBwJDZdUUwB90Wc-tzuknkogyjC4O6sxnOt0zgkWJeC53-m_cBbe_5hlN712-dc0JED1TqNRASfFrbEOYLgoPE7YuIuY18tTfkOSUTQQSdkj-eErs4YvqyPd6xo_SLIH5ouKlFFR8dgwp-pvT9AOVlU9DdfT5Q4k8iJCbKqA8L1xl_O60", "width": 720, "html_attributions": ["<a href=\"https://maps.google.com/maps/contrib/115484110412806792645\">Galaxy Academy</a>"], "height": 540}], "scope": "GOOGLE", "business_status": "CLOSED_TEMPORARILY", "types": ["school", "point_of_interest", "establishment"], "icon": "https://maps.gstatic.com/mapfiles/place_api/icons/v1/png_71/school-71.png"}, {"rating": 5, "user_ratings_total": 3, "name": "BRIGHT FUTURE EDUCATIONAL SOLUTIONS", "reference": "ChIJfe69e598UjoRntRmR224WXY", "geometry": {"location": {"lat": 13.111431, "lng": 80.236648}, "viewport": {"northeast": {"lat": 13.1127914802915, "lng": 80.2379656302915}, "southwest": {"lat": 13.1100935197085, "lng": 80.23526766970849}}}, "opening_hours": {"open_now": false}, "place_id": "ChIJfe69e598UjoRntRmR224WXY", "plus_code": {"global_code": "7M52466P+HM", "compound_code": "466P+HM Chennai, Tamil Nadu, India"}, "vicinity": "87, Market Street, Venus, Perambur, Chennai", "photos": [{"photo_reference": "ATtYBwJgfm0U8K6QuLaFNJne7Bq8VmaYnb9U1cBnJGUvuPbeu-BO5kyl0pqhhyV94pva3gYeMHdZRFor3GMzZT_8QyS5YXNYGwYXDaya_6BLtKHywbRpER7-pFmt9eD0Q084hetLB4xTK6rjHwE2AoJQNozcoqNqftNwEML8-lU3FtSSF5V_", "width": 800, "html_attributions": ["<a href=\"https://maps.google.com/maps/contrib/117211795442412914725\">BRIGHT FUTURE EDUCATIONAL SOLUTIONS</a>"], "height": 524}], "scope": "GOOGLE", "business_status": "OPERATIONAL", "types": ["university", "school", "point_of_interest", "establishment"], "icon": "https://maps.gstatic.com/mapfiles/place_api/icons/v1/png_71/school-71.png"}, {"rating": 5, "user_ratings_total": 2, "permanently_closed": true, "name": "Vivekananda Industrial Training School", "reference": "ChIJmYfwGMNlUjoR8NSaUuf0I9Y", "geometry": {"location": {"lat": 13.094359, "lng": 80.25115699999999}, "viewport": {"northeast": {"lat": 13.0958113302915, "lng": 80.2525041302915}, "southwest": {"lat": 13.0931133697085, "lng": 80.24980616970849}}}, "place_id": "ChIJmYfwGMNlUjoR8NSaUuf0I9Y", "plus_code": {"global_code": "7M5237V2+PF", "compound_code": "37V2+PF Chennai, Tamil Nadu, India"}, "vicinity": "No.102/3,Bricklin Road,, Purasawalkam,, Chennai", "photos": [{"photo_reference": "ATtYBwJyzTu4qYRDj-NmR-Zp386H5UCKxOwHI2lViJczwhe6hd_eO4TFVI74NhyTl2vbJj1VcKSHavuCFPL26mazviDTsorjeD7_iW58g5A5TnFeItUXR_r8K6v1_I17E2N27D_pwJNpFyktqq-Upqw8rLOii7ksnJK9XtiPkR0kiyB4X8mF", "width": 400, "html_attributions": ["<a href=\"https://maps.google.com/maps/contrib/113656731943290046934\">syed masthan</a>"], "height": 299}], "scope": "GOOGLE", "business_status": "CLOSED_TEMPORARILY", "types": ["school", "point_of_interest", "establishment"], "icon": "https://maps.gstatic.com/mapfiles/place_api/icons/v1/png_71/school-71.png"}, {"permanently_closed": true, "name": "Europa Kids", "reference": "ChIJlUrrWTJkUjoRJa5OcInkd1Y", "geometry": {"location": {"lat": 13.0940127, "lng": 80.2290649}, "viewport": {"northeast": {"lat": 13.0951134302915, "lng": 80.23036998029151}, "southwest": {"lat": 13.0924154697085, "lng": 80.2276720197085}}}, "place_id": "ChIJlUrrWTJkUjoRJa5OcInkd1Y", "plus_code": {"global_code": "7M5236VH+JJ", "compound_code": "36VH+JJ Chennai, Tamil Nadu, India"}, "vicinity": "Palayam Pillai Nagar, Palaiyam Nagar, Ayanavaram, Chennai", "scope": "GOOGLE", "business_status": "CLOSED_TEMPORARILY", "types": ["school", "point_of_interest", "establishment"], "icon": "https://maps.gstatic.com/mapfiles/place_api/icons/v1/png_71/school-71.png"}, {"rating": 3.8, "user_ratings_total": 144, "name": "Kaligi Ranganathan Montford CBSE School", "reference": "ChIJxVAQM7plUjoR3zvT90AgL1I", "geometry": {"location": {"lat": 13.1105067, "lng": 80.24675549999999}, "viewport": {"northeast": {"lat": 13.1119290802915, "lng": 80.24811103029151}, "southwest": {"lat": 13.1092311197085, "lng": 80.24541306970849}}}, "opening_hours": {"open_now": false}, "place_id": "ChIJxVAQM7plUjoR3zvT90AgL1I", "plus_code": {"global_code": "7M52466W+6P", "compound_code": "466W+6P Chennai, Tamil Nadu, India"}, "vicinity": "8/44, Ananda Velu Street, Perambur, Chennai", "photos": [{"photo_reference": "ATtYBwJCSk0cW0mcMLMrKDBHfbfq_J95P_nBvVPbpSlXwRgnUShPenpnX3NTiSNygAWFRU0IRnPvbciISYjumaADRGWtQ1SUx727-T6mQXyjbr1JpLsPdajNRDwbqyq9qs5bgA37vz_ALqF3YUIGlvRt7kYF-1NOQh3RnMnTPJmVzPAbNnv6", "width": 4640, "html_attributions": ["<a href=\"https://maps.google.com/maps/contrib/104687952329499928055\">Sandeep kumar</a>"], "height": 3480}], "scope": "GOOGLE", "business_status": "OPERATIONAL", "types": ["secondary_school", "school", "point_of_interest", "establishment"], "icon": "https://maps.gstatic.com/mapfiles/place_api/icons/v1/png_71/school-71.png"}]}