{"status": "OK", "html_attributions": [], "results": [{"permanently_closed": true, "name": "Chennai Primary School, Sathiyavani Muthu nagar", "reference": "ChIJzZdJ8ZFpUjoRMtEqrDWNukU", "geometry": {"location": {"lat": 13.0784828, "lng": 80.2796889}, "viewport": {"northeast": {"lat": 13.0798147802915, "lng": 80.2810375802915}, "southwest": {"lat": 13.0771168197085, "lng": 80.27833961970849}}}, "place_id": "ChIJzZdJ8ZFpUjoRMtEqrDWNukU", "plus_code": {"global_code": "7M5237HH+9V", "compound_code": "37HH+9V Chennai, Tamil Nadu, India"}, "vicinity": "function(){return _.O(this,11, Indira Gandhi Nagar, Park Town, Chennai", "scope": "GOOGLE", "business_status": "CLOSED_TEMPORARILY", "types": ["school", "point_of_interest", "establishment"], "icon": "https://maps.gstatic.com/mapfiles/place_api/icons/v1/png_71/school-71.png"}, {"permanently_closed": true, "name": "Priya Pranav", "reference": "ChIJKT_BD45pUjoRX_uFt0ja4eI", "geometry": {"location": {"lat": 13.078813, "lng": 80.2783844}, "viewport": {"northeast": {"lat": 13.0801963302915, "lng": 80.2797333302915}, "southwest": {"lat": 13.0774983697085, "lng": 80.27703536970849}}}, "place_id": "ChIJKT_BD45pUjoRX_uFt0ja4eI", "plus_code": {"global_code": "7M5237HH+G9", "compound_code": "37HH+G9 Chennai, Tamil Nadu, India"}, "vicinity": "Unnamed Road, Gandhi Nagar, Park Town, Chennai", "scope": "GOOGLE", "business_status": "CLOSED_TEMPORARILY", "types": ["school", "point_of_interest", "establishment"], "icon": "https://maps.gstatic.com/mapfiles/place_api/icons/v1/png_71/school-71.png"}, {"permanently_closed": true, "name": "Mgr Univercity Bus Stop", "reference": "ChIJCUKBXjhpUjoRRkghh9BSD7s", "geometry": {"location": {"lat": 13.0791341, "lng": 80.27813239999999}, "viewport": {"northeast": {"lat": 13.0804715302915, "lng": 80.2794820302915}, "southwest": {"lat": 13.0777735697085, "lng": 80.2767840697085}}}, "place_id": "ChIJCUKBXjhpUjoRRkghh9BSD7s", "plus_code": {"global_code": "7M5237HH+M7", "compound_code": "37HH+M7 Chennai, Tamil Nadu, India"}, "vicinity": "Gandhi Nagar, Park Town, Chennai", "scope": "GOOGLE", "business_status": "CLOSED_TEMPORARILY", "types": ["school", "point_of_interest", "establishment"], "icon": "https://maps.gstatic.com/mapfiles/place_api/icons/v1/png_71/school-71.png"}, {"rating": 5, "user_ratings_total": 1, "name": "School Of Nursing", "reference": "ChIJCQsjMqtoUjoRiQXiHIvXZ2M", "geometry": {"location": {"lat": 13.0825746, "lng": 80.28058899999999}, "viewport": {"northeast": {"lat": 13.0838020802915, "lng": 80.2819493302915}, "southwest": {"lat": 13.0811041197085, "lng": 80.27925136970849}}}, "place_id": "ChIJCQsjMqtoUjoRiQXiHIvXZ2M", "plus_code": {"global_code": "7M5237MJ+26", "compound_code": "37MJ+26 Chennai, Tamil Nadu, India"}, "vicinity": "General Hospital Road, Park Town, Chennai", "photos": [{"photo_reference": "ATtYBwIabiJH1sAJi0pZDB43nQWZxHe702xVm0QMuBiAA9oMDjmlQAVR54I54aVRhEJPN4l330TKWv-4MZi4MuMKE4zDFfPH99cT4G_z_c0Wcs8sGhqshn3NVgQsuvvCfM5I_wsHEO2VTBKBLltfiowimN17YpIG-Qf_nllVR-lUVwOYsA1f", "width": 5344, "html_attributions": ["<a href=\"https://maps.google.com/maps/contrib/113398050138219174395\">SK</a>"], "height": 3006}], "scope": "GOOGLE", "business_status": "OPERATIONAL", "types": ["school", "point_of_interest", "establishment"], "icon": "https://maps.gstatic.com/mapfiles/place_api/icons/v1/png_71/school-71.png"}, {"permanently_closed": true, "name": "CPS SAIVA MUTHIAH SCHOOL", "reference": "ChIJNQgVPapoUjoR9P29-Ib3sd4", "geometry": {"location": {"lat": 13.0775443, "lng": 80.27822379999999}, "viewport": {"northeast": {"lat": 13.0787293302915, "lng": 80.2796723802915}, "southwest": {"lat": 13.0760313697085, "lng": 80.2769744197085}}}, "place_id": "ChIJNQgVPapoUjoR9P29-Ib3sd4", "plus_code": {"global_code": "7M5237HH+27", "compound_code": "37HH+27 Chennai, Tamil Nadu, India"}, "vicinity": "NEAR ISLAND GROUND, 9, Pallavan Salai, Sathya Vani Muthu Nagar, Chennai", "scope": "GOOGLE", "business_status": "CLOSED_TEMPORARILY", "types": ["school", "point_of_interest", "establishment"], "icon": "https://maps.gstatic.com/mapfiles/place_api/icons/v1/png_71/school-71.png"}, {"rating": 4.4, "user_ratings_total": 148, "name": "Kendriya Vidyalaya Island Grounds", "reference": "ChIJu49OdKpoUjoROeT3aZE8hQs", "geometry": {"location": {"lat": 13.077524, "lng": 80.2782047}, "viewport": {"northeast": {"lat": 13.0787127802915, "lng": 80.2796517802915}, "southwest": {"lat": 13.0760148197085, "lng": 80.27695381970848}}}, "place_id": "ChIJu49OdKpoUjoROeT3aZE8hQs", "plus_code": {"global_code": "7M5237HH+27", "compound_code": "37HH+27 Chennai, Tamil Nadu, India"}, "vicinity": "Pallavan Salai, Chennai", "photos": [{"photo_reference": "ATtYBwIi0mzgD8k36lYuC-TMk928weCtAT0krxV8A7wxhCRzt4BAUh0B50fSTci4uWdNmf6d-QqNXJb8UUToYzEMChmvJxUIyKKYF43249aystBfjEZAMFNYltUcYW0q24sU3VFGeyJjciaHfjsYB48ylDgZy_xhdbbqkpwx3iYSI9qARCS8", "width": 4000, "html_attributions": ["<a href=\"https://maps.google.com/maps/contrib/103435280654547253380\">VISHA PRODUCTION</a>"], "height": 2000}], "scope": "GOOGLE", "business_status": "OPERATIONAL", "types": ["school", "point_of_interest", "establishment"], "icon": "https://maps.gstatic.com/mapfiles/place_api/icons/v1/png_71/school-71.png"}, {"rating": 1, "user_ratings_total": 1, "permanently_closed": true, "name": "VIDHYABYAS ACADEMY", "reference": "ChIJifc9uKxoUjoR__RoBevErbM", "geometry": {"location": {"lat": 13.08186, "lng": 80.28361199999999}, "viewport": {"northeast": {"lat": 13.0832644802915, "lng": 80.2849815302915}, "southwest": {"lat": 13.0805665197085, "lng": 80.28228356970848}}}, "place_id": "ChIJifc9uKxoUjoR__RoBevErbM", "plus_code": {"global_code": "7M5237JM+PC", "compound_code": "37JM+PC Chennai, Tamil Nadu, India"}, "vicinity": "Shubham Rd, No 10, Uma Maheswari Nagar, 6th cross, Kolathur, Fort St George", "scope": "GOOGLE", "business_status": "CLOSED_TEMPORARILY", "types": ["school", "health", "point_of_interest", "establishment"], "icon": "https://maps.gstatic.com/mapfiles/place_api/icons/v1/png_71/school-71.png"}, {"permanently_closed": true, "name": "Ranni Hospital", "reference": "ChIJq9PCyo5vUjoR2KqqVCtxaiU", "geometry": {"location": {"lat": 13.082561, "lng": 80.2769069}, "viewport": {"northeast": {"lat": 13.0837398302915, "lng": 80.27828148029151}, "southwest": {"lat": 13.0810418697085, "lng": 80.27558351970849}}}, "place_id": "ChIJq9PCyo5vUjoR2KqqVCtxaiU", "plus_code": {"global_code": "7M5237MG+2Q", "compound_code": "37MG+2Q Chennai, Tamil Nadu, India"}, "vicinity": "Southern Railway headquarters, NGO Annexe, George Town, Chennai", "scope": "GOOGLE", "business_status": "CLOSED_TEMPORARILY", "types": ["school", "point_of_interest", "establishment"], "icon": "https://maps.gstatic.com/mapfiles/place_api/icons/v1/png_71/school-71.png"}, {"permanently_closed": true, "name": "KV school entrance", "reference": "ChIJG31WqfpnUjoRNUJLCpO14Mg", "geometry": {"location": {"lat": 13.0774874, "lng": 80.2763724}, "viewport": {"northeast": {"lat": 13.0788062802915, "lng": 80.27772123029152}, "southwest": {"lat": 13.0761083197085, "lng": 80.2750232697085}}}, "place_id": "ChIJG31WqfpnUjoRNUJLCpO14Mg", "plus_code": {"global_code": "7M5237GG+XG", "compound_code": "37GG+XG Chennai, Tamil Nadu, India"}, "vicinity": "Unnamed Road, Park Town, Chennai", "scope": "GOOGLE", "business_status": "CLOSED_TEMPORARILY", "types": ["school", "point_of_interest", "establishment"], "icon": "https://maps.gstatic.com/mapfiles/place_api/icons/v1/png_71/school-71.png"}, {"permanently_closed": true, "name": "Beta Public School", "reference": "ChIJu-9aT1NvUjoRjQOHdAFRJYE", "geometry": {"location": {"lat": 13.0832999, "lng": 80.2833}, "viewport": {"northeast": {"lat": 13.0846918302915, "lng": 80.2845759302915}, "southwest": {"lat": 13.0819938697085, "lng": 80.28187796970849}}}, "place_id": "ChIJu-9aT1NvUjoRjQOHdAFRJYE", "plus_code": {"global_code": "7M5237MM+88", "compound_code": "37MM+88 Chennai, Tamil Nadu, India"}, "vicinity": "1 Beta Paradise Road, Cizhakandikuppam Village, Siruvakkam Post Kanchipuram Dist, Tamilnadu, Kanchipuram", "scope": "GOOGLE", "business_status": "CLOSED_TEMPORARILY", "types": ["school", "point_of_interest", "establishment"], "icon": "https://maps.gstatic.com/mapfiles/place_api/icons/v1/png_71/school-71.png"}, {"rating": 2.3, "user_ratings_total": 3, "permanently_closed": true, "name": "Shri B.S.Mootha Girls' Senior Seconda", "reference": "ChIJue9aT1NvUjoR18JUSaulrfk", "geometry": {"location": {"lat": 13.0833, "lng": 80.2833}, "viewport": {"northeast": {"lat": 13.0846918802915, "lng": 80.28457598029149}, "southwest": {"lat": 13.0819939197085, "lng": 80.28187801970849}}}, "place_id": "ChIJue9aT1NvUjoR18JUSaulrfk", "plus_code": {"global_code": "7M5237MM+88", "compound_code": "37MM+88 Chennai, Tamil Nadu, India"}, "vicinity": "School, 80, Brindavan Street, West Mambalam, Chennai Tamil Nadu, Chennai", "scope": "GOOGLE", "business_status": "CLOSED_TEMPORARILY", "types": ["school", "point_of_interest", "establishment"], "icon": "https://maps.gstatic.com/mapfiles/place_api/icons/v1/png_71/school-71.png"}, {"rating": 3.1, "user_ratings_total": 7, "permanently_closed": true, "name": "Bhargava Public School", "reference": "ChIJue9aT1NvUjoRQJDf95Fz9BI", "geometry": {"location": {"lat": 13.0833, "lng": 80.2833}, "viewport": {"northeast": {"lat": 13.0846918802915, "lng": 80.28457598029149}, "southwest": {"lat": 13.0819939197085, "lng": 80.28187801970849}}}, "place_id": "ChIJue9aT1NvUjoRQJDf95Fz9BI", "plus_code": {"global_code": "7M5237MM+88", "compound_code": "37MM+88 Chennai, Tamil Nadu, India"}, "vicinity": "Badheri, Supwal, Jammu, Jammu", "scope": "GOOGLE", "business_status": "CLOSED_TEMPORARILY", "types": ["school", "point_of_interest", "establishment"], "icon": "https://maps.gstatic.com/mapfiles/place_api/icons/v1/png_71/school-71.png"}, {"rating": 5, "user_ratings_total": 2, "permanently_closed": true, "name": "PSN Nursery and Primary School", "reference": "ChIJu4iZcgBmUjoRvyQLcu3LFrA", "geometry": {"location": {"lat": 13.0816438, "lng": 80.2752316}, "viewport": {"northeast": {"lat": 13.0829845302915, "lng": 80.2765816302915}, "southwest": {"lat": 13.0802865697085, "lng": 80.27388366970848}}}, "place_id": "ChIJu4iZcgBmUjoRvyQLcu3LFrA", "vicinity": "9, Erusappan maistry, 1st Street, New Washerman Pet, Chennai", "scope": "GOOGLE", "business_status": "CLOSED_TEMPORARILY", "types": ["primary_school", "school", "point_of_interest", "establishment"], "icon": "https://maps.gstatic.com/mapfiles/place_api/icons/v1/png_71/school-71.png"}, {"rating": 3, "user_ratings_total": 2, "permanently_closed": true, "name": "Golden Palm Army Pre Primary School", "reference": "ChIJjShsk5pvUjoRy7u7kX-vFhg", "geometry": {"location": {"lat": 13.0850591, "lng": 80.28019859999999}, "viewport": {"northeast": {"lat": 13.0864100302915, "lng": 80.2815121802915}, "southwest": {"lat": 13.0837120697085, "lng": 80.2788142197085}}}, "place_id": "ChIJjShsk5pvUjoRy7u7kX-vFhg", "plus_code": {"global_code": "7M5237PJ+23", "compound_code": "37PJ+23 Chennai, Tamil Nadu, India"}, "vicinity": "SOL, Esplanade, George Town, Chennai", "scope": "GOOGLE", "business_status": "CLOSED_TEMPORARILY", "types": ["school", "point_of_interest", "establishment"], "icon": "https://maps.gstatic.com/mapfiles/place_api/icons/v1/png_71/school-71.png"}, {"permanently_closed": true, "name": "E N V Sangam Primary School", "reference": "ChIJD4OZBlVvUjoR1NKZvMvxeu4", "geometry": {"location": {"lat": 13.0849913, "lng": 80.27906449999999}, "viewport": {"northeast": {"lat": 13.0863437302915, "lng": 80.2803834802915}, "southwest": {"lat": 13.08364576970849, "lng": 80.27768551970848}}}, "place_id": "ChIJD4OZBlVvUjoR1NKZvMvxeu4", "vicinity": "76, Myniappa Naicken Street, Park Town, Chennai", "scope": "GOOGLE", "business_status": "CLOSED_TEMPORARILY", "types": ["primary_school", "school", "point_of_interest", "establishment"], "icon": "https://maps.gstatic.com/mapfiles/place_api/icons/v1/png_71/school-71.png"}, {"permanently_closed": true, "name": "Karthi", "reference": "ChIJmWL3snVvUjoRvA_pvHfKck0", "geometry": {"location": {"lat": 13.0847809, "lng": 80.278025}, "viewport": {"northeast": {"lat": 13.0861180802915, "lng": 80.27947048029151}, "southwest": {"lat": 13.0834201197085, "lng": 80.27677251970849}}}, "place_id": "ChIJmWL3snVvUjoRvA_pvHfKck0", "plus_code": {"global_code": "7M5237MH+W6", "compound_code": "37MH+W6 Chennai, Tamil Nadu, India"}, "vicinity": "416, Edapalaiyam, George Town, Chennai", "scope": "GOOGLE", "business_status": "CLOSED_TEMPORARILY", "types": ["school", "point_of_interest", "establishment"], "icon": "https://maps.gstatic.com/mapfiles/place_api/icons/v1/png_71/school-71.png"}, {"permanently_closed": true, "name": "DVD Nursery & Primary School", "reference": "ChIJ61OKAFVvUjoRc5Z0DdiqGGY", "geometry": {"location": {"lat": 13.0852625, "lng": 80.2792393}, "viewport": {"northeast": {"lat": 13.0865988802915, "lng": 80.2806498302915}, "southwest": {"lat": 13.0839009197085, "lng": 80.27795186970849}}}, "place_id": "ChIJ61OKAFVvUjoRc5Z0DdiqGGY", "plus_code": {"global_code": "7M5237PH+4M", "compound_code": "37PH+4M Chennai, Tamil Nadu, India"}, "vicinity": "11-a, Vaigundapuram Street, Ennaikaran, Kanchipuram, Tamil Nadu, Ennaikaran, Kanchipuram", "scope": "GOOGLE", "business_status": "CLOSED_TEMPORARILY", "types": ["school", "point_of_interest", "establishment"], "icon": "https://maps.gstatic.com/mapfiles/place_api/icons/v1/png_71/school-71.png"}, {"name": "Marketing", "reference": "ChIJ1cVuKn9vUjoR7OQm5lqi3mc", "geometry": {"location": {"lat": 13.0852417, "lng": 80.28218799999999}, "viewport": {"northeast": {"lat": 13.0865906802915, "lng": 80.2835369802915}, "southwest": {"lat": 13.0838927197085, "lng": 80.2808390197085}}}, "place_id": "ChIJ1cVuKn9vUjoR7OQm5lqi3mc", "plus_code": {"global_code": "7M5237PJ+3V", "compound_code": "37PJ+3V Chennai, Tamil Nadu, India"}, "vicinity": "Ramauirr Uttku hi I'm", "scope": "GOOGLE", "business_status": "OPERATIONAL", "types": ["school", "point_of_interest", "establishment"], "icon": "https://maps.gstatic.com/mapfiles/place_api/icons/v1/png_71/school-71.png"}, {"permanently_closed": true, "name": "Sanghvi Subhadraben Chunnilal Ram Dev Matriculation School", "reference": "ChIJpbl5-a1oUjoRd2Qmcmu_PHc", "geometry": {"location": {"lat": 13.0859262, "lng": 80.2772713}, "viewport": {"northeast": {"lat": 13.0872799302915, "lng": 80.27855823029151}, "southwest": {"lat": 13.0845819697085, "lng": 80.2758602697085}}}, "place_id": "ChIJpbl5-a1oUjoRd2Qmcmu_PHc", "plus_code": {"global_code": "7M5237PG+9W", "compound_code": "37PG+9W Chennai, Tamil Nadu, India"}, "vicinity": "1-B Edrapalayam St ParkTown, Chennai", "scope": "GOOGLE", "business_status": "CLOSED_TEMPORARILY", "types": ["school", "point_of_interest", "establishment"], "icon": "https://maps.gstatic.com/mapfiles/place_api/icons/v1/png_71/school-71.png"}, {"rating": 5, "user_ratings_total": 2, "permanently_closed": true, "name": "ENGLISH & CAREER", "reference": "ChIJuX4NhEpnUjoREeowcVzXjWs", "geometry": {"location": {"lat": 13.0850508, "lng": 80.2756428}, "viewport": {"northeast": {"lat": 13.0864125802915, "lng": 80.27708918029151}, "southwest": {"lat": 13.0837146197085, "lng": 80.27439121970849}}}, "place_id": "ChIJuX4NhEpnUjoREeowcVzXjWs", "plus_code": {"global_code": "7M5237PG+27", "compound_code": "37PG+27 Chennai, Tamil Nadu, India"}, "vicinity": "Venus Complex, 640, Poonamallee High Road, Aminjikarai, Chennai", "photos": [{"photo_reference": "ATtYBwKMws6CN9pcHimJldGi0TuraWi0IG1vCXlJFJO9WTuDPhuXSTwhSnUBOlPKXTDCtim7EDj31L1rrkxLNMPhI_y8oQMvggcuYc12wAtbhgKk8LeuWDZG5BmK1mxV4x7-yfOVDp11bb928GBm7Frk4GpOXGGZntYygnBAh9jGI3v1AV7T", "width": 960, "html_attributions": ["<a href=\"https://maps.google.com/maps/contrib/117927813484256541182\">ENGLISH &amp; CAREER</a>"], "height": 538}], "scope": "GOOGLE", "business_status": "CLOSED_TEMPORARILY", "types": ["school", "point_of_interest", "establishment"], "icon": "https://maps.gstatic.com/mapfiles/place_api/icons/v1/png_71/school-71.png"}]}