{"status": "OK", "next_page_token": "ATtYBwLduntCDVASZ4DOAt5IEw80-kW3dle1WX4AuDcf2FZbeyx-XK7nnEWSC0jAjZNQJp2nJcXeuejI-VB-47H0JINtVdyPLlTzV_fKN22zV4bR3kPsOeABiG6ixzf2Y-Uuh1TUFozApS0YSmO2fel3NDiSXCAMV9iCuQtfOgOLaYwaMNfudId54smB9N3oMk6FVuiSe74O1cUtYcrOMNZo4ljFQnx2q9xREtYP02g6XPC_paqvpWy3223wCuqyxzJki7aFBs5sTF-j4VD7-83WHSgQAbCEuI2Bix_QJQ2YVKKdsz_O1mrrTamiXDWJb6OCjd93fBMTrIFujLHKcKApmWb4NWH7hhhUDKsz0ZT5_9drL2o2p_2M46mV9IF297xJbK39IVPvXTFXHaqsKNGm2_0X82t9xh00ODtyRb_oQeqEMJCKlCw", "html_attributions": [], "results": [{"rating": 3.9, "user_ratings_total": 50, "name": "Measi Matriculation Higher Secondary School", "reference": "ChIJoewdsk9vUjoRUwTKWGvtjoU", "geometry": {"location": {"lat": 13.0974649, "lng": 80.2913295}, "viewport": {"northeast": {"lat": 13.0988617802915, "lng": 80.29246623029151}, "southwest": {"lat": 13.0961638197085, "lng": 80.2897682697085}}}, "place_id": "ChIJoewdsk9vUjoRUwTKWGvtjoU", "plus_code": {"global_code": "7M5237WR+XG", "compound_code": "37WR+XG Chennai, Tamil Nadu, India"}, "vicinity": "53, Angappa Naicken Street, George Town, Chennai", "photos": [{"photo_reference": "ATtYBwI20xgO6UPjdXqoKUe2cu5HJPzQsUOgKULWw-pvYDfvtQryijgr8TtMExUNAabUrJCDZMmwSG1gV6Nb4xgqoNrFRMEQa4vRra769CI79k9mJZiifnijC4muuVNOvNx8Jk8t2bHPJJU1vgYFF1_gS1_xGV4oTbBVX_6a7XEc1W9vQyJB", "width": 720, "html_attributions": ["<a href=\"https://maps.google.com/maps/contrib/106251996236938103057\">Mohamed Baasil</a>"], "height": 540}], "scope": "GOOGLE", "business_status": "OPERATIONAL", "types": ["school", "point_of_interest", "establishment"], "icon": "https://maps.gstatic.com/mapfiles/place_api/icons/v1/png_71/school-71.png"}, {"rating": 4.6, "user_ratings_total": 27, "name": "Madrasa E Niswan", "reference": "ChIJOXQAYQVmUjoRNBQZkFaVjgs", "geometry": {"location": {"lat": 13.1004829, "lng": 80.29212000000001}, "viewport": {"northeast": {"lat": 13.1018665802915, "lng": 80.2934766802915}, "southwest": {"lat": 13.0991686197085, "lng": 80.2907787197085}}}, "place_id": "ChIJOXQAYQVmUjoRNBQZkFaVjgs", "plus_code": {"global_code": "7M52472R+5R", "compound_code": "472R+5R Chennai, Tamil Nadu, India"}, "vicinity": "No 1, Maraikayer Street, Near, Mannady, Chennai", "scope": "GOOGLE", "business_status": "OPERATIONAL", "types": ["school", "point_of_interest", "establishment"], "icon": "https://maps.gstatic.com/mapfiles/place_api/icons/v1/png_71/school-71.png"}, {"rating": 3.1, "user_ratings_total": 7, "name": "Aleef Nursery and Primary School", "reference": "ChIJWfWJc0RvUjoRTeMDhda8xiA", "geometry": {"location": {"lat": 13.0994647, "lng": 80.29176869999999}, "viewport": {"northeast": {"lat": 13.1008184802915, "lng": 80.2930964802915}, "southwest": {"lat": 13.0981205197085, "lng": 80.29039851970849}}}, "opening_hours": {"open_now": true}, "place_id": "ChIJWfWJc0RvUjoRTeMDhda8xiA", "plus_code": {"global_code": "7M5237XR+QP", "compound_code": "37XR+QP Chennai, Tamil Nadu, India"}, "vicinity": "4, behind Eidga Mosque, 51, Marakayar Street, Mannady, George Town, Chennai", "photos": [{"photo_reference": "ATtYBwLjf37rl58mJQ4_Y_DSq0HK5JTgVCY0zJWKHD6j6c6-as7i--Pa_kcN39GBTaM2w3EVJ3u-l6UwZFe7pvTpWFgEuXm5V02fwr5TnNXRD7lVJhTJ0nR7HcvXfKmYYU5ZOtoKnwFUkkJrEVL35thpSqYJg7eEpD08CdhjFyqrOoLqVgC-", "width": 4032, "html_attributions": ["<a href=\"https://maps.google.com/maps/contrib/109807416333959497334\">Samsul Nihara</a>"], "height": 1960}], "scope": "GOOGLE", "business_status": "OPERATIONAL", "types": ["primary_school", "school", "point_of_interest", "establishment"], "icon": "https://maps.gstatic.com/mapfiles/place_api/icons/v1/png_71/school-71.png"}, {"permanently_closed": true, "name": "Corporation Boys High School", "reference": "ChIJpbDeCGpvUjoRMXYYn-HgksQ", "geometry": {"location": {"lat": 13.1061023, "lng": 80.2943506}, "viewport": {"northeast": {"lat": 13.1074627302915, "lng": 80.29566733029151}, "southwest": {"lat": 13.1047647697085, "lng": 80.29296936970849}}}, "place_id": "ChIJpbDeCGpvUjoRMXYYn-HgksQ", "plus_code": {"global_code": "7M52474V+CP", "compound_code": "474V+CP Chennai, Tamil Nadu, India"}, "vicinity": "88, S. N. Street, Royapuram, Chennai", "scope": "GOOGLE", "business_status": "CLOSED_TEMPORARILY", "types": ["secondary_school", "school", "point_of_interest", "establishment"], "icon": "https://maps.gstatic.com/mapfiles/place_api/icons/v1/png_71/school-71.png"}, {"rating": 4, "user_ratings_total": 8, "permanently_closed": true, "name": "PMA Chennai", "reference": "ChIJh3RZp0VvUjoRwVMiYqLyXLM", "geometry": {"location": {"lat": 13.0965407, "lng": 80.2907297}, "viewport": {"northeast": {"lat": 13.0978881802915, "lng": 80.2920910802915}, "southwest": {"lat": 13.0951902197085, "lng": 80.28939311970849}}}, "place_id": "ChIJh3RZp0VvUjoRwVMiYqLyXLM", "plus_code": {"global_code": "7M5237WR+J7", "compound_code": "37WR+J7 Chennai, Tamil Nadu, India"}, "vicinity": "No. 130, Angappa Naicken Street, Parry's Corner, George Town, Chennai", "photos": [{"photo_reference": "ATtYBwIXFPmpF525S4oi69tNtG7qOeI3ZjFgwiA2Re1owHI6lIQ2bX_mwKjipA3M1hWQMl-quI6HRSfaq5ULRsP1Ezfz5iv-5Ed7m5CcveLVyBv5ySjBPHLdiEqySOyUWIHs2WPTrrhVQ3t9Tmu2k6B4qEX6-DgoBBi6vepHSLeaSKbSKDAm", "width": 4096, "html_attributions": ["<a href=\"https://maps.google.com/maps/contrib/105252542298574900692\">seafarerhelpdesk mumbai</a>"], "height": 2304}], "scope": "GOOGLE", "business_status": "CLOSED_TEMPORARILY", "types": ["school", "point_of_interest", "establishment"], "icon": "https://maps.gstatic.com/mapfiles/place_api/icons/v1/png_71/school-71.png"}, {"rating": 4, "user_ratings_total": 1, "permanently_closed": true, "name": "Manavar Mandram", "reference": "ChIJXxW1P0NvUjoRJZXhzaDYeIY", "geometry": {"location": {"lat": 13.1023167, "lng": 80.2894045}, "viewport": {"northeast": {"lat": 13.1032758302915, "lng": 80.2906093802915}, "southwest": {"lat": 13.1005778697085, "lng": 80.2879114197085}}}, "place_id": "ChIJXxW1P0NvUjoRJZXhzaDYeIY", "plus_code": {"global_code": "7M52472Q+WQ", "compound_code": "472Q+WQ Chennai, Tamil Nadu, India"}, "vicinity": "1, Venkata Street, Thiruvalluvar Nagar, George Town, Chennai", "scope": "GOOGLE", "business_status": "CLOSED_TEMPORARILY", "types": ["school", "point_of_interest", "establishment"], "icon": "https://maps.gstatic.com/mapfiles/place_api/icons/v1/png_71/school-71.png"}, {"permanently_closed": true, "name": "Corporation Primary School", "reference": "ChIJhWw16kJvUjoRPgJUZgW8rOw", "geometry": {"location": {"lat": 13.1039729, "lng": 80.2894488}, "viewport": {"northeast": {"lat": 13.1053544302915, "lng": 80.2908103302915}, "southwest": {"lat": 13.1026564697085, "lng": 80.2881123697085}}}, "place_id": "ChIJhWw16kJvUjoRPgJUZgW8rOw", "plus_code": {"global_code": "7M52473Q+HQ", "compound_code": "473Q+HQ Chennai, Tamil Nadu, India"}, "vicinity": "4, OSH Road, Anjaneya Nagar, Royapuram, Chennai", "scope": "GOOGLE", "business_status": "CLOSED_TEMPORARILY", "types": ["primary_school", "school", "point_of_interest", "establishment"], "icon": "https://maps.gstatic.com/mapfiles/place_api/icons/v1/png_71/school-71.png"}, {"rating": 2.3, "user_ratings_total": 6, "permanently_closed": true, "name": "kidscare Ab intl", "reference": "ChIJ4w1bxkRvUjoR_TKla77G3oc", "geometry": {"location": {"lat": 13.09826, "lng": 80.288715}, "viewport": {"northeast": {"lat": 13.0996074302915, "lng": 80.2900746802915}, "southwest": {"lat": 13.0969094697085, "lng": 80.28737671970848}}}, "place_id": "ChIJ4w1bxkRvUjoR_TKla77G3oc", "vicinity": "25/12,Ramasamy st ,(george town)mannady, Chennai", "scope": "GOOGLE", "business_status": "CLOSED_TEMPORARILY", "types": ["school", "point_of_interest", "establishment"], "icon": "https://maps.gstatic.com/mapfiles/place_api/icons/v1/png_71/school-71.png"}, {"rating": 3, "user_ratings_total": 2, "permanently_closed": true, "name": "Kutty", "reference": "ChIJA86Whk9vUjoRO3EFe00G1uY", "geometry": {"location": {"lat": 13.0940326, "lng": 80.29012159999999}, "viewport": {"northeast": {"lat": 13.0953681802915, "lng": 80.29155093029149}, "southwest": {"lat": 13.0926702197085, "lng": 80.28885296970849}}}, "place_id": "ChIJA86Whk9vUjoRO3EFe00G1uY", "plus_code": {"global_code": "7M5237VR+J2", "compound_code": "37VR+J2 Chennai, Tamil Nadu, India"}, "vicinity": "Angappan Street, Mannady, George Town, Chennai", "photos": [{"photo_reference": "ATtYBwLjg0O0qh8eEOowZBn3T9BBuoBZH-84XD_qZQw-RfDtUMu1uDDAPGx-mS27nFnEDWo_W_-d-yA3l3dj3agfeZseqr5_Z19n96wpH09GAqlXoX4zQL9Rf9KjZaYl8NaNtS5eY4jrkirYYMy4Aj-S3luHGMWxXkHr1ojsjTha-eoWGKbI", "width": 864, "html_attributions": ["<a href=\"https://maps.google.com/maps/contrib/102285125197036600623\">praveen Rajpurohit</a>"], "height": 1152}], "scope": "GOOGLE", "business_status": "CLOSED_TEMPORARILY", "types": ["school", "point_of_interest", "establishment"], "icon": "https://maps.gstatic.com/mapfiles/place_api/icons/v1/png_71/school-71.png"}, {"rating": 4, "user_ratings_total": 56, "name": "Dhanalakshmi Higher Secondary School", "reference": "ChIJO0rwnWlvUjoRfpvL7l6wTk4", "geometry": {"location": {"lat": 13.1089838, "lng": 80.292484}, "viewport": {"northeast": {"lat": 13.1103657302915, "lng": 80.29383878029151}, "southwest": {"lat": 13.1076677697085, "lng": 80.2911408197085}}}, "opening_hours": {"open_now": false}, "place_id": "ChIJO0rwnWlvUjoRfpvL7l6wTk4", "plus_code": {"global_code": "7M52475R+HX", "compound_code": "475R+HX Chennai, Tamil Nadu, India"}, "vicinity": "17/8, Andiyappa, Muthu Gramani Street, Royapuram, Chennai", "photos": [{"photo_reference": "ATtYBwKiWTaSsWpovg8HDmKkgttx2m3hM71cPXt5IfqAmsV7I9X1gBGDLduaKRWeQoK26m0W3QwCgEjqk5vsCd5DEuRos5NQokxdQut3JZdLHzHrTpEGoEwly9E9xEMg9YyUg0WBdgZWo0_n3-aCmEdk-hCuSfS3xatYghIdopnhlsYwDo0q", "width": 4608, "html_attributions": ["<a href=\"https://maps.google.com/maps/contrib/117716981534110636668\">Dhanalakshmi Higher Secondary School</a>"], "height": 3456}], "scope": "GOOGLE", "business_status": "OPERATIONAL", "types": ["school", "point_of_interest", "establishment"], "icon": "https://maps.gstatic.com/mapfiles/place_api/icons/v1/png_71/school-71.png"}, {"rating": 4.2, "user_ratings_total": 15, "name": "Shree Gouthamchand kothari Jain Higher Secondary School", "reference": "ChIJVyHHBlBvUjoRtdyt6YW8JOE", "geometry": {"location": {"lat": 13.1087768, "lng": 80.2914984}, "viewport": {"northeast": {"lat": 13.1101229802915, "lng": 80.2928742802915}, "southwest": {"lat": 13.1074250197085, "lng": 80.2901763197085}}}, "opening_hours": {"open_now": false}, "place_id": "ChIJVyHHBlBvUjoRtdyt6YW8JOE", "plus_code": {"global_code": "7M52475R+GH", "compound_code": "475R+GH Chennai, Tamil Nadu, India"}, "vicinity": "115, 180, MS Koil Street, Pudumanaikuppam, Royapuram, Chennai", "photos": [{"photo_reference": "ATtYBwK7Djxgu285nW8kt4KSQNzdX4T1kCiWphgpCt6Z8Txqp-phB6JYI8k5YlBBbG9wFaHpnOfrVvMJiTAoXbxE0w9it5xAU7jbwS_ytRpQYl98TvJH2x7fN5PnfP2HC_0SgGQLAn7yqQuTAtYWBKmywk5zVNUlXfJGWGR8o4JDWFWZqD4h", "width": 4608, "html_attributions": ["<a href=\"https://maps.google.com/maps/contrib/103217301644878110226\">Mr. chief</a>"], "height": 2592}], "scope": "GOOGLE", "business_status": "OPERATIONAL", "types": ["school", "point_of_interest", "establishment"], "icon": "https://maps.gstatic.com/mapfiles/place_api/icons/v1/png_71/school-71.png"}, {"rating": 4, "user_ratings_total": 4, "permanently_closed": true, "name": "Maria Matriculation School", "reference": "ChIJPVAC7mtvUjoR6Iz8WBEJwb8", "geometry": {"location": {"lat": 13.110816, "lng": 80.2944669}, "viewport": {"northeast": {"lat": 13.1121367802915, "lng": 80.2959527302915}, "southwest": {"lat": 13.1094388197085, "lng": 80.2932547697085}}}, "place_id": "ChIJPVAC7mtvUjoR6Iz8WBEJwb8", "plus_code": {"global_code": "7M52476V+8Q", "compound_code": "476V+8Q Chennai, Tamil Nadu, India"}, "vicinity": "West Madha Church Street, Pudumanaikuppam, Royapuram, Chennai", "scope": "GOOGLE", "business_status": "CLOSED_TEMPORARILY", "types": ["secondary_school", "school", "point_of_interest", "establishment"], "icon": "https://maps.gstatic.com/mapfiles/place_api/icons/v1/png_71/school-71.png"}, {"rating": 4.5, "user_ratings_total": 15, "permanently_closed": true, "name": "Anas Ibnu Malik Global Islamic School", "reference": "ChIJtzP642tvUjoRTST2cofXhR4", "geometry": {"location": {"lat": 13.1104768, "lng": 80.2937752}, "viewport": {"northeast": {"lat": 13.1118439802915, "lng": 80.2950450302915}, "southwest": {"lat": 13.1091460197085, "lng": 80.2923470697085}}}, "place_id": "ChIJtzP642tvUjoRTST2cofXhR4", "plus_code": {"global_code": "7M52476V+5G", "compound_code": "476V+5G Chennai, Tamil Nadu, India"}, "vicinity": "25/13, Arathoon Road, Pudumanaikuppam, Royapuram, Chennai", "photos": [{"photo_reference": "ATtYBwJh6pRkjoj1TjmtvKYtnq7JUsDoNXXQn9GKQvp0NAbQNR8qTXgD-MpDpv-FqJ27ibgTPrEWh5T_es2Iat7k2WWRPhe7UQ6C0UkDW8Mk718INRBeAvL6ffJBBXUt2gH1sv893hZGKLzqXtlf8WArMUTgphc9NgQup8Hlt7Ef9fUVgg1p", "width": 1536, "html_attributions": ["<a href=\"https://maps.google.com/maps/contrib/115299416233631999154\">john peter</a>"], "height": 2048}], "scope": "GOOGLE", "business_status": "CLOSED_TEMPORARILY", "types": ["primary_school", "school", "point_of_interest", "establishment"], "icon": "https://maps.gstatic.com/mapfiles/place_api/icons/v1/png_71/school-71.png"}, {"rating": 3.7, "user_ratings_total": 53, "permanently_closed": true, "name": "Maria Matriculation Higher Secondary School", "reference": "ChIJAXZwqGtvUjoRkTndlEr3wkY", "geometry": {"location": {"lat": 13.1109646, "lng": 80.2937977}, "viewport": {"northeast": {"lat": 13.1122162302915, "lng": 80.2956192302915}, "southwest": {"lat": 13.1095182697085, "lng": 80.2929212697085}}}, "place_id": "ChIJAXZwqGtvUjoRkTndlEr3wkY", "plus_code": {"global_code": "7M52476V+9G", "compound_code": "476V+9G Chennai, Tamil Nadu, India"}, "vicinity": "24, West Madha Church Street, Royapuram, Chennai", "photos": [{"photo_reference": "ATtYBwIXx7ZsCNk0D0nn0WOe3Mb4Io-HgV3odv4ZFnzJQ9PKClbwMpik4f2GhEig8LdwqS6Ju1iTiSnVqInaSGIrWr53a3tMfwGSqPrbxGx1XOKxkdZ2-vby7jOhbRSWqgl-uk1RwLiawmsvjBYlqBbdqfEB5YSbe6vNKZ-feXxbkb5gwU3U", "width": 1152, "html_attributions": ["<a href=\"https://maps.google.com/maps/contrib/114958345364232058879\">Dhairya Vora</a>"], "height": 576}], "scope": "GOOGLE", "business_status": "CLOSED_TEMPORARILY", "types": ["school", "point_of_interest", "establishment"], "icon": "https://maps.gstatic.com/mapfiles/place_api/icons/v1/png_71/school-71.png"}, {"permanently_closed": true, "name": "Measi", "reference": "ChIJVVVVlU9vUjoRcqWMiLfNaGU", "geometry": {"location": {"lat": 13.0928209, "lng": 80.2892727}, "viewport": {"northeast": {"lat": 13.09406443029151, "lng": 80.2906047802915}, "southwest": {"lat": 13.0913664697085, "lng": 80.28790681970848}}}, "place_id": "ChIJVVVVlU9vUjoRcqWMiLfNaGU", "vicinity": "232/205, Mannady, George Town, Chennai", "scope": "GOOGLE", "business_status": "CLOSED_TEMPORARILY", "types": ["school", "point_of_interest", "establishment"], "icon": "https://maps.gstatic.com/mapfiles/place_api/icons/v1/png_71/school-71.png"}, {"permanently_closed": true, "name": "AMET University MSDC", "reference": "ChIJYV7hW7pvUjoRQabmyXTnUwo", "geometry": {"location": {"lat": 13.0993518, "lng": 80.2941865}, "viewport": {"northeast": {"lat": 13.1007284302915, "lng": 80.2954379802915}, "southwest": {"lat": 13.0980304697085, "lng": 80.29274001970849}}}, "place_id": "ChIJYV7hW7pvUjoRQabmyXTnUwo", "plus_code": {"global_code": "7M5237XV+PM", "compound_code": "37XV+PM Chennai, Tamil Nadu, India"}, "vicinity": "Rajaji Road, George Town, Chennai", "scope": "GOOGLE", "business_status": "CLOSED_TEMPORARILY", "types": ["school", "point_of_interest", "establishment"], "icon": "https://maps.gstatic.com/mapfiles/place_api/icons/v1/png_71/school-71.png"}, {"rating": 5, "user_ratings_total": 4, "name": "B S SCHOOL", "reference": "ChIJyVhb3SZvUjoRXfZ0CozdIvs", "geometry": {"location": {"lat": 13.0988331, "lng": 80.29324059999999}, "viewport": {"northeast": {"lat": 13.1001425302915, "lng": 80.2945762802915}, "southwest": {"lat": 13.0974445697085, "lng": 80.29187831970847}}}, "opening_hours": {"open_now": false}, "place_id": "ChIJyVhb3SZvUjoRXfZ0CozdIvs", "plus_code": {"global_code": "7M5237XV+G7", "compound_code": "37XV+G7 Chennai, Tamil Nadu, India"}, "vicinity": "Gopal Street, Seethakadi Nagar, George Town, Chennai", "photos": [{"photo_reference": "ATtYBwI1lHnACWwpZedvWjNE2Vq9R1Bdh5dKfv3inP6dXlWTVWtH-RhSh7twCEQlAe8mEW90qL9NiUdbbZf3T59wz8eOTVKpN-Y6rxMnP08m-ZwfOZB2HihJwiWgVK9xk7qVmSjydgeVgX8hrSuGE-0O2-prGsvFux0tOYWBCWLvvGBTZHlv", "width": 482, "html_attributions": ["<a href=\"https://maps.google.com/maps/contrib/108350209291064366536\">B S SCHOOL</a>"], "height": 680}], "scope": "GOOGLE", "business_status": "OPERATIONAL", "types": ["primary_school", "school", "point_of_interest", "establishment"], "icon": "https://maps.gstatic.com/mapfiles/place_api/icons/v1/png_71/school-71.png"}, {"permanently_closed": true, "name": "T R K Perumal Chettiar High School", "reference": "ChIJf7LLi0FvUjoRZOVOun6kH9o", "geometry": {"location": {"lat": 13.1041839, "lng": 80.293598}, "viewport": {"northeast": {"lat": 13.1053488802915, "lng": 80.2948612802915}, "southwest": {"lat": 13.1026509197085, "lng": 80.2921633197085}}}, "place_id": "ChIJf7LLi0FvUjoRZOVOun6kH9o", "plus_code": {"global_code": "7M52473V+MC", "compound_code": "473V+MC Chennai, Tamil Nadu, India"}, "vicinity": "7714,East Kalmandapam Road,Royapuram, Chennai", "scope": "GOOGLE", "business_status": "CLOSED_TEMPORARILY", "types": ["secondary_school", "school", "point_of_interest", "establishment"], "icon": "https://maps.gstatic.com/mapfiles/place_api/icons/v1/png_71/school-71.png"}, {"permanently_closed": true, "name": "K Ramanujam Pillai Primary School", "reference": "ChIJf7LLi0FvUjoR7AU3XM-c-N8", "geometry": {"location": {"lat": 13.1041839, "lng": 80.293598}, "viewport": {"northeast": {"lat": 13.1053488802915, "lng": 80.2948612802915}, "southwest": {"lat": 13.1026509197085, "lng": 80.2921633197085}}}, "place_id": "ChIJf7LLi0FvUjoR7AU3XM-c-N8", "plus_code": {"global_code": "7M52473V+MC", "compound_code": "473V+MC Chennai, Tamil Nadu, India"}, "vicinity": "14 East Kalmandabam Road, Royapuram, Chennai", "scope": "GOOGLE", "business_status": "CLOSED_TEMPORARILY", "types": ["primary_school", "school", "point_of_interest", "establishment"], "icon": "https://maps.gstatic.com/mapfiles/place_api/icons/v1/png_71/school-71.png"}, {"rating": 4.1, "user_ratings_total": 10, "permanently_closed": true, "name": "VALLAL S I ALAGARSAMY CHETTIAR HIGHER SECONDARY SCHOOL", "reference": "ChIJSyeFymlvUjoRcDQGxHMSrHM", "geometry": {"location": {"lat": 13.0994919, "lng": 80.292309}, "viewport": {"northeast": {"lat": 13.1008457802915, "lng": 80.2936332802915}, "southwest": {"lat": 13.0981478197085, "lng": 80.2909353197085}}}, "place_id": "ChIJSyeFymlvUjoRcDQGxHMSrHM", "plus_code": {"global_code": "7M5237XR+QW", "compound_code": "37XR+QW Chennai, Tamil Nadu, India"}, "vicinity": "2, & 3, Adam Street, Royapuram, Chennai", "photos": [{"photo_reference": "ATtYBwKe3ysRjkWxwxy8HQcc1oCwYBFGA_giZE7Ju5Np0kuci1wTtZFu_nE8aMFITDqIiT8RFChU4nqGMC1gH9sxGxLE-z0rzVgcLjQLl9WO_Ii2-hLlaa795My7zGOWoGYLWpJ-OfpQ9MmB1CQ9U5_b7JNnfBqPt8vmsCTQhSiHjQQ3CLqS", "width": 4160, "html_attributions": ["<a href=\"https://maps.google.com/maps/contrib/108172849190749637614\">VALLAL S I ALAGARSAMY CHETTIAR HIGHER SECONDARY SCHOOL</a>"], "height": 2080}], "scope": "GOOGLE", "business_status": "CLOSED_TEMPORARILY", "types": ["school", "point_of_interest", "establishment"], "icon": "https://maps.gstatic.com/mapfiles/place_api/icons/v1/png_71/school-71.png"}]}