{"status": "OK", "next_page_token": "ATtYBwKQGcOq0hvo3orqqjQhJpTUA3hGY3jH4PflgC3rITtMWKkIs4wfiEF5pBxXN05ihTODNraT06H1r___j5SOEAGyZCQEgv85bYizwd8yS4xCS2a_9ctAJgR4h5WNG1aGNk4t7hqcOYlBVov4d85lWbi5Gi1wcqeX8C3ul19VHjr7ethVLvBcYzP2-Pam3UvKg9rEDAth-H4eRYyGrQyNKHYdXyRYUH1V4EfimgvcqdAViTO01yBvxuDxdwf0s6xq4c_RBp7STyTpoLK84h9yB3z8qMWFuRdkpYNqShY6P-ocB5e0ZZIGF8vUVWq_ZKqyUY2qh84zd_4eCxtAeGfnx9bExkAp3zI20Ru84aFFNzpd9G8y3OzbkZAmnhr9AqMbz1BMCcvbn-K1Wpoe7FrTvFmYQ0TtCVUjkhRpdneSTxDC3xsK-YilOumqYQqGCMW5ZYl8l6JPqfuotHxNJuGXFtql5vJ2mg4QqiJ9rEJTREq4dBCVh-NYsZY1kn0JA3wdOD2NQpWpDCIZwP9y_c9lTs17R0k55-87AHKvJQmPhRS_q0DWmvqd8H1ZQ42pFGqm9Gkip93jzhIZ0ME1NoQmQE3g2EYS02ane-1F669ci_td3eOemkcVgizabhSPDMUl6BRphHUh", "html_attributions": [], "results": [{"rating": 3.7, "user_ratings_total": 6, "permanently_closed": true, "name": "Avighna Danta Academy", "reference": "ChIJec2PTeFmUjoRpiZyBBE9OqE", "geometry": {"location": {"lat": 13.0407888, "lng": 80.2154413}, "viewport": {"northeast": {"lat": 13.0421559302915, "lng": 80.2167639302915}, "southwest": {"lat": 13.0394579697085, "lng": 80.2140659697085}}}, "place_id": "ChIJec2PTeFmUjoRpiZyBBE9OqE", "plus_code": {"global_code": "7M5226R8+85", "compound_code": "26R8+85 Chennai, Tamil Nadu, India"}, "vicinity": "74, 4th Avenue, Sarvamangala Colony, LIG Colony, Ashok Nagar, Chennai", "scope": "GOOGLE", "business_status": "CLOSED_TEMPORARILY", "types": ["university", "school", "point_of_interest", "establishment"], "icon": "https://maps.gstatic.com/mapfiles/place_api/icons/v1/png_71/school-71.png"}, {"permanently_closed": true, "name": "ABCkids", "reference": "ChIJW8keyvpmUjoRfjX14s66FUg", "geometry": {"location": {"lat": 13.0445865, "lng": 80.22130229999999}, "viewport": {"northeast": {"lat": 13.0459272302915, "lng": 80.22277603029151}, "southwest": {"lat": 13.0432292697085, "lng": 80.22007806970849}}}, "place_id": "ChIJW8keyvpmUjoRfjX14s66FUg", "plus_code": {"global_code": "7M5226VC+RG", "compound_code": "26VC+RG Chennai, Tamil Nadu, India"}, "vicinity": "Mariamman Koil Street, Shiyamala Vadhana Street, Samiyar Madam, Kodambakkam, Chennai", "scope": "GOOGLE", "business_status": "CLOSED_TEMPORARILY", "types": ["school", "point_of_interest", "establishment"], "icon": "https://maps.gstatic.com/mapfiles/place_api/icons/v1/png_71/school-71.png"}, {"permanently_closed": true, "name": "DAV MAT HIG SEC SCHOOL", "reference": "ChIJaWXvavxmUjoRLnSnSAljSD8", "geometry": {"location": {"lat": 13.039275, "lng": 80.22500529999999}, "viewport": {"northeast": {"lat": 13.0406094302915, "lng": 80.2263845302915}, "southwest": {"lat": 13.0379114697085, "lng": 80.22368656970849}}}, "place_id": "ChIJaWXvavxmUjoRLnSnSAljSD8", "plus_code": {"global_code": "7M5226QG+P2", "compound_code": "26QG+P2 Chennai, Tamil Nadu, India"}, "vicinity": "Rajaji Street, AGS Colony, Ramakrishnapuram, West Mambalam, Chennai", "scope": "GOOGLE", "business_status": "CLOSED_TEMPORARILY", "types": ["school", "point_of_interest", "establishment"], "icon": "https://maps.gstatic.com/mapfiles/place_api/icons/v1/png_71/school-71.png"}, {"rating": 5, "user_ratings_total": 58, "name": "Malligai Dental Academy", "reference": "ChIJv2VOPOJmUjoRNbsU1aWNEsg", "geometry": {"location": {"lat": 13.036058, "lng": 80.216383}, "viewport": {"northeast": {"lat": 13.0374069802915, "lng": 80.2176699802915}, "southwest": {"lat": 13.0347090197085, "lng": 80.21497201970848}}}, "opening_hours": {"open_now": false}, "place_id": "ChIJv2VOPOJmUjoRNbsU1aWNEsg", "plus_code": {"global_code": "7M5226P8+CH", "compound_code": "26P8+CH Chennai, Tamil Nadu, India"}, "vicinity": "23/49, G1, Ground Floor, Chandra Flats, 7th Avenue (Opp to Police Booth), 7th Ave, Chennai", "photos": [{"photo_reference": "ATtYBwIN2gGXqDGjwya6qRiiZ8Y_VB4EGkklfPAaZZAAU__xk4SFn03azv_R-FH6wRW4ouCQuVAM94gTsEJGXe6WGq3pLQgDa39unrJNsMjEnQze5l-QLdRTmafQ6HLZMPV3p5CydxNR9l8PcoRtqJkgmABOmsZJUXRP51JxsDJF9puRelw1", "width": 2839, "html_attributions": ["<a href=\"https://maps.google.com/maps/contrib/118279942463207876912\">Malligai Dental Academy</a>"], "height": 1598}], "scope": "GOOGLE", "business_status": "OPERATIONAL", "types": ["hospital", "university", "school", "health", "point_of_interest", "establishment"], "icon": "https://maps.gstatic.com/mapfiles/place_api/icons/v1/png_71/school-71.png"}, {"rating": 4.5, "user_ratings_total": 14, "name": "Kidzee Kodambakkam", "reference": "ChIJBZpnpflmUjoR7kzmvClxL70", "geometry": {"location": {"lat": 13.0437242, "lng": 80.22385369999999}, "viewport": {"northeast": {"lat": 13.0450731802915, "lng": 80.22520268029149}, "southwest": {"lat": 13.0423752197085, "lng": 80.22250471970848}}}, "opening_hours": {"open_now": false}, "place_id": "ChIJBZpnpflmUjoR7kzmvClxL70", "plus_code": {"global_code": "7M5226VF+FG", "compound_code": "26VF+FG Chennai, Tamil Nadu, India"}, "vicinity": "25, Umapathy Street, Ramakrishnapuram, West Mambalam, Chennai", "photos": [{"photo_reference": "ATtYBwJIalFyH0wXLbSLq-Fq0Up0b-pany09AfQXbsu0yqm1wnB6mFoj7aZIzx9GjMg6d9O_VqBG4DamF8YSWe_iJYD-ilAqqiK94CDkqtnCC374tE-abOCACT4BWzPTM0klbNpHzb3ll6VfMkCjuk62NFAQce3lxPT7-3MarqY9LC-X1V2a", "width": 1920, "html_attributions": ["<a href=\"https://maps.google.com/maps/contrib/115561435887437509857\">gayathri va</a>"], "height": 1080}], "scope": "GOOGLE", "business_status": "OPERATIONAL", "types": ["school", "point_of_interest", "establishment"], "icon": "https://maps.gstatic.com/mapfiles/place_api/icons/v1/png_71/school-71.png"}, {"rating": 4, "user_ratings_total": 25, "name": "Chennai Astrologer Gopalakrishnan", "reference": "ChIJK9cbi-hmUjoRW1_MJivxUDw", "geometry": {"location": {"lat": 13.0465564, "lng": 80.21809739999999}, "viewport": {"northeast": {"lat": 13.0480281802915, "lng": 80.2194551802915}, "southwest": {"lat": 13.0453302197085, "lng": 80.2167572197085}}}, "opening_hours": {"open_now": false}, "place_id": "ChIJK9cbi-hmUjoRW1_MJivxUDw", "plus_code": {"global_code": "7M5226W9+J6", "compound_code": "26W9+J6 Chennai, Tamil Nadu, India"}, "vicinity": "No.5 old no 6c, vedammal avenue, 4th Street, Kodambakkam, Chennai", "photos": [{"photo_reference": "ATtYBwLS-4UHnf_D4OfpxqwphXOgpe9ObiHu9JWD-iIUQSKpn2kl3f3RgPBUQ0f6Tgs-IkUpKh3yImq15OODMQrg_jHfoSiUrKqVCHWmV-rZwap1dqJVfIiyl3LI9CWQkFgazvcWZmPQFrzIhw1cGyC6M0GeHrBEFEbcDyBF7WKcLCPLqh42", "width": 1440, "html_attributions": ["<a href=\"https://maps.google.com/maps/contrib/117414616084391259322\">Chennai Astrologer Gopalakrishnan</a>"], "height": 809}], "scope": "GOOGLE", "business_status": "OPERATIONAL", "types": ["school", "health", "point_of_interest", "establishment"], "icon": "https://maps.gstatic.com/mapfiles/place_api/icons/v1/png_71/generic_business-71.png"}, {"rating": 5, "user_ratings_total": 4, "permanently_closed": true, "name": "Globalart", "reference": "ChIJ4yoLeOFmUjoROZHwFaDLMMI", "geometry": {"location": {"lat": 13.037194, "lng": 80.2132495}, "viewport": {"northeast": {"lat": 13.0386067802915, "lng": 80.2146005802915}, "southwest": {"lat": 13.0359088197085, "lng": 80.2119026197085}}}, "place_id": "ChIJ4yoLeOFmUjoROZHwFaDLMMI", "plus_code": {"global_code": "7M5226P7+V7", "compound_code": "26P7+V7 Chennai, Tamil Nadu, India"}, "vicinity": "Old no. C399 ,new, no.1, 8th Avenue, Chennai", "photos": [{"photo_reference": "ATtYBwJIMUsfqZzWIMRoheR-lzleD8awYavMqh9bPA1ZCWzFJYXkH9ccWuPLIEnRGjerAQH4gBYwDRRNI73QDmHyTA21ilyk5AT4fvTDMHF5f0goJa7dypi1KOi4iRj5IjyCmfl-2-BzaenqYz8hmiycwWSz1pDr7XG4NwnSWD7BzOfpjy7q", "width": 768, "html_attributions": ["<a href=\"https://maps.google.com/maps/contrib/105329343687374265680\">AK</a>"], "height": 1024}], "scope": "GOOGLE", "business_status": "CLOSED_TEMPORARILY", "types": ["school", "point_of_interest", "establishment"], "icon": "https://maps.gstatic.com/mapfiles/place_api/icons/v1/png_71/school-71.png"}, {"rating": 3.9, "user_ratings_total": 116, "name": "Fitness ONE Gym Ashok Nagar", "reference": "ChIJTS6F0OBmUjoRs6m56jDJkU8", "geometry": {"location": {"lat": 13.0390622, "lng": 80.2121301}, "viewport": {"northeast": {"lat": 13.0404122802915, "lng": 80.2135416802915}, "southwest": {"lat": 13.0377143197085, "lng": 80.21084371970849}}}, "opening_hours": {"open_now": false}, "place_id": "ChIJTS6F0OBmUjoRs6m56jDJkU8", "plus_code": {"global_code": "7M5226Q6+JV", "compound_code": "26Q6+JV Chennai, Tamil Nadu, India"}, "vicinity": "1st Avenue, above Subway, 52, Jawaharlal Nehru Road, Sector 10, Sector 13, Ashok Nagar, Chennai", "photos": [{"photo_reference": "ATtYBwJOT0tkn1bNCMfm7Bogr9MwlxKFzpQ_VXY_BQszgIi2XslXLsi4KcPVSn3xD1Sl3n4myxcg3P2ChdjUj0WmZ9_kqmee5kUBimd9buTZKR_hP0B2mLXlrx717UmtWXUnGQ3DE5lSSqyuAXpn1gQGbmmzwBw6rrRFuT3QDe1vm59LhBtv", "width": 2848, "html_attributions": ["<a href=\"https://maps.google.com/maps/contrib/115569155717612059526\">Delhi acumen Acumen</a>"], "height": 4288}], "scope": "GOOGLE", "business_status": "OPERATIONAL", "types": ["gym", "school", "health", "point_of_interest", "establishment"], "icon": "https://maps.gstatic.com/mapfiles/place_api/icons/v1/png_71/generic_business-71.png"}, {"rating": 5, "user_ratings_total": 4, "permanently_closed": true, "name": "Jack and Jill play school", "reference": "ChIJz1juw-9mUjoRelShIK8AipY", "geometry": {"location": {"lat": 13.047777, "lng": 80.21999}, "viewport": {"northeast": {"lat": 13.0492758802915, "lng": 80.2213572302915}, "southwest": {"lat": 13.0465779197085, "lng": 80.2186592697085}}}, "place_id": "ChIJz1juw-9mUjoRelShIK8AipY", "plus_code": {"global_code": "7M5226X9+4X", "compound_code": "26X9+4X Chennai, Tamil Nadu, India"}, "vicinity": "Old no 13A,New no 5, Rathinambal street,Kodambakkam, Chennai", "photos": [{"photo_reference": "ATtYBwLcwIhvuJHipvt7UVoZVGHNw48pCexhHH_mPsfQ4eeGUh_aaeDmyIA2MMuGTvGkonQ5YuVfc1p0kY6FU-I93uXw0FVG0dh-bpMNsdBOd6HbshCbBmdhOro6JYHch23ugLnRvo1ZevyxgZ3N6vioLs81tL72ljbaXAXtycIfnn9Wgzes", "width": 4128, "html_attributions": ["<a href=\"https://maps.google.com/maps/contrib/101413949561991635865\">Anu Radha</a>"], "height": 2322}], "scope": "GOOGLE", "business_status": "CLOSED_TEMPORARILY", "types": ["school", "point_of_interest", "establishment"], "icon": "https://maps.gstatic.com/mapfiles/place_api/icons/v1/png_71/school-71.png"}, {"rating": 5, "user_ratings_total": 5, "permanently_closed": true, "name": "Arise N Shine Schools Pvt Ltd Ashok Nagar", "reference": "ChIJ1-Qr_-BmUjoR8ANPmjNNnBM", "geometry": {"location": {"lat": 13.037377, "lng": 80.212282}, "viewport": {"northeast": {"lat": 13.0387255802915, "lng": 80.2136613302915}, "southwest": {"lat": 13.0360276197085, "lng": 80.2109633697085}}}, "place_id": "ChIJ1-Qr_-BmUjoR8ANPmjNNnBM", "vicinity": "New no:75 Old no:63, 12th Avenue, Ashok Nagar, Chennai", "photos": [{"photo_reference": "ATtYBwJvCPpMbjv4PMnUHHCSHBpx4kd9gB-oeyNDzrHjMx_QqpsLjmKb9iu3lFNig8lKlE3BbljsOmulSyj7vy3FSlSwYYZ6EXHrePVh9imp8Bpcn-UCZcpzbpJtwGXBuh9Bq3fWZSJ4dCbmrDVliOS5rm2_CncCkjRVqa9PGK3aVm01kCDr", "width": 3264, "html_attributions": ["<a href=\"https://maps.google.com/maps/contrib/101579458673245578517\">senthilkumar rajendrapandian</a>"], "height": 2448}], "scope": "GOOGLE", "business_status": "CLOSED_TEMPORARILY", "types": ["school", "point_of_interest", "establishment"], "icon": "https://maps.gstatic.com/mapfiles/place_api/icons/v1/png_71/school-71.png"}, {"rating": 5, "user_ratings_total": 5, "name": "Sitar class", "reference": "ChIJ5xbJZfpmUjoRfcauWppk-g0", "geometry": {"location": {"lat": 13.0452577, "lng": 80.22616219999999}, "viewport": {"northeast": {"lat": 13.0465763302915, "lng": 80.2275024302915}, "southwest": {"lat": 13.0438783697085, "lng": 80.22480446970849}}}, "opening_hours": {"open_now": false}, "place_id": "ChIJ5xbJZfpmUjoRfcauWppk-g0", "plus_code": {"global_code": "7M5226WG+4F", "compound_code": "26WG+4F Chennai, Tamil Nadu, India"}, "vicinity": "New no 27 old 15, Pranavam Apartments, 1st Street, Nagarjuna Nagar, Kodambakkam, Chennai", "photos": [{"photo_reference": "ATtYBwJWctn4gStqx5f0SruKgXMAOvKtp6MIXG1WbzbE97wWrKDGgv34aqBp_YWhrnfiWUdVsngqcP4KNmJkrNEFsN69RtuFndBWZls9zT7BhOYHvGQ5YWwUx-FB3qnvkJtPVQn9Ubnp1qldENM5XvJnppMTr9T0RbiNXK-uiDWENL7aeMhM", "width": 1920, "html_attributions": ["<a href=\"https://maps.google.com/maps/contrib/105589873186669091242\">Sitar class</a>"], "height": 1080}], "scope": "GOOGLE", "business_status": "OPERATIONAL", "types": ["electronics_store", "home_goods_store", "school", "point_of_interest", "store", "establishment"], "icon": "https://maps.gstatic.com/mapfiles/place_api/icons/v1/png_71/generic_business-71.png"}, {"rating": 2.5, "user_ratings_total": 2, "permanently_closed": true, "name": "I Play I Learn Play School", "reference": "ChIJH8Parh1nUjoRnkGwlAw9cCA", "geometry": {"location": {"lat": 13.032862, "lng": 80.216076}, "viewport": {"northeast": {"lat": 13.0341961802915, "lng": 80.21742378029151}, "southwest": {"lat": 13.0314982197085, "lng": 80.21472581970849}}}, "place_id": "ChIJH8Parh1nUjoRnkGwlAw9cCA", "plus_code": {"global_code": "7M5226M8+4C", "compound_code": "26M8+4C Chennai, Tamil Nadu, India"}, "vicinity": "No. 5, 62nd Street 10th Avenue , Ashok Nagar, Chennai, Chennai", "scope": "GOOGLE", "business_status": "CLOSED_TEMPORARILY", "types": ["school", "point_of_interest", "establishment"], "icon": "https://maps.gstatic.com/mapfiles/place_api/icons/v1/png_71/school-71.png"}, {"rating": 4.7, "user_ratings_total": 25, "permanently_closed": true, "name": "SEED Play School Ashok Nagar", "reference": "ChIJQ-3BMhxnUjoR0p3OcIZaMuc", "geometry": {"location": {"lat": 13.0400872, "lng": 80.21154779999999}, "viewport": {"northeast": {"lat": 13.0413720802915, "lng": 80.2128987302915}, "southwest": {"lat": 13.0386741197085, "lng": 80.21020076970849}}}, "place_id": "ChIJQ-3BMhxnUjoR0p3OcIZaMuc", "plus_code": {"global_code": "7M5226R6+2J", "compound_code": "26R6+2J Chennai, Tamil Nadu, India"}, "vicinity": "No. 5, 79th Street, Off 18th Avenue, Ashok Nagar, Chennai", "photos": [{"photo_reference": "ATtYBwI2Sf5mnhK3ZuNYVS6Z2VJ0iZNz9Mpk1Ze1RQjFdT58xYMSGFEf9lgrrWTBZ92bfX6ZsfT6YenP8KmV9zz0e0kSYFRELx8UYYpZfyegLywyrk_JjKMhlVkEwFqLtJL8rXTKZ50TnRCYBGdBOVijRYiUv0HugZAifvFiBT3TuE9aefWw", "width": 1280, "html_attributions": ["<a href=\"https://maps.google.com/maps/contrib/105324177170835507267\">SEED ASHOK NAGAR</a>"], "height": 720}], "scope": "GOOGLE", "business_status": "CLOSED_TEMPORARILY", "types": ["school", "point_of_interest", "establishment"], "icon": "https://maps.gstatic.com/mapfiles/place_api/icons/v1/png_71/school-71.png"}, {"rating": 3, "user_ratings_total": 2, "permanently_closed": true, "name": "Cardle 2 crayons", "reference": "ChIJV324GR5nUjoRXRQC85TIwvc", "geometry": {"location": {"lat": 13.0338165, "lng": 80.21423349999999}, "viewport": {"northeast": {"lat": 13.0351427802915, "lng": 80.2155792802915}, "southwest": {"lat": 13.0324448197085, "lng": 80.21288131970849}}}, "place_id": "ChIJV324GR5nUjoRXRQC85TIwvc", "plus_code": {"global_code": "7M5226M7+GM", "compound_code": "26M7+GM Chennai, Tamil Nadu, India"}, "vicinity": "53rd Street, Indira Colony, Ashok Nagar, Chennai", "scope": "GOOGLE", "business_status": "CLOSED_TEMPORARILY", "types": ["school", "point_of_interest", "establishment"], "icon": "https://maps.gstatic.com/mapfiles/place_api/icons/v1/png_71/school-71.png"}, {"rating": 5, "user_ratings_total": 17, "name": "XR CREATIVES", "reference": "ChIJfwvHGkZmUjoRW32yDle6z9Q", "geometry": {"location": {"lat": 13.0321448, "lng": 80.2167407}, "viewport": {"northeast": {"lat": 13.0335012802915, "lng": 80.2180889302915}, "southwest": {"lat": 13.0308033197085, "lng": 80.2153909697085}}}, "opening_hours": {"open_now": false}, "place_id": "ChIJfwvHGkZmUjoRW32yDle6z9Q", "plus_code": {"global_code": "7M5226J8+VM", "compound_code": "26J8+VM Chennai, Tamil Nadu, India"}, "vicinity": "15, 62nd Street, Indira Colony, Ashok Nagar, Chennai", "photos": [{"photo_reference": "ATtYBwJytKVw3qFj0RfJkk5ahmluNccFnrRlS2KZqaKlle4D5DC0jQnQEHd3tKA_mZcm3gNsu2SZ3nHQGpcHphx-cp7JH1CFJdlYgnJtsLo20XjZiEmsFDFELNwyg_yKeOf0mu5f3_beftpwMjfVd42dFaMN7z_PUMhez578YX67W69dtykN", "width": 900, "html_attributions": ["<a href=\"https://maps.google.com/maps/contrib/103043412707275404654\">XR CREATIVES</a>"], "height": 500}], "scope": "GOOGLE", "business_status": "OPERATIONAL", "types": ["university", "school", "point_of_interest", "establishment"], "icon": "https://maps.gstatic.com/mapfiles/place_api/icons/v1/png_71/generic_business-71.png"}, {"permanently_closed": true, "name": "Kruganti Training Solutions", "reference": "ChIJi3fh0-FmUjoRXEUj14ouXSU", "geometry": {"location": {"lat": 13.0348602, "lng": 80.2129531}, "viewport": {"northeast": {"lat": 13.0362188802915, "lng": 80.2142481302915}, "southwest": {"lat": 13.0335209197085, "lng": 80.21155016970849}}}, "place_id": "ChIJi3fh0-FmUjoRXEUj14ouXSU", "plus_code": {"global_code": "7M5226M7+W5", "compound_code": "26M7+W5 Chennai, Tamil Nadu, India"}, "vicinity": "/27 Manthope, 5, 8th Avenue, New Colony, Ashok Nagar, Chennai", "scope": "GOOGLE", "business_status": "CLOSED_TEMPORARILY", "types": ["school", "point_of_interest", "establishment"], "icon": "https://maps.gstatic.com/mapfiles/place_api/icons/v1/png_71/school-71.png"}, {"rating": 5, "user_ratings_total": 1, "permanently_closed": true, "name": "Chennai Primary School", "reference": "ChIJxQ5vo_BmUjoRZ8WpyC6GVUM", "geometry": {"location": {"lat": 13.0468508, "lng": 80.225458}, "viewport": {"northeast": {"lat": 13.0481906302915, "lng": 80.2268045302915}, "southwest": {"lat": 13.0454926697085, "lng": 80.22410656970848}}}, "place_id": "ChIJxQ5vo_BmUjoRZ8WpyC6GVUM", "plus_code": {"global_code": "7M5226WG+P5", "compound_code": "26WG+P5 Chennai, Tamil Nadu, India"}, "vicinity": "67, Rangarajapuram Main Road, kodambakkam, Chennai", "scope": "GOOGLE", "business_status": "CLOSED_TEMPORARILY", "types": ["primary_school", "school", "point_of_interest", "establishment"], "icon": "https://maps.gstatic.com/mapfiles/place_api/icons/v1/png_71/school-71.png"}, {"permanently_closed": true, "name": "Butterfly", "reference": "ChIJkWXjqfBmUjoRc8XifuuIcWk", "geometry": {"location": {"lat": 13.0463015, "lng": 80.2261706}, "viewport": {"northeast": {"lat": 13.0476562302915, "lng": 80.2274981302915}, "southwest": {"lat": 13.0449582697085, "lng": 80.22480016970849}}}, "place_id": "ChIJkWXjqfBmUjoRc8XifuuIcWk", "plus_code": {"global_code": "7M5226WG+GF", "compound_code": "26WG+GF Chennai, Tamil Nadu, India"}, "vicinity": "Corporation Colony 1st Street, Rangarajapuram, CIT Nagar, Chennai", "scope": "GOOGLE", "business_status": "CLOSED_TEMPORARILY", "types": ["school", "point_of_interest", "establishment"], "icon": "https://maps.gstatic.com/mapfiles/place_api/icons/v1/png_71/school-71.png"}, {"rating": 3.5, "user_ratings_total": 4, "permanently_closed": true, "name": "Government Higher Secondary School", "reference": "ChIJ7bowrPFmUjoRkWSe8seKHb8", "geometry": {"location": {"lat": 13.0467785, "lng": 80.2256216}, "viewport": {"northeast": {"lat": 13.0481474302915, "lng": 80.2269745302915}, "southwest": {"lat": 13.0454494697085, "lng": 80.2242765697085}}}, "place_id": "ChIJ7bowrPFmUjoRkWSe8seKHb8", "plus_code": {"global_code": "7M5226WG+P6", "compound_code": "26WG+P6 Chennai, Tamil Nadu, India"}, "vicinity": "Rangarajapuram Main Road, Rangarajapuram, Kodambakkam, Chennai", "photos": [{"photo_reference": "ATtYBwJom8C06vvtidS7EPmDiBN8GJgTxaCR6ArzMylH9A1UqehZhIfQkG9Fdx5gqXE5eMNd40uwwG1hDATX9iY99aSxnkK4qgddd1vMXoscb2UkIeWbxEH5Gkd9_zrfXKim213JR_7JqZAPpyzRGXD5Hs_F5xXxW7G3uPr0boCC-ePaYvu0", "width": 4160, "html_attributions": ["<a href=\"https://maps.google.com/maps/contrib/111796476330212407401\">Neelagandan Shankar</a>"], "height": 3120}], "scope": "GOOGLE", "business_status": "CLOSED_TEMPORARILY", "types": ["secondary_school", "school", "point_of_interest", "establishment"], "icon": "https://maps.gstatic.com/mapfiles/place_api/icons/v1/png_71/school-71.png"}, {"permanently_closed": true, "name": "Sri Venkateswara Montessori Teachers", "reference": "ChIJn96wlPlmUjoRbjVjdmbWI94", "geometry": {"location": {"lat": 13.0448847, "lng": 80.22766109999999}, "viewport": {"northeast": {"lat": 13.0463003802915, "lng": 80.2290278802915}, "southwest": {"lat": 13.0436024197085, "lng": 80.22632991970849}}}, "place_id": "ChIJn96wlPlmUjoRbjVjdmbWI94", "plus_code": {"global_code": "7M5226VH+X3", "compound_code": "26VH+X3 Chennai, Tamil Nadu, India"}, "vicinity": "No. 16/3,Azeez Nagar, 1st street,, Chakrapani Street Extension, Rangarajapuram, Kodambakkam, Chennai", "scope": "GOOGLE", "business_status": "CLOSED_TEMPORARILY", "types": ["school", "point_of_interest", "establishment"], "icon": "https://maps.gstatic.com/mapfiles/place_api/icons/v1/png_71/school-71.png"}]}