{"status": "OK", "next_page_token": "ATtYBwKnxBG8ndA0HzdgIiFjibhdZoKQTw8YgMg3If8UD4ZOy6MQXqOHSZoEAUZ9uRiVhcP1Vwo8rVT5FOeTZZiIjAUfkYK8L2U_3EnEsqm3Vsk8Up_Z5kiWJG0k77wsmbkUgw2i6Z3wBuO0sgCyYe_UV4oih0Wrvsofg2qni84EjGo0BrREk5BfDM9485mesIFgIc414npO7X3vc6p2Vxy7VEnjdo2aOjm9-RyIml6ACBTwWS0DwVsqhBUyJPJpD6gj_whk7lg8iXJYHdTIdiJGIccI9aAyAInwo1q2cjV5qwr5HXiFILS4xTLI9djYQ5no5qw-hwNjQ3sduWLyXdimspy04-6IQJLfqDZYpiC1MmbPQmGvPau7UIcb8SyxbtutCTTAp09bnOtyBZxo7Ua0--ZeCNk1fGaX4l6vsaxP9m1GYHABdbc", "html_attributions": [], "results": [{"rating": 4.8, "user_ratings_total": 444, "name": "Pink Fitness - Ladies Gym Periyar Nagar", "reference": "ChIJN2H46E1kUjoRV5B0WKFI44c", "geometry": {"location": {"lat": 13.1136024, "lng": 80.2274044}, "viewport": {"northeast": {"lat": 13.1149572802915, "lng": 80.22873108029151}, "southwest": {"lat": 13.1122593197085, "lng": 80.22603311970849}}}, "opening_hours": {"open_now": false}, "place_id": "ChIJN2H46E1kUjoRV5B0WKFI44c", "plus_code": {"global_code": "7M52467G+CX", "compound_code": "467G+CX Chennai, Tamil Nadu, India"}, "vicinity": "Old No. 36 / New No. 55, 70 Feet Road Above Nilgiris Supermarket, Periyar Nagar West, Chennai", "photos": [{"photo_reference": "ATtYBwLXhKkP5t-jAaw9rFOl-plvOgA5jOBHHznqka0SuqKn0ZUMLjzOhQP952IakPgIojv0fBr3RSKsk3U-SZhne_orVCTTuG-gQXaBZsSNwBIBU_GLLlZ5skRJZ0HrgwMA_FtasLthkTznXJsZMIemU-XoRtGkNBjRwEYhkCstDKGBcZth", "width": 1360, "html_attributions": ["<a href=\"https://maps.google.com/maps/contrib/113258415853667273241\">Pink Fitness - Ladies Gym Periyar Nagar</a>"], "height": 2048}], "scope": "GOOGLE", "business_status": "OPERATIONAL", "types": ["gym", "physiotherapist", "school", "health", "point_of_interest", "establishment"], "icon": "https://maps.gstatic.com/mapfiles/place_api/icons/v1/png_71/generic_business-71.png"}, {"rating": 4.8, "user_ratings_total": 6, "permanently_closed": true, "name": "Vbrain Pre School & Academy for Classical Dance & Vocal, Keyboard & Abacus Classes", "reference": "ChIJmXC0b1dkUjoRia7G06xyqJA", "geometry": {"location": {"lat": 13.122192, "lng": 80.2219125}, "viewport": {"northeast": {"lat": 13.1235312802915, "lng": 80.2232609302915}, "southwest": {"lat": 13.1208333197085, "lng": 80.2205629697085}}}, "place_id": "ChIJmXC0b1dkUjoRia7G06xyqJA", "plus_code": {"global_code": "7M5246CC+VQ", "compound_code": "46CC+VQ Chennai, Tamil Nadu, India"}, "vicinity": "8/1, 4th Street, Anjugam Nagar, Kolathur, Chennai", "photos": [{"photo_reference": "ATtYBwK88LAjPA5xQrWKgUnREUR8vsQE8fimkxttufLus7igyGp4VMFj1Uxf9NhQWRE03Ev6lEdLwiiTSBN_6C-D8FJUDhQaNbhKIOL9_kbG2szsWh6YQCPT9-JV_UZlhhd-fKRTFNKBJ9ehKgyXzPfKupetAyzRqFJJ3fnk5seW1-Cxcajf", "width": 720, "html_attributions": ["<a href=\"https://maps.google.com/maps/contrib/106859893888187521327\">Vbrain Pre School in Kolathur : Kids club for Abacus, Classical Dance &amp; Vocal, Keyboard Classes</a>"], "height": 1280}], "scope": "GOOGLE", "business_status": "CLOSED_TEMPORARILY", "types": ["school", "point_of_interest", "establishment"], "icon": "https://maps.gstatic.com/mapfiles/place_api/icons/v1/png_71/school-71.png"}, {"permanently_closed": true, "name": "Little Einstein", "reference": "ChIJY8H6k1lkUjoRV8S7GMEHtw4", "geometry": {"location": {"lat": 13.1211095, "lng": 80.2192712}, "viewport": {"northeast": {"lat": 13.1225162302915, "lng": 80.2205850302915}, "southwest": {"lat": 13.1198182697085, "lng": 80.21788706970848}}}, "place_id": "ChIJY8H6k1lkUjoRV8S7GMEHtw4", "plus_code": {"global_code": "7M5246C9+CP", "compound_code": "46C9+CP Chennai, Tamil Nadu, India"}, "vicinity": "600, No.6/1-14,Subramania Nagar,I st street,(Next to Anjugam Nagar Ration Shop),Kolathur,Chennai, 099, 18th Street, Kolathur, Chennai", "scope": "GOOGLE", "business_status": "CLOSED_TEMPORARILY", "types": ["school", "point_of_interest", "establishment"], "icon": "https://maps.gstatic.com/mapfiles/place_api/icons/v1/png_71/school-71.png"}, {"rating": 4.9, "user_ratings_total": 22, "permanently_closed": true, "name": "Robotics - Breathing Technology In Young Minds", "reference": "ChIJvytXHFdkUjoRez5vUwC27aU", "geometry": {"location": {"lat": 13.1221818, "lng": 80.223558}, "viewport": {"northeast": {"lat": 13.1235380802915, "lng": 80.2249245802915}, "southwest": {"lat": 13.1208401197085, "lng": 80.2222266197085}}}, "place_id": "ChIJvytXHFdkUjoRez5vUwC27aU", "plus_code": {"global_code": "7M5246CF+VC", "compound_code": "46CF+VC Chennai, Tamil Nadu, India"}, "vicinity": "21, Perambur Red Hills Road, Girija Nagar, Kolathur, Chennai", "photos": [{"photo_reference": "ATtYBwKIG4GFrzj8a8eVGtb6ARgBJHZcdGLEr6jao84PCVhGKVc5D5Z93q9ZQn3M-DLRQ2zGIaVzgPPOvTF_rx_Du_ryEkJcgsjuiN5F2mWhLHzz6EyZ3ecM6Xfg6ZUq-19L6WeN1r_9wRzsNMBZco2e7vFwgLSnwwbrB8JekfcuOamtj1pc", "width": 2048, "html_attributions": ["<a href=\"https://maps.google.com/maps/contrib/114887680256117505569\">Robotics - Breathing Technology In Young Minds</a>"], "height": 1356}], "scope": "GOOGLE", "business_status": "CLOSED_TEMPORARILY", "types": ["school", "point_of_interest", "establishment"], "icon": "https://maps.gstatic.com/mapfiles/place_api/icons/v1/png_71/school-71.png"}, {"rating": 3.5, "user_ratings_total": 14, "permanently_closed": true, "name": "Eden Buds Play School and Daycare", "reference": "ChIJBbRDIVhkUjoRZyOOOs6Ivx8", "geometry": {"location": {"lat": 13.1241712, "lng": 80.2206949}, "viewport": {"northeast": {"lat": 13.1255200802915, "lng": 80.2220308302915}, "southwest": {"lat": 13.1228221197085, "lng": 80.2193328697085}}}, "place_id": "ChIJBbRDIVhkUjoRZyOOOs6Ivx8", "plus_code": {"global_code": "7M5246FC+M7", "compound_code": "46FC+M7 Chennai, Tamil Nadu, India"}, "vicinity": "2nd Street, Somanathapuram, Kolathur, Chennai", "scope": "GOOGLE", "business_status": "CLOSED_TEMPORARILY", "types": ["school", "point_of_interest", "establishment"], "icon": "https://maps.gstatic.com/mapfiles/place_api/icons/v1/png_71/school-71.png"}, {"rating": 4.9, "user_ratings_total": 29, "name": "Melody School Of Music And Arts", "reference": "ChIJd0IyMlFkUjoRwcwRUcF35AA", "geometry": {"location": {"lat": 13.119988, "lng": 80.22452899999999}, "viewport": {"northeast": {"lat": 13.1213616302915, "lng": 80.2259032802915}, "southwest": {"lat": 13.1186636697085, "lng": 80.22320531970848}}}, "opening_hours": {"open_now": false}, "place_id": "ChIJd0IyMlFkUjoRwcwRUcF35AA", "plus_code": {"global_code": "7M52469F+XR", "compound_code": "469F+XR Chennai, Tamil Nadu, India"}, "vicinity": "8A,SRP Colony,Papermills Road,peravallur, Kolathur(opp to Don Bosco School), Chennai", "photos": [{"photo_reference": "ATtYBwJtTcQUswKFhbOk1pTqraHMeJzOhMMrp0fksIRKKuRnJfoDL8jF2fuJj2dXe0HMLmw9B7bONEcd0E3ddSvxEfBrR2a551gC4E1LLpd2h5k3J66qH7-1DTOv2x1vGy-90S9VScgogLtHqjiMswT0DpmnAqP1K7jVPfjdzDC31Ukzzt8", "width": 1952, "html_attributions": ["<a href=\"https://maps.google.com/maps/contrib/116109201938818911234\">Melody School Of Music And Arts</a>"], "height": 4160}], "scope": "GOOGLE", "business_status": "OPERATIONAL", "types": ["school", "point_of_interest", "establishment"], "icon": "https://maps.gstatic.com/mapfiles/place_api/icons/v1/png_71/school-71.png"}, {"rating": 3.4, "user_ratings_total": 17, "permanently_closed": true, "name": "Dhanish Matriculation Higher Secondary School", "reference": "ChIJBWnD3FpkUjoRLwLG4t1juQ4", "geometry": {"location": {"lat": 13.1179625, "lng": 80.2157203}, "viewport": {"northeast": {"lat": 13.1192209802915, "lng": 80.21708868029151}, "southwest": {"lat": 13.1165230197085, "lng": 80.2143907197085}}}, "place_id": "ChIJBWnD3FpkUjoRLwLG4t1juQ4", "plus_code": {"global_code": "7M524698+57", "compound_code": "4698+57 Chennai, Tamil Nadu, India"}, "vicinity": "No.10, V Extension, Kambar Nagar, Chennai", "photos": [{"photo_reference": "ATtYBwIGMyWql17gPN2c63T__eLekbwNeE1lVrVT0IfwPE_OiLMWZV53-s5rGGCap440Mn2a3w10_cAbTDbypBnVJ8Auyf4ixSJ0jWu2OJEruklD4uy98OKaNFPY9ek9cf-iEOqJzR6E_Mj-iSj0qLTPv2ccJ90nTz_EcmByds6nEQ4Yc7vh", "width": 1080, "html_attributions": ["<a href=\"https://maps.google.com/maps/contrib/111491629195769135038\">Mohamed Saleem</a>"], "height": 1920}], "scope": "GOOGLE", "business_status": "CLOSED_TEMPORARILY", "types": ["secondary_school", "school", "point_of_interest", "establishment"], "icon": "https://maps.gstatic.com/mapfiles/place_api/icons/v1/png_71/school-71.png"}, {"rating": 4.9, "user_ratings_total": 22, "name": "MARUTI SEVA", "reference": "ChIJudIwHFxkUjoRtu4kJLFmsHw", "geometry": {"location": {"lat": 13.1196627, "lng": 80.2144302}, "viewport": {"northeast": {"lat": 13.1210105802915, "lng": 80.2157018802915}, "southwest": {"lat": 13.1183126197085, "lng": 80.2130039197085}}}, "place_id": "ChIJudIwHFxkUjoRtu4kJLFmsHw", "plus_code": {"global_code": "7M524697+VQ", "compound_code": "4697+VQ Chennai, Tamil Nadu, India"}, "vicinity": "no. 6, Poompuhar Nagar 7th Cross Street, North Jaganatha Nagar, Poompuhar Nagar, Kolathur, Chennai", "photos": [{"photo_reference": "ATtYBwKbDhKXj-2rQjadig0itN9JsWHhNtkfZDWEtWwIzY2STfGH195jwTdxEJRJEVFQA58uk1ToNq5BQqC9D24MIuwCt3Zr3UFFRCQoEdFZmwfuh_GQnvCbk8P6M6wDm6t-gx0lF1jczbAEuRqr3hVOIsHtICE7Nzc42SdRcacH-716KDg", "width": 4288, "html_attributions": ["<a href=\"https://maps.google.com/maps/contrib/101052465892032492155\">Jagadish</a>"], "height": 2848}], "scope": "GOOGLE", "business_status": "OPERATIONAL", "types": ["place_of_worship", "school", "point_of_interest", "establishment"], "icon": "https://maps.gstatic.com/mapfiles/place_api/icons/v1/png_71/school-71.png"}, {"permanently_closed": true, "name": "Kids Care International", "reference": "ChIJLzqLpF5kUjoR0T2lwRP6qSk", "geometry": {"location": {"lat": 13.1204461, "lng": 80.21443780000001}, "viewport": {"northeast": {"lat": 13.1218250802915, "lng": 80.2157870802915}, "southwest": {"lat": 13.1191271197085, "lng": 80.2130891197085}}}, "place_id": "ChIJLzqLpF5kUjoR0T2lwRP6qSk", "plus_code": {"global_code": "7M5246C7+5Q", "compound_code": "46C7+5Q Chennai, Tamil Nadu, India"}, "vicinity": "New No.13, Roshni Enclave, 1310, 2nd Main Road, Poompuhar Nagar, Kolathur, Chennai", "scope": "GOOGLE", "business_status": "CLOSED_TEMPORARILY", "types": ["school", "point_of_interest", "establishment"], "icon": "https://maps.gstatic.com/mapfiles/place_api/icons/v1/png_71/school-71.png"}, {"permanently_closed": true, "name": "Shine Academy", "reference": "ChIJ_____1xkUjoRzceXaGOCx98", "geometry": {"location": {"lat": 13.1204, "lng": 80.214294}, "viewport": {"northeast": {"lat": 13.1217489302915, "lng": 80.2156546302915}, "southwest": {"lat": 13.1190509697085, "lng": 80.21295666970849}}}, "place_id": "ChIJ_____1xkUjoRzceXaGOCx98", "vicinity": "opp. to Mookambikai Complex, 11B, SivaParvati Nagar, Kolathur, opp. to Mookambikai Complex, Chennai", "scope": "GOOGLE", "business_status": "CLOSED_TEMPORARILY", "types": ["school", "point_of_interest", "establishment"], "icon": "https://maps.gstatic.com/mapfiles/place_api/icons/v1/png_71/school-71.png"}, {"permanently_closed": true, "name": "Corporation Middle School", "reference": "ChIJbzvoeFhkUjoRNAc3zOR4w0E", "geometry": {"location": {"lat": 13.1256285, "lng": 80.2186275}, "viewport": {"northeast": {"lat": 13.1268452802915, "lng": 80.22000518029151}, "southwest": {"lat": 13.1241473197085, "lng": 80.2173072197085}}}, "place_id": "ChIJbzvoeFhkUjoRNAc3zOR4w0E", "plus_code": {"global_code": "7M5246G9+7F", "compound_code": "46G9+7F Chennai, Tamil Nadu, India"}, "vicinity": "22,sivan Koil North Mada St, villivakkam, Chennai", "scope": "GOOGLE", "business_status": "CLOSED_TEMPORARILY", "types": ["secondary_school", "school", "point_of_interest", "establishment"], "icon": "https://maps.gstatic.com/mapfiles/place_api/icons/v1/png_71/school-71.png"}, {"rating": 4.1, "user_ratings_total": 172, "name": "Everwin Vidhyashram", "reference": "ChIJD2lW5PdkUjoRuMN0I2GMZDI", "geometry": {"location": {"lat": 13.1265165, "lng": 80.22001329999999}, "viewport": {"northeast": {"lat": 13.1279334302915, "lng": 80.22131098029149}, "southwest": {"lat": 13.1252354697085, "lng": 80.21861301970849}}}, "opening_hours": {"open_now": false}, "place_id": "ChIJD2lW5PdkUjoRuMN0I2GMZDI", "plus_code": {"global_code": "7M5246GC+J2", "compound_code": "46GC+J2 Chennai, Tamil Nadu, India"}, "vicinity": "M9, Meenakshi Nagar, Balakumaran Nagar, Kolathur, Chennai", "photos": [{"photo_reference": "ATtYBwImib2IooHTOA4hVeenbvU2rhiulxVQtJ0JCSGllfVgB195LMSRVMh_vzjfQo83HAWYDvpK9iWsHeoj8-UmWQA7jN0_1PxwmKMTo3SxwrdYv1w6HlBfYTCWXnDgQdRj9FqRxqapi7fBgxy9Et7goz5asdR68e8U3Wqdt7zspz-fyMHI", "width": 3872, "html_attributions": ["<a href=\"https://maps.google.com/maps/contrib/115679567917131946654\">Everwin Vidhyashram</a>"], "height": 2592}], "scope": "GOOGLE", "business_status": "OPERATIONAL", "types": ["school", "point_of_interest", "establishment"], "icon": "https://maps.gstatic.com/mapfiles/place_api/icons/v1/png_71/school-71.png"}, {"rating": 4.1, "user_ratings_total": 189, "name": "Everwin Matriculation Higher Secondary School", "reference": "ChIJ7aHS8fdkUjoRUqNUD-igX4I", "geometry": {"location": {"lat": 13.1268097, "lng": 80.2204557}, "viewport": {"northeast": {"lat": 13.1281682802915, "lng": 80.2220397302915}, "southwest": {"lat": 13.1254703197085, "lng": 80.21934176970849}}}, "opening_hours": {"open_now": false}, "place_id": "ChIJ7aHS8fdkUjoRUqNUD-igX4I", "plus_code": {"global_code": "7M5246GC+P5", "compound_code": "46GC+P5 Chennai, Tamil Nadu, India"}, "vicinity": "12, 3, Red Hills Road, Thirupathi Nagar, Kolathur, Chennai", "photos": [{"photo_reference": "ATtYBwI0AxHei28FDIlPzWHf2PlWCVNqJ8u5ksJNTyj1MHME59SbiziyJD4dleY8r6i_Kmf4yfHdS5gyF4AAdnAljfhs8qf7j3tm2ZC9s2GwBv_trDNg7PS2btl0oyIZIHEPVHzHKm6slZfDwn25eUh3W1SbY5AwUL-Epiom4q6XYrTUFUzR", "width": 2048, "html_attributions": ["<a href=\"https://maps.google.com/maps/contrib/106865281269030028314\">Everwin Matriculation Higher Secondary School</a>"], "height": 1365}], "scope": "GOOGLE", "business_status": "OPERATIONAL", "types": ["secondary_school", "school", "point_of_interest", "establishment"], "icon": "https://maps.gstatic.com/mapfiles/place_api/icons/v1/png_71/school-71.png"}, {"rating": 4, "user_ratings_total": 1, "permanently_closed": true, "name": "Kinder World", "reference": "ChIJnc58MfZkUjoRCzVb6mWjRyc", "geometry": {"location": {"lat": 13.1266813, "lng": 80.2178309}, "viewport": {"northeast": {"lat": 13.1280617802915, "lng": 80.21917963029149}, "southwest": {"lat": 13.1253638197085, "lng": 80.21648166970849}}}, "place_id": "ChIJnc58MfZkUjoRCzVb6mWjRyc", "plus_code": {"global_code": "7M5246G9+M4", "compound_code": "46G9+M4 Chennai, Tamil Nadu, India"}, "vicinity": "Perambur Red Hills Road, Selli Amman Nagar, Kolathur, Chennai", "photos": [{"photo_reference": "ATtYBwKLVF68AmCGuvKUcfUlMSihiA2ibtCWuGuokEWOEFU4pbwR2tRxmVgpzvXAXvpju77UzaID91ose-rFEL9-mX-fCnLuSbNmTiI1zIiugeNswDO_0ez1x-FzIOi79-dfLjE9o-8Xv3oAx-4Aed2c3FDXICTPsfxfXLQcE5ipSabDwZV0", "width": 5152, "html_attributions": ["<a href=\"https://maps.google.com/maps/contrib/104210898918278865725\">Kinder world</a>"], "height": 3864}], "scope": "GOOGLE", "business_status": "CLOSED_TEMPORARILY", "types": ["school", "point_of_interest", "establishment"], "icon": "https://maps.gstatic.com/mapfiles/place_api/icons/v1/png_71/school-71.png"}, {"rating": 5, "user_ratings_total": 19, "permanently_closed": true, "name": "Little Millennium - Periyar Nagar - Chennai", "reference": "ChIJ28Y7oFVkUjoRMZxhSwQFysI", "geometry": {"location": {"lat": 13.1158691, "lng": 80.2274669}, "viewport": {"northeast": {"lat": 13.1172310302915, "lng": 80.2287670802915}, "southwest": {"lat": 13.1145330697085, "lng": 80.2260691197085}}}, "place_id": "ChIJ28Y7oFVkUjoRMZxhSwQFysI", "plus_code": {"global_code": "7M52468G+8X", "compound_code": "468G+8X Chennai, Tamil Nadu, India"}, "vicinity": "behind IOB, Plot No: C-319, Door No: 3, Chandra Sekaran Salai, behind IOB, Periyar Nagar West, Chennai", "photos": [{"photo_reference": "ATtYBwJIwA1KeWKtf3x0kUhvMNKB71ECzCLzMd9aVYkVIuqgE_NvXeHi1xdNl6MqJ-ul7Pch3EVUPkPrkNPLAf77AzT_Na6Z2YjnFWaMb95PaJy6fAwY2EENNcqc8K3iYW8K2MHmra-Zqzla9G2KfTC3o33u0RbNhXGu0TCxkuvIUkl9RwjD", "width": 4160, "html_attributions": ["<a href=\"https://maps.google.com/maps/contrib/114979333197509280281\">Little Millennium - Periyar Nagar - Chennai</a>"], "height": 3120}], "scope": "GOOGLE", "business_status": "CLOSED_TEMPORARILY", "types": ["school", "point_of_interest", "establishment"], "icon": "https://maps.gstatic.com/mapfiles/place_api/icons/v1/png_71/school-71.png"}, {"rating": 4.8, "user_ratings_total": 8, "permanently_closed": true, "name": "Nest Play School & Pre School", "reference": "ChIJNxQ5JfhkUjoRafzDDzQNmUA", "geometry": {"location": {"lat": 13.1279178, "lng": 80.22162279999999}, "viewport": {"northeast": {"lat": 13.1292604802915, "lng": 80.2229717802915}, "southwest": {"lat": 13.1265625197085, "lng": 80.2202738197085}}}, "place_id": "ChIJNxQ5JfhkUjoRafzDDzQNmUA", "plus_code": {"global_code": "7M5246HC+5J", "compound_code": "46HC+5J Chennai, Tamil Nadu, India"}, "vicinity": "28/12, 4th Main Road, Thirupathi Nagar, Kolathur, Chennai", "photos": [{"photo_reference": "ATtYBwI1DKoDXK_FR6o68NeMW0bbnbqMjeGtJ4H_JYM5V6x-70zmTDSfAZfYb43tGAHGjvlopyGObj2oVBni2PcsEXV_mpd3YBgLN3F8wMqIvS2tps8n4-2ocPhJzcVYQho_P_oKaodusDes_IzfYCkcn5VxgDDMPB0aVIQ3BtmU5KjFWeEE", "width": 4608, "html_attributions": ["<a href=\"https://maps.google.com/maps/contrib/105771848178925579417\">Nest Playschool</a>"], "height": 3456}], "scope": "GOOGLE", "business_status": "CLOSED_TEMPORARILY", "types": ["school", "point_of_interest", "establishment"], "icon": "https://maps.gstatic.com/mapfiles/place_api/icons/v1/png_71/school-71.png"}, {"rating": 5, "user_ratings_total": 2, "permanently_closed": true, "name": "little mermaids playschool", "reference": "ChIJ64HXQFRkUjoRq5hfcMVmPCo", "geometry": {"location": {"lat": 13.12222, "lng": 80.2279884}, "viewport": {"northeast": {"lat": 13.1235700302915, "lng": 80.2293214302915}, "southwest": {"lat": 13.1208720697085, "lng": 80.22662346970849}}}, "place_id": "ChIJ64HXQFRkUjoRq5hfcMVmPCo", "plus_code": {"global_code": "7M5246CH+V5", "compound_code": "46CH+V5 Chennai, Tamil Nadu, India"}, "vicinity": "Krishna Nagar, Perambur, Chennai", "photos": [{"photo_reference": "ATtYBwKZ8OkDHM8wZo0nZ7_VAlO3FrCn3jgAMQB7jjA8DUbELpRsbDab-6DpbGhue0O0eVxb8pyCLBdrlj_SjaQ4i8eHkZhLZ8j0wUtMDUg51LNhMOmawuCl6u0SlPhorDEz9cs8mBfHjeGztqfI-Fl8BrO2_nhhsFGVrx03y-Ya5FbNg4Ln", "width": 720, "html_attributions": ["<a href=\"https://maps.google.com/maps/contrib/103824860428470175683\">little mermaids playschool</a>"], "height": 720}], "scope": "GOOGLE", "business_status": "CLOSED_TEMPORARILY", "types": ["school", "point_of_interest", "establishment"], "icon": "https://maps.gstatic.com/mapfiles/place_api/icons/v1/png_71/school-71.png"}, {"permanently_closed": true, "name": "Corporation Primary School", "reference": "ChIJVVVV5URkUjoRFo5ptVI5JoY", "geometry": {"location": {"lat": 13.1121782, "lng": 80.2174914}, "viewport": {"northeast": {"lat": 13.1135391802915, "lng": 80.21874153029151}, "southwest": {"lat": 13.1108412197085, "lng": 80.2160435697085}}}, "place_id": "ChIJVVVV5URkUjoRFo5ptVI5JoY", "plus_code": {"global_code": "7M524668+VX", "compound_code": "4668+VX Chennai, Tamil Nadu, India"}, "vicinity": "General Kumaramangalam Colony, Kolathur, Chennai", "scope": "GOOGLE", "business_status": "CLOSED_TEMPORARILY", "types": ["primary_school", "school", "point_of_interest", "establishment"], "icon": "https://maps.gstatic.com/mapfiles/place_api/icons/v1/png_71/school-71.png"}, {"rating": 3.9, "user_ratings_total": 74, "name": "Kulapati Dr. S. Balakrishna Joshi Gurrukulam Matriculation Higher Secondary School", "reference": "ChIJRTGo8GZkUjoR365nn3ksdl8", "geometry": {"location": {"lat": 13.115958, "lng": 80.2126043}, "viewport": {"northeast": {"lat": 13.1172560302915, "lng": 80.21407698029151}, "southwest": {"lat": 13.1145580697085, "lng": 80.2113790197085}}}, "place_id": "ChIJRTGo8GZkUjoR365nn3ksdl8", "plus_code": {"global_code": "7M524687+92", "compound_code": "4687+92 Chennai, Tamil Nadu, India"}, "vicinity": "2nd Street, Chennai", "photos": [{"photo_reference": "ATtYBwJ2Uso3Dfsbz2TRTGVpA6Q59gyj8PAGdbY7hMpbBKmPgLwVjG2-cVS4jriU05aKl-IqexfPfgnZz-1wgzlbD_SnflVFXjs7MntYN76B0vzanzhi6AJhOkMW8ZLSNOPtS1GsEv7diuicMOPsqoQrFxjEqHcVfsEt7u2d7iAOjPw9fbjx", "width": 1920, "html_attributions": ["<a href=\"https://maps.google.com/maps/contrib/110264875856491768947\">Tekraj Sharma</a>"], "height": 1080}], "scope": "GOOGLE", "business_status": "OPERATIONAL", "types": ["school", "point_of_interest", "establishment"], "icon": "https://maps.gstatic.com/mapfiles/place_api/icons/v1/png_71/school-71.png"}, {"permanently_closed": true, "name": "Kidz Einstein Playschool", "reference": "ChIJp9sbRfhkUjoR0rwxT6FJ13k", "geometry": {"location": {"lat": 13.1279228, "lng": 80.2229578}, "viewport": {"northeast": {"lat": 13.1292983802915, "lng": 80.22430593029151}, "southwest": {"lat": 13.1266004197085, "lng": 80.22160796970849}}}, "place_id": "ChIJp9sbRfhkUjoR0rwxT6FJ13k", "plus_code": {"global_code": "7M5246HF+55", "compound_code": "46HF+55 Ponniammanmedu, Chennai, Tamil Nadu, India"}, "vicinity": "63-68, 4th Main Road, Iyappan Nagar, Thirupathi Nagar, Ponniammanmedu", "scope": "GOOGLE", "business_status": "CLOSED_TEMPORARILY", "types": ["school", "point_of_interest", "establishment"], "icon": "https://maps.gstatic.com/mapfiles/place_api/icons/v1/png_71/school-71.png"}]}