{"status": "OK", "next_page_token": "ATtYBwI8uozzcBWt2xYZLfFewCRR3WHMmBK1FiLSlefLU3jKhBwPWiLEZGYGRsUpgpmvsguIo7_Q4KSPYxojjI1cGiOEvMCuaL6L3u02gGRYja5ruXYK1URXvMcBT6n9uT_xj0yv7SmcCmCIxVYCcBQF-hHQREfk06-8Whg7SbBDldoxL8nFjqy6QNIsk56DeNazMINidkSrErNIjgvrRxfvDeYb2q-CVaFuYeEEl1_70g-D6SH5cvCAR0o14kyPWwNtCEvAkzPWnlrQRkGoqpU9NW0yTAAnzm5ROuOkZphR5IyPW1LfFbt-Pw_-fLAbo9O8CfZ7U7ghM2utbs5wKgbAaFNjkMuz3DmrkbyCGf2BiHj3oiKZcXNRuQmPSRRTdKOXlgbJwnbQvHXP-Qg6sNDIdxA7eTsHAp3JLF4jMyYgA_k2XC-iEig", "html_attributions": [], "results": [{"rating": 5, "user_ratings_total": 6, "permanently_closed": true, "name": "Cinthamani Entertainment Technologies Academy", "reference": "ChIJK99JqVZmUjoRWwGGSFHOfn8", "geometry": {"location": {"lat": 13.0413388, "lng": 80.2372728}, "viewport": {"northeast": {"lat": 13.0426254802915, "lng": 80.23861593029152}, "southwest": {"lat": 13.0399275197085, "lng": 80.2359179697085}}}, "place_id": "ChIJK99JqVZmUjoRWwGGSFHOfn8", "plus_code": {"global_code": "7M5226RP+GW", "compound_code": "26RP+GW Chennai, Tamil Nadu, India"}, "vicinity": "48, Raja Badar Street, T Nagar, Parthasarathi Puram, T. Nagar, Chennai", "scope": "GOOGLE", "business_status": "CLOSED_TEMPORARILY", "types": ["school", "point_of_interest", "establishment"], "icon": "https://maps.gstatic.com/mapfiles/place_api/icons/v1/png_71/school-71.png"}, {"rating": 4.8, "user_ratings_total": 5, "permanently_closed": true, "name": "KRASPP Kids Academy (Play School Chennai/ Pre School Chennai/ Creche Chennai/ Day Care Chennai)", "reference": "ChIJcxX8qVdmUjoRHJNYtTgBWTU", "geometry": {"location": {"lat": 13.037926, "lng": 80.2406563}, "viewport": {"northeast": {"lat": 13.0393302802915, "lng": 80.24201213029151}, "southwest": {"lat": 13.0366323197085, "lng": 80.2393141697085}}}, "place_id": "ChIJcxX8qVdmUjoRHJNYtTgBWTU", "plus_code": {"global_code": "7M5226QR+57", "compound_code": "26QR+57 Chennai, Tamil Nadu, India"}, "vicinity": "No: 55, Saravana Street, Opp to Valli Driving School, T Nagar, Chennai", "scope": "GOOGLE", "business_status": "CLOSED_TEMPORARILY", "types": ["school", "point_of_interest", "establishment"], "icon": "https://maps.gstatic.com/mapfiles/place_api/icons/v1/png_71/school-71.png"}, {"rating": 3.7, "user_ratings_total": 44, "permanently_closed": true, "name": "Sarada Vidyalaya Model Girls' School", "reference": "ChIJATJ3AABnUjoRBgnrrMctf7o", "geometry": {"location": {"lat": 13.0348356, "lng": 80.2322343}, "viewport": {"northeast": {"lat": 13.0361490302915, "lng": 80.23357808029151}, "southwest": {"lat": 13.0334510697085, "lng": 80.2308801197085}}}, "place_id": "ChIJATJ3AABnUjoRBgnrrMctf7o", "plus_code": {"global_code": "7M5226MJ+WV", "compound_code": "26MJ+WV Chennai, Tamil Nadu, India"}, "vicinity": "45, Burkit Road, T. Nagar, Chennai", "photos": [{"photo_reference": "ATtYBwK7TgiVHjU6DoTYVQQBxZQ4Onmik0DT_-TOwqWuxG03Afq-hxjR-e_HDfZ7wqdzlrvYrOho4UAeoQyOGahMqmQzl-WzfSaLPc2IItSjHuitrnehCt_FhduHEgTW3_kH2g7HKqP95067oNUgvUEurYVj_CFqEfaIMTy9ng5-C01QnH2T", "width": 4608, "html_attributions": ["<a href=\"https://maps.google.com/maps/contrib/112126712477782348600\">Aswin Jeno</a>"], "height": 3456}], "scope": "GOOGLE", "business_status": "CLOSED_TEMPORARILY", "types": ["school", "point_of_interest", "establishment"], "icon": "https://maps.gstatic.com/mapfiles/place_api/icons/v1/png_71/school-71.png"}, {"rating": 3.7, "user_ratings_total": 7, "name": "Anjuman-E-Himayath-E-Islam", "reference": "ChIJT55JO2pmUjoRaIUd5LM9D9s", "geometry": {"location": {"lat": 13.04385, "lng": 80.2450418}, "viewport": {"northeast": {"lat": 13.0452284302915, "lng": 80.2461895802915}, "southwest": {"lat": 13.0425304697085, "lng": 80.2434916197085}}}, "opening_hours": {"open_now": true}, "place_id": "ChIJT55JO2pmUjoRaIUd5LM9D9s", "plus_code": {"global_code": "7M5226VW+G2", "compound_code": "26VW+G2 Chennai, Tamil Nadu, India"}, "vicinity": "16, Vijayaraghava Road, (BN Reddy Road), Opp. Hyatt Regency, T. Nagar, Chennai", "photos": [{"photo_reference": "ATtYBwKx4AZukY4_AK7BZ7JdBeS_Ud2hCIfLOlZ2LLQIOqhENj-rZRC8S3KHetha_LVZ9a0LPdxuQPZUz7c3i5iy5gjV9HNF4lBeAHsvUGo_jMo8ViTifinB2XctbHlwATku4cnZ8llnLZ5Gmhj00am3ltvs074cO-ypnfLBoHVb5JXg8551", "width": 720, "html_attributions": ["<a href=\"https://maps.google.com/maps/contrib/114404673779118672553\">Naseema Bee</a>"], "height": 866}], "scope": "GOOGLE", "business_status": "OPERATIONAL", "types": ["school", "point_of_interest", "establishment"], "icon": "https://maps.gstatic.com/mapfiles/place_api/icons/v1/png_71/school-71.png"}, {"rating": 4.4, "user_ratings_total": 55, "name": "Ramakrishna Mission Sarada Vidyalaya Girls Higher Secondary School", "reference": "ChIJs2_dH1ZmUjoRMJvs7qNMTnU", "geometry": {"location": {"lat": 13.0422765, "lng": 80.232079}, "viewport": {"northeast": {"lat": 13.0436200802915, "lng": 80.2335009802915}, "southwest": {"lat": 13.0409221197085, "lng": 80.23080301970849}}}, "opening_hours": {"open_now": false}, "place_id": "ChIJs2_dH1ZmUjoRMJvs7qNMTnU", "plus_code": {"global_code": "7M5226RJ+WR", "compound_code": "26RJ+WR Chennai, Tamil Nadu, India"}, "vicinity": "North Usman Road, Thiyagaraya Nagar, Chennai", "photos": [{"photo_reference": "ATtYBwJHyjkUjnNGoaf3balVVWS_whVQstGUMonEOlyiVtjGcrly_J9C1N4gMDef8ZR4bWkdWovZmD6tH7Rb-Qe1qurhV3AbbliRkqpW6lE7KoYLRJ_tsH8gLVfsm29hIxlCWZQkNa0vsvs6bDjsCnH6kqaIcsIaqXFbltaflCSACDsCDh1i", "width": 4618, "html_attributions": ["<a href=\"https://maps.google.com/maps/contrib/118070305515646382567\">Kannan Esakki</a>"], "height": 3463}], "scope": "GOOGLE", "business_status": "OPERATIONAL", "types": ["school", "point_of_interest", "establishment"], "icon": "https://maps.gstatic.com/mapfiles/place_api/icons/v1/png_71/school-71.png"}, {"rating": 4.6, "user_ratings_total": 209, "name": "Pink Fitness - Ladies Gym Tnagar", "reference": "ChIJ4UuHoVFmUjoRqM1YfRZE1sQ", "geometry": {"location": {"lat": 13.04265, "lng": 80.2409474}, "viewport": {"northeast": {"lat": 13.0440426302915, "lng": 80.2423039302915}, "southwest": {"lat": 13.04134466970849, "lng": 80.23960596970849}}}, "opening_hours": {"open_now": false}, "place_id": "ChIJ4UuHoVFmUjoRqM1YfRZE1sQ", "plus_code": {"global_code": "7M5226VR+39", "compound_code": "26VR+39 Chennai, Tamil Nadu, India"}, "vicinity": "Building No. 29, Dr. Nair Road, Opp. Grand Sweets,, Venkataraman Street, T.Nagar, Chennai", "photos": [{"photo_reference": "ATtYBwJElKD3FKghM5TqlauottXYxWaXYv5ysTRSPOvj0EFFiU_t16x7gobHIX9Hq4k99Jpwg4k3ureWGW5ykFMgqTkqKt2It9b4lTxcwQklexPfvXVg_fCJndGKRO2wbn0OjE4974WeAjm8B4Crf-hTjk01H-GRpDatOEea7Idj04jZx221", "width": 2048, "html_attributions": ["<a href=\"https://maps.google.com/maps/contrib/112945356435835769840\">Pink Fitness - Ladies Gym Tnagar</a>"], "height": 1365}], "scope": "GOOGLE", "business_status": "OPERATIONAL", "types": ["gym", "physiotherapist", "school", "health", "point_of_interest", "establishment"], "icon": "https://maps.gstatic.com/mapfiles/place_api/icons/v1/png_71/generic_business-71.png"}, {"rating": 4.8, "user_ratings_total": 6, "permanently_closed": true, "name": "F2FX Dance Studio", "reference": "ChIJSfSwtFZmUjoRS5EWg56Jc78", "geometry": {"location": {"lat": 13.0421838, "lng": 80.2376716}, "viewport": {"northeast": {"lat": 13.0433874302915, "lng": 80.2390083302915}, "southwest": {"lat": 13.0406894697085, "lng": 80.23631036970849}}}, "place_id": "ChIJSfSwtFZmUjoRS5EWg56Jc78", "plus_code": {"global_code": "7M5226RQ+V3", "compound_code": "26RQ+V3 Chennai, Tamil Nadu, India"}, "vicinity": "8/24, Parthasarathi Puram, T. Nagar, Chennai", "scope": "GOOGLE", "business_status": "CLOSED_TEMPORARILY", "types": ["school", "point_of_interest", "establishment"], "icon": "https://maps.gstatic.com/mapfiles/place_api/icons/v1/png_71/school-71.png"}, {"permanently_closed": true, "name": "Winspire School of Business Administration", "reference": "ChIJVSIehFJmUjoRu6VldlXnft4", "geometry": {"location": {"lat": 13.0380854, "lng": 80.24282649999999}, "viewport": {"northeast": {"lat": 13.0395759802915, "lng": 80.2441907302915}, "southwest": {"lat": 13.0368780197085, "lng": 80.2414927697085}}}, "place_id": "ChIJVSIehFJmUjoRu6VldlXnft4", "plus_code": {"global_code": "7M5226QV+64", "compound_code": "26QV+64 Chennai, Tamil Nadu, India"}, "vicinity": "New # 16, First Floor, South Boag Road, T. Nagar, Chennai - 600061", "scope": "GOOGLE", "business_status": "CLOSED_TEMPORARILY", "types": ["school", "point_of_interest", "establishment"], "icon": "https://maps.gstatic.com/mapfiles/place_api/icons/v1/png_71/school-71.png"}, {"rating": 4.8, "user_ratings_total": 32, "name": "Chess Gurukul", "reference": "ChIJVeV8OVNmUjoROMhaMFTi1qw", "geometry": {"location": {"lat": 13.0360089, "lng": 80.2414586}, "viewport": {"northeast": {"lat": 13.0374020302915, "lng": 80.2428118802915}, "southwest": {"lat": 13.0347040697085, "lng": 80.24011391970849}}}, "opening_hours": {"open_now": false}, "place_id": "ChIJVeV8OVNmUjoROMhaMFTi1qw", "plus_code": {"global_code": "7M5226PR+CH", "compound_code": "26PR+CH Chennai, Tamil Nadu, India"}, "vicinity": "Old No. 5, New No. 15, A-2, First Floor (Near BJP office), Vaidyaraman Street, T. Nagar, Chennai", "photos": [{"photo_reference": "ATtYBwJ5UnJduYEZTHs3IPHpCuHH70PWFZVsuFVn9UMa6V2oSdtd1M1ogHSZsfyk0lSEt0RVig6ya313EFJM2q6iQ4Uu84Yk8EtXrVDOYV6d0sTB7dJ8NSHAKeopVosezwYAkrv2OSaHp96eUIWEp4TUXRwIzoqNxiLLdGsar9VEGt85KsZM", "width": 2048, "html_attributions": ["<a href=\"https://maps.google.com/maps/contrib/112628702744325666427\">Chess Gurukul</a>"], "height": 1536}], "scope": "GOOGLE", "business_status": "OPERATIONAL", "types": ["school", "point_of_interest", "establishment"], "icon": "https://maps.gstatic.com/mapfiles/place_api/icons/v1/png_71/school-71.png"}, {"rating": 4.6, "user_ratings_total": 20, "name": "Madras Dyslexia Association", "reference": "ChIJERYY0lZmUjoRxD2eV0JJlmA", "geometry": {"location": {"lat": 13.043529, "lng": 80.23714199999999}, "viewport": {"northeast": {"lat": 13.0448345302915, "lng": 80.2385160302915}, "southwest": {"lat": 13.0421365697085, "lng": 80.2358180697085}}}, "opening_hours": {"open_now": false}, "place_id": "ChIJERYY0lZmUjoRxD2eV0JJlmA", "plus_code": {"global_code": "7M5226VP+CV", "compound_code": "26VP+CV Chennai, Tamil Nadu, India"}, "vicinity": "Landmark - JJ Diamonds, 94, 1st Floor, Park View Complex, Park View Road (Jeeva Park, Gopathi Narayanaswami Chetty Road, T Nagar, Parthasarathi Puram, T. Nagar, Chennai", "photos": [{"photo_reference": "ATtYBwKtKCpiZm3ACJiW33OKgdTF9hpe36DCUAWfSOTeciRg4WyBP9Tf-OoC--k-O0FzSEBdkaCLJIXKV_o8E_qZJ29N4xZWC0x1MYUlXZ2AlWICSN-9W7v3ZXwC6DnCSXK9HfHfKlvkhRgIwuFddzqCP4itpI6Fmo526MzMjHrb_-IimJCP", "width": 3480, "html_attributions": ["<a href=\"https://maps.google.com/maps/contrib/114800276446866635116\">Satish Kumar Sarvesan</a>"], "height": 4640}], "scope": "GOOGLE", "business_status": "OPERATIONAL", "types": ["school", "point_of_interest", "establishment"], "icon": "https://maps.gstatic.com/mapfiles/place_api/icons/v1/png_71/school-71.png"}, {"permanently_closed": true, "name": "Evs Academy", "reference": "ChIJtQsolkZmUjoRRovnzNaJlfw", "geometry": {"location": {"lat": 13.0350602, "lng": 80.2392979}, "viewport": {"northeast": {"lat": 13.0364031302915, "lng": 80.24071433029151}, "southwest": {"lat": 13.0337051697085, "lng": 80.2380163697085}}}, "place_id": "ChIJtQsolkZmUjoRRovnzNaJlfw", "vicinity": "113, 3rd Floor, Ankur Plaza, G N Chetty Road, T Nagar, T Nagar, Chennai", "scope": "GOOGLE", "business_status": "CLOSED_TEMPORARILY", "types": ["school", "point_of_interest", "establishment"], "icon": "https://maps.gstatic.com/mapfiles/place_api/icons/v1/png_71/school-71.png"}, {"rating": 4.9, "user_ratings_total": 49, "name": "Global Rabbee -Play School T Nagar", "reference": "ChIJ52zQN61nUjoRs8eKcV3MB3E", "geometry": {"location": {"lat": 13.0349156, "lng": 80.2418522}, "viewport": {"northeast": {"lat": 13.0362828302915, "lng": 80.24320433029152}, "southwest": {"lat": 13.0335848697085, "lng": 80.2405063697085}}}, "opening_hours": {"open_now": true}, "place_id": "ChIJ52zQN61nUjoRs8eKcV3MB3E", "plus_code": {"global_code": "7M5226MR+XP", "compound_code": "26MR+XP Chennai, Tamil Nadu, India"}, "vicinity": "No 2, New no 3, Melony Road, T. Nagar, Chennai", "photos": [{"photo_reference": "ATtYBwKRFsIVwy30sWNeDnR6T_sMQVsMdOw2dc9AYwRQIGsqlxEJQFX-3-Kep65kVlJQFvga-PAVy4pN1Wn0wIQE1-2OiwJfcHuXcjdTNIUkNWe25c1KyCXoyTSY1Tnhl5oRr59dP1IOAey6JS2kvM43nqXdp8i_FihhFGmVqWS-mKBb_012", "width": 1280, "html_attributions": ["<a href=\"https://maps.google.com/maps/contrib/112576264443736553509\">Ash Aish</a>"], "height": 720}], "scope": "GOOGLE", "business_status": "OPERATIONAL", "types": ["school", "point_of_interest", "establishment"], "icon": "https://maps.gstatic.com/mapfiles/place_api/icons/v1/png_71/school-71.png"}, {"permanently_closed": true, "name": "Corporation School", "reference": "ChIJXefwTa1nUjoRs2UiVEjJRlM", "geometry": {"location": {"lat": 13.0352151, "lng": 80.2425595}, "viewport": {"northeast": {"lat": 13.0365067802915, "lng": 80.2439464802915}, "southwest": {"lat": 13.0338088197085, "lng": 80.24124851970849}}}, "place_id": "ChIJXefwTa1nUjoRs2UiVEjJRlM", "plus_code": {"global_code": "7M5226PV+32", "compound_code": "26PV+32 Chennai, Tamil Nadu, India"}, "vicinity": "Doctor Thomas Road, Anna Colony, T. Nagar, Chennai", "scope": "GOOGLE", "business_status": "CLOSED_TEMPORARILY", "types": ["school", "point_of_interest", "establishment"], "icon": "https://maps.gstatic.com/mapfiles/place_api/icons/v1/png_71/school-71.png"}, {"permanently_closed": true, "name": "Lions Club of Pavoorchathram central", "reference": "ChIJB7SB9lRmUjoRLMbne8tbr9s", "geometry": {"location": {"lat": 13.0364419, "lng": 80.2356183}, "viewport": {"northeast": {"lat": 13.0379128802915, "lng": 80.2369750302915}, "southwest": {"lat": 13.0352149197085, "lng": 80.2342770697085}}}, "place_id": "ChIJB7SB9lRmUjoRLMbne8tbr9s", "plus_code": {"global_code": "7M5226PP+H6", "compound_code": "26PP+H6 Chennai, Tamil Nadu, India"}, "vicinity": "33, Kannadasan Road, Parthasarathi Puram, T. Nagar, Chennai", "scope": "GOOGLE", "business_status": "CLOSED_TEMPORARILY", "types": ["school", "point_of_interest", "establishment"], "icon": "https://maps.gstatic.com/mapfiles/place_api/icons/v1/png_71/school-71.png"}, {"permanently_closed": true, "name": "Corporation Middle School", "reference": "ChIJXTXJEU1mUjoRrCei_PyWsFM", "geometry": {"location": {"lat": 13.0376844, "lng": 80.2451732}, "viewport": {"northeast": {"lat": 13.0390547302915, "lng": 80.24647618029151}, "southwest": {"lat": 13.0363567697085, "lng": 80.24377821970849}}}, "place_id": "ChIJXTXJEU1mUjoRrCei_PyWsFM", "plus_code": {"global_code": "7M5226QW+33", "compound_code": "26QW+33 Chennai, Tamil Nadu, India"}, "vicinity": "1,s.r.p.Koil Street North,gopalapuram, Chennai", "photos": [{"photo_reference": "ATtYBwImRVKhkuTabwuXjIALUe_x7vY3jawwHw3GHKo7juq5JafjcYhoA_R1qmytiSvIaAUtZoj5wMSA__vJOP2WWGK8xTdV_m-QmOCsUa_zeR63S7b1xD54R-qHGz9w_WdKcYD2dphbl2HRbhHuw5Nu8epxY5iz_JDraM7kXLLQvNeyqN-P", "width": 2576, "html_attributions": ["<a href=\"https://maps.google.com/maps/contrib/103603447668882923135\">R jogaram sencha Sencha</a>"], "height": 1932}], "scope": "GOOGLE", "business_status": "CLOSED_TEMPORARILY", "types": ["secondary_school", "school", "point_of_interest", "establishment"], "icon": "https://maps.gstatic.com/mapfiles/place_api/icons/v1/png_71/school-71.png"}, {"rating": 4.9, "user_ratings_total": 11, "permanently_closed": true, "name": "Kidzee Play School T Nagar", "reference": "ChIJBW8aLT5mUjoRxxT4STWxfAE", "geometry": {"location": {"lat": 13.0434221, "lng": 80.24461459999999}, "viewport": {"northeast": {"lat": 13.0447379802915, "lng": 80.2459575302915}, "southwest": {"lat": 13.0420400197085, "lng": 80.2432595697085}}}, "place_id": "ChIJBW8aLT5mUjoRxxT4STWxfAE", "plus_code": {"global_code": "7M5226VV+9R", "compound_code": "26VV+9R Chennai, Tamil Nadu, India"}, "vicinity": "No 2E, Vijay gardens, Vijayaraghava Lane, opposite to Anjuman School, Off, Vijaya Raghava Road, T. Nagar, Chennai", "photos": [{"photo_reference": "ATtYBwI5-9k2pVunGinvrJxhX7K1s_JREAozBSjuJt4osH7vWAoAGWIOE1BV8m2JQ2NWBGOld_B4HbVdQ5sRs0Sohw1Y7pQAUw5w6zRes92K4vZpvCqKwxg2NmXEhLc2IkoLvUu2Ybhm5iGauyopWbQF3vGKuysFOsIEZxxYCpe17drqQXIp", "width": 4032, "html_attributions": ["<a href=\"https://maps.google.com/maps/contrib/106175507487674322648\">Rifai Rahman M</a>"], "height": 3024}], "scope": "GOOGLE", "business_status": "CLOSED_TEMPORARILY", "types": ["school", "point_of_interest", "establishment"], "icon": "https://maps.gstatic.com/mapfiles/place_api/icons/v1/png_71/school-71.png"}, {"rating": 3, "user_ratings_total": 2, "permanently_closed": true, "name": "Ananya - Madras Dyslexia Association", "reference": "ChIJM7w_XU5mUjoRoLqY9sn8kx4", "geometry": {"location": {"lat": 13.0428335, "lng": 80.2455095}, "viewport": {"northeast": {"lat": 13.0441915802915, "lng": 80.2467790302915}, "southwest": {"lat": 13.0414936197085, "lng": 80.2440810697085}}}, "place_id": "ChIJM7w_XU5mUjoRoLqY9sn8kx4", "plus_code": {"global_code": "7M5226VW+46", "compound_code": "26VW+46 Chennai, Tamil Nadu, India"}, "vicinity": "Vijayaraghava 1st Street, Drivers Colony, T. Nagar, Chennai", "scope": "GOOGLE", "business_status": "CLOSED_TEMPORARILY", "types": ["school", "point_of_interest", "establishment"], "icon": "https://maps.gstatic.com/mapfiles/place_api/icons/v1/png_71/school-71.png"}, {"rating": 1, "user_ratings_total": 1, "permanently_closed": true, "name": "Sboa", "reference": "ChIJ15PU3VVmUjoR7s7kwO3q97g", "geometry": {"location": {"lat": 13.0405026, "lng": 80.2336924}, "viewport": {"northeast": {"lat": 13.0418336802915, "lng": 80.2350094302915}, "southwest": {"lat": 13.0391357197085, "lng": 80.23231146970849}}}, "place_id": "ChIJ15PU3VVmUjoR7s7kwO3q97g", "vicinity": "d, T. Nagar, Chennai", "scope": "GOOGLE", "business_status": "CLOSED_TEMPORARILY", "types": ["school", "point_of_interest", "establishment"], "icon": "https://maps.gstatic.com/mapfiles/place_api/icons/v1/png_71/school-71.png"}, {"name": "aam school", "reference": "ChIJ15PU3VVmUjoRe_dTKur9z3w", "geometry": {"location": {"lat": 13.0405026, "lng": 80.2336924}, "viewport": {"northeast": {"lat": 13.0418336802915, "lng": 80.2350094302915}, "southwest": {"lat": 13.0391357197085, "lng": 80.23231146970849}}}, "place_id": "ChIJ15PU3VVmUjoRe_dTKur9z3w", "vicinity": "Chennai, Parthasarathi Puram, T. Nagar, Chennai", "scope": "GOOGLE", "business_status": "OPERATIONAL", "types": ["school", "point_of_interest", "establishment"], "icon": "https://maps.gstatic.com/mapfiles/place_api/icons/v1/png_71/school-71.png"}, {"rating": 4.9, "user_ratings_total": 46, "name": "School of Carnatic Music", "reference": "ChIJaX4pKlVmUjoR7OuM6a-JHZs", "geometry": {"location": {"lat": 13.0355788, "lng": 80.23476889999999}, "viewport": {"northeast": {"lat": 13.0367779802915, "lng": 80.2360962802915}, "southwest": {"lat": 13.0340800197085, "lng": 80.23339831970848}}}, "opening_hours": {"open_now": false}, "place_id": "ChIJaX4pKlVmUjoR7OuM6a-JHZs", "plus_code": {"global_code": "7M5226PM+6W", "compound_code": "26PM+6W Chennai, Tamil Nadu, India"}, "vicinity": "Apt 3, Rajalakshmi, No 35,, Ramanujam Street, T Nagar, Chennai, India", "photos": [{"photo_reference": "ATtYBwLB-9sX9L82iW6ce7w_mXmYT1B1cZ0S9IihLMyq21G1ifFBYcne5FTRJJ8AjiTwuiG3_-mFpcb3h-2USXogEMkZQE-KNZv2VsR7QfrJ1NmxqcqqKH7dZNacfjtX-ncyKqsuWSAju_749-VgTycuGyGF0E8daAMWJaDObPW4D30jL0Yp", "width": 960, "html_attributions": ["<a href=\"https://maps.google.com/maps/contrib/107188123753711267065\">School of Carnatic Music</a>"], "height": 540}], "scope": "GOOGLE", "business_status": "OPERATIONAL", "types": ["school", "point_of_interest", "establishment"], "icon": "https://maps.gstatic.com/mapfiles/place_api/icons/v1/png_71/school-71.png"}]}