{"status": "OK", "html_attributions": [], "results": [{"permanently_closed": true, "name": "Chennai Corporation Tax Office", "reference": "ChIJMY2uaQReUjoRjm0rPZU8ynw", "geometry": {"location": {"lat": 12.9807181, "lng": 80.1801394}, "viewport": {"northeast": {"lat": 12.9821319802915, "lng": 80.1814777802915}, "southwest": {"lat": 12.9794340197085, "lng": 80.17877981970848}}}, "place_id": "ChIJMY2uaQReUjoRjm0rPZU8ynw", "plus_code": {"global_code": "7M42X5JJ+73", "compound_code": "X5JJ+73 Chennai, Tamil Nadu, India"}, "vicinity": "Kanakammal Colony, Pazavanthangal, Chennai", "scope": "GOOGLE", "business_status": "CLOSED_TEMPORARILY", "types": ["accounting", "finance", "local_government_office", "point_of_interest", "establishment"], "icon": "https://maps.gstatic.com/mapfiles/place_api/icons/v1/png_71/civic_building-71.png"}, {"permanently_closed": true, "name": "Vaaranam Aayiram Matrimony", "reference": "ChIJk1n5D_5dUjoRoHfeqvEtvQ4", "geometry": {"location": {"lat": 12.9829651, "lng": 80.1882281}, "viewport": {"northeast": {"lat": 12.9843073802915, "lng": 80.18966358029151}, "southwest": {"lat": 12.9816094197085, "lng": 80.18696561970849}}}, "place_id": "ChIJk1n5D_5dUjoRoHfeqvEtvQ4", "plus_code": {"global_code": "7M42X5MQ+57", "compound_code": "X5MQ+57 Chennai, Tamil Nadu, India"}, "vicinity": "No.15/25-G2, Next To Axis bank, 4th Main Road, NCBS Colony, Nanganallur, Chennai", "scope": "GOOGLE", "business_status": "CLOSED_TEMPORARILY", "types": ["local_government_office", "health", "point_of_interest", "establishment"], "icon": "https://maps.gstatic.com/mapfiles/place_api/icons/v1/png_71/generic_business-71.png"}, {"permanently_closed": true, "name": "SV Enterprises", "reference": "ChIJ6TLGnPtdUjoRgKhM_gzS3YU", "geometry": {"location": {"lat": 12.9770879, "lng": 80.18027119999999}, "viewport": {"northeast": {"lat": 12.9784146802915, "lng": 80.1815908302915}, "southwest": {"lat": 12.9757167197085, "lng": 80.17889286970849}}}, "place_id": "ChIJ6TLGnPtdUjoRgKhM_gzS3YU", "plus_code": {"global_code": "7M42X5GJ+R4", "compound_code": "X5GJ+R4 Chennai, Tamil Nadu, India"}, "vicinity": "No 6, Kamaraj Street, Ullagaram, Nanganallur, Chennai", "photos": [{"photo_reference": "ATtYBwKlG0PU0Gw2HYXKEe__UT-QxbZV2DgHz0umSbJWjG-2NnMb1aS16Y1UsCsAoqhsKmKxWKH_SfjLm9h8eh4iBVd0JtZLLC_nNbTp5Hg1umBOr4bG6yWGTWAcakxlb9Zujc2NH_Nb5zGCoPYvm7MwAtk8zF6IVMx9DPfPxqGHysEUZgdx", "width": 536, "html_attributions": ["<a href=\"https://maps.google.com/maps/contrib/107994312442640639710\">SV Enterprises</a>"], "height": 299}], "scope": "GOOGLE", "business_status": "CLOSED_TEMPORARILY", "types": ["local_government_office", "point_of_interest", "establishment"], "icon": "https://maps.gstatic.com/mapfiles/place_api/icons/v1/png_71/civic_building-71.png"}, {"rating": 5, "user_ratings_total": 5, "name": "Easyweld Electrodes Private Limited", "reference": "ChIJZyaorLRfUjoRUXYaK4NHMU0", "geometry": {"location": {"lat": 12.976385, "lng": 80.18143429999999}, "viewport": {"northeast": {"lat": 12.9777399302915, "lng": 80.18282078029151}, "southwest": {"lat": 12.9750419697085, "lng": 80.18012281970849}}}, "opening_hours": {"open_now": false}, "place_id": "ChIJZyaorLRfUjoRUXYaK4NHMU0", "plus_code": {"global_code": "7M42X5GJ+HH", "compound_code": "X5GJ+HH Chennai, Tamil Nadu, India"}, "vicinity": "99, 56, Nehru High Road, B.V. Nagar, Nanganallur, Chennai", "photos": [{"photo_reference": "ATtYBwKhwDi9yWVgO2p7A5w66i2x9kIzqtLBL03fUIzbpqEpLZxGvo2tYH8u_KOdxEcrzeCl3dTa2FPuOoxW25noboSiHqL62zlo_nZ0doDvETv6r4B3CI3bEWVjm22RJox97BCsxY5sEmZ693g3OuSkeZ1eNz3uAhTB6exY8vQj1lqK1BV_", "width": 758, "html_attributions": ["<a href=\"https://maps.google.com/maps/contrib/108242587297617393063\">Easyweld Electrodes Private Limited</a>"], "height": 427}], "scope": "GOOGLE", "business_status": "OPERATIONAL", "types": ["local_government_office", "point_of_interest", "establishment"], "icon": "https://maps.gstatic.com/mapfiles/place_api/icons/v1/png_71/civic_building-71.png"}, {"permanently_closed": true, "name": "Hampi Dhevangar Matrimonial", "reference": "ChIJ1W8MxwdeUjoRXDKgvQgivdk", "geometry": {"location": {"lat": 12.977754, "lng": 80.1856131}, "viewport": {"northeast": {"lat": 12.9790922302915, "lng": 80.18696158029151}, "southwest": {"lat": 12.9763942697085, "lng": 80.1842636197085}}}, "place_id": "ChIJ1W8MxwdeUjoRXDKgvQgivdk", "plus_code": {"global_code": "7M42X5HP+46", "compound_code": "X5HP+46 Chennai, Tamil Nadu, India"}, "vicinity": "No 9/7, Duraisamy Street Kundrathur, Chennai", "scope": "GOOGLE", "business_status": "CLOSED_TEMPORARILY", "types": ["local_government_office", "point_of_interest", "establishment"], "icon": "https://maps.gstatic.com/mapfiles/place_api/icons/v1/png_71/civic_building-71.png"}, {"name": "Councillors Office Ward No 167", "reference": "ChIJ-1uqvQdeUjoRM3ylkPdhDyw", "geometry": {"location": {"lat": 12.9784114, "lng": 80.1859198}, "viewport": {"northeast": {"lat": 12.9797194302915, "lng": 80.18724453029151}, "southwest": {"lat": 12.97702146970849, "lng": 80.1845465697085}}}, "place_id": "ChIJ-1uqvQdeUjoRM3ylkPdhDyw", "plus_code": {"global_code": "7M42X5HP+99", "compound_code": "X5HP+99 Chennai, Tamil Nadu, India"}, "vicinity": "5, 100 Feet Road, Civil Aviation Colony, Nanganallur, Chennai", "photos": [{"photo_reference": "ATtYBwJtTG9gtqQrjU5o5BjodSFmWQTYSVpWVXrnqUSUE561NeFnAYD0BH4HOBZ-zPvVyuBB3E7RhArnF6zv37jP3aG9TkJdmasBUAk1Kqw-qp2k7Bh1V6-m8rb2vvq_fvM6JpEQNGHe2gRdtYBKXItN2EjHECJAy97AU_U8TL4h42HnJySb", "width": 1600, "html_attributions": ["<a href=\"https://maps.google.com/maps/contrib/113697969275898654523\">Jayaseelan Gopalakrishnan</a>"], "height": 1200}], "scope": "GOOGLE", "business_status": "OPERATIONAL", "types": ["local_government_office", "point_of_interest", "establishment"], "icon": "https://maps.gstatic.com/mapfiles/place_api/icons/v1/png_71/civic_building-71.png"}, {"rating": 4.9, "user_ratings_total": 7, "permanently_closed": true, "name": "Swastika Nanganallur Transport", "reference": "ChIJ0ZGI6gheUjoRWkDq2_dXM3E", "geometry": {"location": {"lat": 12.9747632, "lng": 80.18336889999999}, "viewport": {"northeast": {"lat": 12.9761132302915, "lng": 80.1847385802915}, "southwest": {"lat": 12.9734152697085, "lng": 80.18204061970849}}}, "place_id": "ChIJ0ZGI6gheUjoRWkDq2_dXM3E", "plus_code": {"global_code": "7M42X5FM+W8", "compound_code": "X5FM+W8 Chennai, Tamil Nadu, India"}, "vicinity": "22, M.G.R. Road, Hindu Colony, Nanganallur, Chennai", "scope": "GOOGLE", "business_status": "CLOSED_TEMPORARILY", "types": ["local_government_office", "point_of_interest", "establishment"], "icon": "https://maps.gstatic.com/mapfiles/place_api/icons/v1/png_71/civic_building-71.png"}, {"permanently_closed": true, "name": "Finance", "reference": "ChIJXV5zjSlfUjoRpm3EtFqvTHU", "geometry": {"location": {"lat": 12.9867731, "lng": 80.1839665}, "viewport": {"northeast": {"lat": 12.9881674302915, "lng": 80.1853105302915}, "southwest": {"lat": 12.9854694697085, "lng": 80.1826125697085}}}, "place_id": "ChIJXV5zjSlfUjoRpm3EtFqvTHU", "plus_code": {"global_code": "7M42X5PM+PH", "compound_code": "X5PM+PH Chennai, Tamil Nadu, India"}, "vicinity": "Gandhi Street, Chennai", "scope": "GOOGLE", "business_status": "CLOSED_TEMPORARILY", "types": ["local_government_office", "point_of_interest", "establishment"], "icon": "https://maps.gstatic.com/mapfiles/place_api/icons/v1/png_71/civic_building-71.png"}, {"name": "Sathish linning works", "reference": "ChIJ8cnUFSFfUjoRSHYYEjtq2iU", "geometry": {"location": {"lat": 12.9865269, "lng": 80.1861685}, "viewport": {"northeast": {"lat": 12.9878643302915, "lng": 80.1875179302915}, "southwest": {"lat": 12.9851663697085, "lng": 80.1848199697085}}}, "opening_hours": {"open_now": false}, "place_id": "ChIJ8cnUFSFfUjoRSHYYEjtq2iU", "plus_code": {"global_code": "7M42X5PP+JF", "compound_code": "X5PP+JF Chennai, Tamil Nadu, India"}, "vicinity": "College Road, Pazhavanthangal, Chennai", "scope": "GOOGLE", "business_status": "OPERATIONAL", "types": ["local_government_office", "point_of_interest", "establishment"], "icon": "https://maps.gstatic.com/mapfiles/place_api/icons/v1/png_71/civic_building-71.png"}, {"name": "MAXIMOVE CARGO CARRIERS", "reference": "ChIJ45TXUxBfUjoR20-N2F2JJlM", "geometry": {"location": {"lat": 12.9871509, "lng": 80.1743}, "viewport": {"northeast": {"lat": 12.9885438302915, "lng": 80.17565663029151}, "southwest": {"lat": 12.9858458697085, "lng": 80.1729586697085}}}, "opening_hours": {"open_now": true}, "place_id": "ChIJ45TXUxBfUjoR20-N2F2JJlM", "plus_code": {"global_code": "7M42X5PF+VP", "compound_code": "X5PF+VP Chennai, Tamil Nadu, India"}, "vicinity": "8/15, VOC Street, Meenambakkam, Chennai", "scope": "GOOGLE", "business_status": "OPERATIONAL", "types": ["local_government_office", "point_of_interest", "establishment"], "icon": "https://maps.gstatic.com/mapfiles/place_api/icons/v1/png_71/civic_building-71.png"}, {"rating": 5, "user_ratings_total": 1, "name": "DDG - SR Chennai", "reference": "ChIJ272r5qdgUjoRjU9ttZYoBaw", "geometry": {"location": {"lat": 12.9890074, "lng": 80.1757767}, "viewport": {"northeast": {"lat": 12.9905298802915, "lng": 80.17743723029152}, "southwest": {"lat": 12.9878319197085, "lng": 80.17473926970851}}}, "opening_hours": {"open_now": false}, "place_id": "ChIJ272r5qdgUjoRjU9ttZYoBaw", "plus_code": {"global_code": "7M42X5QG+J8", "compound_code": "X5QG+J8 Chennai, Tamil Nadu, India"}, "vicinity": "international cargo, Meenambakkam, Chennai", "scope": "GOOGLE", "business_status": "OPERATIONAL", "types": ["local_government_office", "point_of_interest", "establishment"], "icon": "https://maps.gstatic.com/mapfiles/place_api/icons/v1/png_71/civic_building-71.png"}, {"name": "GOVT PDS SHOP", "reference": "ChIJmd95fP5dUjoRU_X8aLSrFi8", "geometry": {"location": {"lat": 12.98278, "lng": 80.1899633}, "viewport": {"northeast": {"lat": 12.9842243802915, "lng": 80.19131853029151}, "southwest": {"lat": 12.9815264197085, "lng": 80.1886205697085}}}, "place_id": "ChIJmd95fP5dUjoRU_X8aLSrFi8", "plus_code": {"global_code": "7M42X5MQ+4X", "compound_code": "X5MQ+4X Chennai, Tamil Nadu, India"}, "vicinity": "22, 1st Main Road, Macmillan Colony, Nanganallur, Chennai", "scope": "GOOGLE", "business_status": "OPERATIONAL", "types": ["local_government_office", "point_of_interest", "establishment"], "icon": "https://maps.gstatic.com/mapfiles/place_api/icons/v1/png_71/civic_building-71.png"}, {"name": "alandur municipality tax office and Water Tank", "reference": "ChIJNb8uU_5dUjoRgjEMxLUl4oA", "geometry": {"location": {"lat": 12.9851983, "lng": 80.1898386}, "viewport": {"northeast": {"lat": 12.9866194302915, "lng": 80.19118618029151}, "southwest": {"lat": 12.9839214697085, "lng": 80.18848821970849}}}, "place_id": "ChIJNb8uU_5dUjoRgjEMxLUl4oA", "plus_code": {"global_code": "7M42X5PQ+3W", "compound_code": "X5PQ+3W Chennai, Tamil Nadu, India"}, "vicinity": "NCBS Colony, Pazavanthangal, Chennai", "scope": "GOOGLE", "business_status": "OPERATIONAL", "types": ["local_government_office", "point_of_interest", "establishment"], "icon": "https://maps.gstatic.com/mapfiles/place_api/icons/v1/png_71/civic_building-71.png"}, {"permanently_closed": true, "name": "Surender Transport Services.", "reference": "ChIJYxIhCB1dUjoRqlE8laI3o4s", "geometry": {"location": {"lat": 12.9814312, "lng": 80.1915834}, "viewport": {"northeast": {"lat": 12.9826926302915, "lng": 80.19291798029151}, "southwest": {"lat": 12.9799946697085, "lng": 80.1902200197085}}}, "place_id": "ChIJYxIhCB1dUjoRqlE8laI3o4s", "plus_code": {"global_code": "7M42X5JR+HJ", "compound_code": "X5JR+HJ Chennai, Tamil Nadu, India"}, "vicinity": "19th Street, Macmillan Colony, Nanganallur, Chennai", "scope": "GOOGLE", "business_status": "CLOSED_TEMPORARILY", "types": ["local_government_office", "point_of_interest", "establishment"], "icon": "https://maps.gstatic.com/mapfiles/place_api/icons/v1/png_71/civic_building-71.png"}, {"name": "Assistant Engineer Office Nanganallur", "reference": "ChIJ2UK8aG9hUjoREWGSlA1sb9Y", "geometry": {"location": {"lat": 12.9899379, "lng": 80.18597849999999}, "viewport": {"northeast": {"lat": 12.9912868802915, "lng": 80.1873274802915}, "southwest": {"lat": 12.9885889197085, "lng": 80.18462951970848}}}, "place_id": "ChIJ2UK8aG9hUjoREWGSlA1sb9Y", "plus_code": {"global_code": "7M42X5QP+X9", "compound_code": "X5QP+X9 Chennai, Tamil Nadu, India"}, "vicinity": "near Amma Unavagam, Pazhavanthangal, Chennai", "scope": "GOOGLE", "business_status": "OPERATIONAL", "types": ["local_government_office", "point_of_interest", "establishment"], "icon": "https://maps.gstatic.com/mapfiles/place_api/icons/v1/png_71/civic_building-71.png"}, {"rating": 3.1, "user_ratings_total": 10, "name": "The Sub Registrar, Alandur", "reference": "ChIJvxfYm_5dUjoRzhBAoeMmAqw", "geometry": {"location": {"lat": 12.9827409, "lng": 80.19175349999999}, "viewport": {"northeast": {"lat": 12.9841567802915, "lng": 80.1928935302915}, "southwest": {"lat": 12.9814588197085, "lng": 80.1901955697085}}}, "opening_hours": {"open_now": false}, "place_id": "ChIJvxfYm_5dUjoRzhBAoeMmAqw", "plus_code": {"global_code": "7M42X5MR+3P", "compound_code": "X5MR+3P Chennai, Tamil Nadu, India"}, "vicinity": "46, 1st Main Road, Macmillan Colony, Nanganallur, Chennai", "photos": [{"photo_reference": "ATtYBwKS0soxZAV_mGkRb-7Chl-kJwPr8tmTRo-D4nGi9wrV6Kvt7wK_fELJz35pgt-th6n86V_ITYt1oRPM2pisLMn93oUE6coqhYTa9Bei2w2AI5i_fLsOJw-iOaNjASbUqv-A_KxTHp9ytitCfbWD8kQJ9LFGCyND6TRbYNBBvxo0qqlS", "width": 1080, "html_attributions": ["<a href=\"https://maps.google.com/maps/contrib/115064509156636307550\">venkatesh senthilvel</a>"], "height": 1920}], "scope": "GOOGLE", "business_status": "OPERATIONAL", "types": ["finance", "local_government_office", "point_of_interest", "establishment"], "icon": "https://maps.gstatic.com/mapfiles/place_api/icons/v1/png_71/civic_building-71.png"}, {"name": "Moovarasampet Panchayat Office", "reference": "ChIJfzBZVspfUjoR5I72EjFOgYQ", "geometry": {"location": {"lat": 12.9689949, "lng": 80.1851743}, "viewport": {"northeast": {"lat": 12.9702799802915, "lng": 80.1865322302915}, "southwest": {"lat": 12.9675820197085, "lng": 80.1838342697085}}}, "place_id": "ChIJfzBZVspfUjoR5I72EjFOgYQ", "plus_code": {"global_code": "7M42X59P+H3", "compound_code": "X59P+H3 Chennai, Tamil Nadu, India"}, "vicinity": "MMTC Colony, Nanganallur, Chennai", "scope": "GOOGLE", "business_status": "OPERATIONAL", "types": ["local_government_office", "point_of_interest", "establishment"], "icon": "https://maps.gstatic.com/mapfiles/place_api/icons/v1/png_71/civic_building-71.png"}]}