{"status": "OK", "html_attributions": [], "results": [{"permanently_closed": true, "name": "Alternative to Traditional Matrimony", "reference": "ChIJqU3uWOJjUjoR5kgbAHsyDqw", "geometry": {"location": {"lat": 13.080359, "lng": 80.1734373}, "viewport": {"northeast": {"lat": 13.0817179302915, "lng": 80.17481833029152}, "southwest": {"lat": 13.0790199697085, "lng": 80.17212036970851}}}, "place_id": "ChIJqU3uWOJjUjoR5kgbAHsyDqw", "plus_code": {"global_code": "7M5235JF+49", "compound_code": "35JF+49 Chennai, Tamil Nadu, India"}, "vicinity": "8/105, kavimani salai, west mogappair, Chennai", "scope": "GOOGLE", "business_status": "CLOSED_TEMPORARILY", "types": ["local_government_office", "point_of_interest", "establishment"], "icon": "https://maps.gstatic.com/mapfiles/place_api/icons/v1/png_71/civic_building-71.png"}, {"rating": 2.5, "user_ratings_total": 2, "permanently_closed": true, "name": "Mugapair West Community hall", "reference": "ChIJTQvknONjUjoRap3e_tUt5fc", "geometry": {"location": {"lat": 13.0833077, "lng": 80.17336209999999}, "viewport": {"northeast": {"lat": 13.0845660802915, "lng": 80.1747393802915}, "southwest": {"lat": 13.0818681197085, "lng": 80.17204141970849}}}, "place_id": "ChIJTQvknONjUjoRap3e_tUt5fc", "plus_code": {"global_code": "7M5235MF+88", "compound_code": "35MF+88 Chennai, Tamil Nadu, India"}, "vicinity": "6-1, Brindawan Colony, Mogappair East, Chennai", "photos": [{"photo_reference": "ATtYBwK5kne-UF6_fPXm8bAbj7RzYbwgC7EoLSC_QDXIYRptLaU71Zl0F7KxsLnOIrQvki4JZmXJ_XIvd3C1VzNzfuqsKPb03tMwYnEpdIkvxKlZwJ0W4-MDE-xMGOW1YmwVrRRhj8UodcKES6veE_QQfvO62wuyax-3h6K2pD8u0mT1keu2", "width": 4000, "html_attributions": ["<a href=\"https://maps.google.com/maps/contrib/103646049332607112071\">Aswin S</a>"], "height": 2250}], "scope": "GOOGLE", "business_status": "CLOSED_TEMPORARILY", "types": ["city_hall", "local_government_office", "point_of_interest", "establishment"], "icon": "https://maps.gstatic.com/mapfiles/place_api/icons/v1/png_71/civic_building-71.png"}, {"permanently_closed": true, "name": "Thirumanaththilagam", "reference": "ChIJnVX7hONjUjoRVi-gxyVNAjw", "geometry": {"location": {"lat": 13.0835569, "lng": 80.1730553}, "viewport": {"northeast": {"lat": 13.0848758302915, "lng": 80.1744142802915}, "southwest": {"lat": 13.0821778697085, "lng": 80.17171631970848}}}, "place_id": "ChIJnVX7hONjUjoRVi-gxyVNAjw", "vicinity": "# 2/12, Saropathi Complex, First Street, Near Mangal Eri Park, Bharathidasan Nagar, Mogappair, Chennai", "scope": "GOOGLE", "business_status": "CLOSED_TEMPORARILY", "types": ["local_government_office", "point_of_interest", "establishment"], "icon": "https://maps.gstatic.com/mapfiles/place_api/icons/v1/png_71/generic_business-71.png"}, {"rating": 3.1, "user_ratings_total": 10, "permanently_closed": true, "name": "SMGR Marriage Hall", "reference": "ChIJH7WKPQBkUjoRTZ2iekI21b4", "geometry": {"location": {"lat": 13.0800221, "lng": 80.18890619999999}, "viewport": {"northeast": {"lat": 13.0813779802915, "lng": 80.1902365302915}, "southwest": {"lat": 13.0786800197085, "lng": 80.1875385697085}}}, "place_id": "ChIJH7WKPQBkUjoRTZ2iekI21b4", "plus_code": {"global_code": "7M5235JQ+2H", "compound_code": "35JQ+2H Chennai, Tamil Nadu, India"}, "vicinity": "7-4 TO Koyambedu, 3, Padi Pudhu Nagar Main Road, Padi Pudur Nagar, Chennai", "photos": [{"photo_reference": "ATtYBwK3mqUTe4X5P80Ejzit6pBo8i5DkYT96E9HJQyRMWBU6nXjG2ghixoM_nBblC9eRwKr3yRWeADwq2BdfBoQmt5-HM9fEsE7C1CV6GFfefLXPEfiwHWzgo3LsC8kiHSuaexACqO3qxSsIYzVpPNLPaI2l02kwmDkCJhhtOJaqFUJ2bi4", "width": 4160, "html_attributions": ["<a href=\"https://maps.google.com/maps/contrib/111629208483852667731\">Balamurugan ramar</a>"], "height": 3120}], "scope": "GOOGLE", "business_status": "CLOSED_TEMPORARILY", "types": ["local_government_office", "point_of_interest", "establishment"], "icon": "https://maps.gstatic.com/mapfiles/place_api/icons/v1/png_71/civic_building-71.png"}, {"rating": 5, "user_ratings_total": 3, "name": "Retainer legal services [ Lawyers, Advocates, Attorneys, Vakils, Legal Advisors & Solicitors ]", "reference": "ChIJu-SyieFjUjoR52fVcHeGs5A", "geometry": {"location": {"lat": 13.0802965, "lng": 80.1706447}, "viewport": {"northeast": {"lat": 13.0816199802915, "lng": 80.1719078802915}, "southwest": {"lat": 13.0789220197085, "lng": 80.16920991970849}}}, "opening_hours": {"open_now": false}, "place_id": "ChIJu-SyieFjUjoR52fVcHeGs5A", "plus_code": {"global_code": "7M5235JC+47", "compound_code": "35JC+47 Chennai, Tamil Nadu, India"}, "vicinity": "8/13, Bharathi Salai, Mogappair West, Chennai", "scope": "GOOGLE", "business_status": "OPERATIONAL", "types": ["lawyer", "local_government_office", "health", "point_of_interest", "establishment"], "icon": "https://maps.gstatic.com/mapfiles/place_api/icons/v1/png_71/generic_business-71.png"}, {"permanently_closed": true, "name": "Holy God Christian Matrimony", "reference": "ChIJKQtTuvljUjoRiHRcmvFEX34", "geometry": {"location": {"lat": 13.088313, "lng": 80.18385500000001}, "viewport": {"northeast": {"lat": 13.0895504802915, "lng": 80.1852020302915}, "southwest": {"lat": 13.0868525197085, "lng": 80.1825040697085}}}, "place_id": "ChIJKQtTuvljUjoRiHRcmvFEX34", "plus_code": {"global_code": "7M5235QM+8G", "compound_code": "35QM+8G Chennai, Tamil Nadu, India"}, "vicinity": "near SBI Intouch, R-32/6, TNHB Commercial Complex, Basement, Mugappair Road, Ambattur Estate, Rd,, Anna Nagar West Extension, Chennai, Tamil Nadu 600037, near SBI Intouch, Chennai", "scope": "GOOGLE", "business_status": "CLOSED_TEMPORARILY", "types": ["local_government_office", "point_of_interest", "establishment"], "icon": "https://maps.gstatic.com/mapfiles/place_api/icons/v1/png_71/civic_building-71.png"}, {"rating": 4.5, "user_ratings_total": 8, "name": "CMDA and DTCP approval legal services", "reference": "ChIJZ6Gz14hnUjoRd4RUf81cW4Y", "geometry": {"location": {"lat": 13.0799609, "lng": 80.170389}, "viewport": {"northeast": {"lat": 13.0813333802915, "lng": 80.17181718029151}, "southwest": {"lat": 13.0786354197085, "lng": 80.16911921970849}}}, "opening_hours": {"open_now": false}, "place_id": "ChIJZ6Gz14hnUjoRd4RUf81cW4Y", "plus_code": {"global_code": "7M5235HC+X5", "compound_code": "35HC+X5 Chennai, Tamil Nadu, India"}, "vicinity": "Chennai Fashion Institute Campus, 8/13, Bharathi Salai, Mogappair west, Chennai", "photos": [{"photo_reference": "ATtYBwIPq7oDUvGt90RA6lFKc4E2A4keWw2IWtsHslr9pCz1Oj6ZVilsuhfQrCpTOfxWL6eVjHrA0t-MWI2oxshE3rYeVwsvf-9AtpVg2zZBNcYY06-DtSeuG-_5dlU3NBzAfnTUPhLqw4D5CBVZPXTFAltndRU25NQSUEUtCFaAkj527TGQ", "width": 1024, "html_attributions": ["<a href=\"https://maps.google.com/maps/contrib/116457427999355681222\">CMDA and DTCP approval legal services</a>"], "height": 500}], "scope": "GOOGLE", "business_status": "OPERATIONAL", "types": ["lawyer", "real_estate_agency", "local_government_office", "point_of_interest", "establishment"], "icon": "https://maps.gstatic.com/mapfiles/place_api/icons/v1/png_71/civic_building-71.png"}, {"name": "Shan Tech Healthcare", "reference": "ChIJKZJxeOFjUjoR9EEiI1DQh-M", "geometry": {"location": {"lat": 13.0815579, "lng": 80.1701204}, "viewport": {"northeast": {"lat": 13.0827264302915, "lng": 80.1714988302915}, "southwest": {"lat": 13.0800284697085, "lng": 80.16880086970849}}}, "opening_hours": {"open_now": true}, "place_id": "ChIJKZJxeOFjUjoR9EEiI1DQh-M", "plus_code": {"global_code": "7M5235JC+J2", "compound_code": "35JC+J2 Chennai, Tamil Nadu, India"}, "vicinity": "1st Floor, 8/3N, Bharathi Salai, Mogappair West, Ambattur Industrial Estate, Chennai", "scope": "GOOGLE", "business_status": "OPERATIONAL", "types": ["local_government_office", "point_of_interest", "establishment"], "icon": "https://maps.gstatic.com/mapfiles/place_api/icons/v1/png_71/civic_building-71.png"}, {"rating": 4.3, "user_ratings_total": 3, "permanently_closed": true, "name": "Thangamani Mahal", "reference": "ChIJm2LnW-FjUjoRJ7yNTJcsyD0", "geometry": {"location": {"lat": 13.0830536, "lng": 80.1703879}, "viewport": {"northeast": {"lat": 13.0844233802915, "lng": 80.1718091302915}, "southwest": {"lat": 13.0817254197085, "lng": 80.16911116970849}}}, "place_id": "ChIJm2LnW-FjUjoRJ7yNTJcsyD0", "plus_code": {"global_code": "7M5235MC+65", "compound_code": "35MC+65 Chennai, Tamil Nadu, India"}, "vicinity": "#2/PC8,, 1st Avenue, Mogappair West, Mogappair, Chennai", "scope": "GOOGLE", "business_status": "CLOSED_TEMPORARILY", "types": ["city_hall", "local_government_office", "point_of_interest", "establishment"], "icon": "https://maps.gstatic.com/mapfiles/place_api/icons/v1/png_71/civic_building-71.png"}, {"rating": 3, "user_ratings_total": 2, "permanently_closed": true, "name": "Sree Venkateswara Mahal", "reference": "ChIJtS1wpeZjUjoRBgU13itQbrc", "geometry": {"location": {"lat": 13.0847923, "lng": 80.17020149999999}, "viewport": {"northeast": {"lat": 13.0861271302915, "lng": 80.1715001302915}, "southwest": {"lat": 13.0834291697085, "lng": 80.16880216970848}}}, "place_id": "ChIJtS1wpeZjUjoRBgU13itQbrc", "plus_code": {"global_code": "7M5235MC+W3", "compound_code": "35MC+W3 Chennai, Tamil Nadu, India"}, "vicinity": "No. 4, 1st Avenue, Mogappair, Mogappair, Chennai", "scope": "GOOGLE", "business_status": "CLOSED_TEMPORARILY", "types": ["city_hall", "local_government_office", "point_of_interest", "establishment"], "icon": "https://maps.gstatic.com/mapfiles/place_api/icons/v1/png_71/civic_building-71.png"}, {"permanently_closed": true, "name": "Suba Nigazhchi", "reference": "ChIJaZ6y_AZkUjoRmVbbvydEJj0", "geometry": {"location": {"lat": 13.086947, "lng": 80.19060089999999}, "viewport": {"northeast": {"lat": 13.0883381302915, "lng": 80.1919551802915}, "southwest": {"lat": 13.0856401697085, "lng": 80.1892572197085}}}, "place_id": "ChIJaZ6y_AZkUjoRmVbbvydEJj0", "plus_code": {"global_code": "7M5235PR+Q6", "compound_code": "35PR+Q6 Chennai, Tamil Nadu, India"}, "vicinity": "No 33/10 A, Anna Street Manali, Chennai", "scope": "GOOGLE", "business_status": "CLOSED_TEMPORARILY", "types": ["local_government_office", "point_of_interest", "establishment"], "icon": "https://maps.gstatic.com/mapfiles/place_api/icons/v1/png_71/civic_building-71.png"}, {"name": "Chennai Accounting Services", "reference": "ChIJyyYJCFJhUjoRmXugIvBR7ts", "geometry": {"location": {"lat": 13.0674476, "lng": 80.1814002}, "viewport": {"northeast": {"lat": 13.0687651802915, "lng": 80.1827469302915}, "southwest": {"lat": 13.0660672197085, "lng": 80.1800489697085}}}, "opening_hours": {"open_now": true}, "place_id": "ChIJyyYJCFJhUjoRmXugIvBR7ts", "plus_code": {"global_code": "7M52358J+XH", "compound_code": "358J+XH Chennai, Tamil Nadu, India"}, "vicinity": "22, Reddy Street, Nerkundram, Chennai", "photos": [{"photo_reference": "ATtYBwLdq_oSz_3guPXP-qMlTLsoZXxqyiQkSHJZQY1JsDe98V85wWFPXfXraPB5LCw30TEgaR0sUuEcxAPcBdGJE7WGUJR7d3r7X2GDaBX6nNFZhWPf42tShVHKyvWSjJAga30LZ_hjY_rKCbDzbsi122LHOc48_w_NjGQAyuNco0d3hRT4", "width": 744, "html_attributions": ["<a href=\"https://maps.google.com/maps/contrib/109047924857720339438\">Chennai Accounting Services</a>"], "height": 304}], "scope": "GOOGLE", "business_status": "OPERATIONAL", "types": ["accounting", "finance", "local_government_office", "point_of_interest", "establishment"], "icon": "https://maps.gstatic.com/mapfiles/place_api/icons/v1/png_71/generic_business-71.png"}]}