{"status": "OK", "html_attributions": [], "results": [{"rating": 4, "user_ratings_total": 2, "name": "Marriage Registrar Consultant", "reference": "ChIJuw9wDqNmUjoRZ36UntzeCPQ", "geometry": {"location": {"lat": 13.070645, "lng": 80.2060329}, "viewport": {"northeast": {"lat": 13.0719826802915, "lng": 80.2073795302915}, "southwest": {"lat": 13.0692847197085, "lng": 80.2046815697085}}}, "opening_hours": {"open_now": false}, "place_id": "ChIJuw9wDqNmUjoRZ36UntzeCPQ", "plus_code": {"global_code": "7M5236C4+7C", "compound_code": "36C4+7C Chennai, Tamil Nadu, India"}, "vicinity": "No.18 1st Floor, 21st street Jai nagar,Arumbakkam, Chennai", "photos": [{"photo_reference": "ATtYBwJI9_aSsYn3QAnHUbCj0hoDGr_B2Ge2WbO2J052hS99WOyL_VTCmfp-JhC4PwDp1lFX7joiMioG9PbCaWB0pzHFIwviY7f4acoQ_5TQovtnLZBtn_pPYNfzo6YzG9qti3avhDzIndVR6uBdSUyjBjqEncA8X6G1ytSmxKd4-0YG9ukQ", "width": 736, "html_attributions": ["<a href=\"https://maps.google.com/maps/contrib/103256221472843532981\">Marriage Registrar Consultant</a>"], "height": 480}], "scope": "GOOGLE", "business_status": "OPERATIONAL", "types": ["local_government_office", "point_of_interest", "establishment"], "icon": "https://maps.gstatic.com/mapfiles/place_api/icons/v1/png_71/civic_building-71.png"}, {"rating": 5, "user_ratings_total": 5, "name": "Dr.Srikumar S", "reference": "ChIJFXzaxJ9mUjoRP97Aw84Q9sM", "geometry": {"location": {"lat": 13.0791989, "lng": 80.21163299999999}, "viewport": {"northeast": {"lat": 13.0804803302915, "lng": 80.21297968029151}, "southwest": {"lat": 13.0777823697085, "lng": 80.2102817197085}}}, "opening_hours": {"open_now": false}, "place_id": "ChIJFXzaxJ9mUjoRP97Aw84Q9sM", "plus_code": {"global_code": "7M5236H6+MM", "compound_code": "36H6+MM Chennai, Tamil Nadu, India"}, "vicinity": "SS Heart Clinic, Flat No.2, Krishna Vihar, Door No.132, AI-Block, 7th Main Road, Shanthi Colony, Anna Nagar, Chennai", "scope": "GOOGLE", "business_status": "OPERATIONAL", "types": ["doctor", "local_government_office", "health", "point_of_interest", "establishment"], "icon": "https://maps.gstatic.com/mapfiles/place_api/icons/v1/png_71/generic_business-71.png"}, {"permanently_closed": true, "name": "Suba Nigazhchi", "reference": "ChIJaZ6y_AZkUjoRmVbbvydEJj0", "geometry": {"location": {"lat": 13.086947, "lng": 80.19060089999999}, "viewport": {"northeast": {"lat": 13.0883381302915, "lng": 80.1919551802915}, "southwest": {"lat": 13.0856401697085, "lng": 80.1892572197085}}}, "place_id": "ChIJaZ6y_AZkUjoRmVbbvydEJj0", "plus_code": {"global_code": "7M5235PR+Q6", "compound_code": "35PR+Q6 Chennai, Tamil Nadu, India"}, "vicinity": "No 33/10 A, Anna Street Manali, Chennai", "scope": "GOOGLE", "business_status": "CLOSED_TEMPORARILY", "types": ["local_government_office", "point_of_interest", "establishment"], "icon": "https://maps.gstatic.com/mapfiles/place_api/icons/v1/png_71/civic_building-71.png"}, {"rating": 5, "user_ratings_total": 1, "name": "Superintending Engineer National Highways", "reference": "ChIJa3xF58NnUjoRb0bNuWwUBdw", "geometry": {"location": {"lat": 13.0699762, "lng": 80.2059209}, "viewport": {"northeast": {"lat": 13.0714319302915, "lng": 80.2075210302915}, "southwest": {"lat": 13.0687339697085, "lng": 80.2048230697085}}}, "opening_hours": {"open_now": false}, "place_id": "ChIJa3xF58NnUjoRb0bNuWwUBdw", "plus_code": {"global_code": "7M523694+X9", "compound_code": "3694+X9 Chennai, Tamil Nadu, India"}, "vicinity": "Jai Nagar 2nd Main Road, Jai Nagar, Arumbakkam, Chennai", "photos": [{"photo_reference": "ATtYBwLd1o-zJk5gD2JHcsKXzO-b6rkd7nPm88t8IFrMOyo7oCV02mKS5waJ-yWesE7FFEZW8dfxm0CzKPfRk9Ej3i3wS7xtKsztcIHTKywQZVbuPR-RYZ9IEB5X37yM_jvIYSzXJjOsajFbYaxAn2mh_SE4R3KHohNMI4gDMuiHUdfOFwvh", "width": 3328, "html_attributions": ["<a href=\"https://maps.google.com/maps/contrib/115491470760222869108\">Ajsundar 1995</a>"], "height": 1872}], "scope": "GOOGLE", "business_status": "OPERATIONAL", "types": ["local_government_office", "point_of_interest", "establishment"], "icon": "https://maps.gstatic.com/mapfiles/place_api/icons/v1/png_71/civic_building-71.png"}, {"name": "Metro Water Depot 90, Area 7", "reference": "ChIJI6ne8DNlUjoR7z0jjK-xSqI", "geometry": {"location": {"lat": 13.089588, "lng": 80.1931909}, "viewport": {"northeast": {"lat": 13.0910161802915, "lng": 80.19454018029151}, "southwest": {"lat": 13.0883182197085, "lng": 80.1918422197085}}}, "opening_hours": {"open_now": false}, "place_id": "ChIJI6ne8DNlUjoR7z0jjK-xSqI", "plus_code": {"global_code": "7M5235QV+R7", "compound_code": "35QV+R7 Chennai, Tamil Nadu, India"}, "vicinity": "Chennai Metro water, Area, 7, Syndicate Bank Colony, Chennai", "photos": [{"photo_reference": "ATtYBwKckotMjeR_87DDdcFsION4W2iT4T7PH948qZk4DUvG0nq_tWqxplLOpnhQ9n6mPjhBePNvwKp3j4awdvTqAX07RhI3KUwsXyXmuTHKsD_uBLxBSSNpnQqtxToAcC2_dkO3dNsws1bQT1W7Q9Sg5KB9eajP50BFpmcz3uInXi0h1Cmr", "width": 1637, "html_attributions": ["<a href=\"https://maps.google.com/maps/contrib/113210951485349192066\">Jaison</a>"], "height": 2183}], "scope": "GOOGLE", "business_status": "OPERATIONAL", "types": ["local_government_office", "point_of_interest", "establishment"], "icon": "https://maps.gstatic.com/mapfiles/place_api/icons/v1/png_71/civic_building-71.png"}, {"rating": 4.5, "user_ratings_total": 2, "name": "Jai Nagar Park MTC Bus Stand", "reference": "ChIJtXVsyglnUjoRxkwGiZ04i0w", "geometry": {"location": {"lat": 13.0692882, "lng": 80.2065776}, "viewport": {"northeast": {"lat": 13.0706052302915, "lng": 80.20790943029151}, "southwest": {"lat": 13.0679072697085, "lng": 80.20521146970849}}}, "opening_hours": {"open_now": true}, "place_id": "ChIJtXVsyglnUjoRxkwGiZ04i0w", "plus_code": {"global_code": "7M523694+PJ", "compound_code": "3694+PJ Chennai, Tamil Nadu, India"}, "vicinity": "Jai Nagar, Arumbakkam, Chennai", "scope": "GOOGLE", "business_status": "OPERATIONAL", "types": ["local_government_office", "point_of_interest", "establishment"], "icon": "https://maps.gstatic.com/mapfiles/place_api/icons/v1/png_71/civic_building-71.png"}]}