{"status": "OK", "next_page_token": "ATtYBwJA8RJqnhv3KTop7MDKSM1wNHItAAwvAC1Hs9StJXJPePtE2nhwVWBE-mOAfOyDbRa8uu2wsZozp6FB2SxZxUSk4NLnvMxd17Xk1gxrxynhJUqYdONUMcudsPPiycRfwmNaPqsobKvs1dio0BjExxLmyWNag01eQej6A8luY2ghJA71fbLukxiOTO5OOU9Z_rKoRJtpv42K4oB1zl_C_0IPaQoRTGgy10qnfaR-eAuHygtAzxGtIVWdsW1bG7qvhi3rHq24QkAa9_Zl-LJvOxrniJ1IXTMTc1xAbjeJOlQz6EyXng5FxwimFG1pF-vBsr8WMSSUiP6cFJufT0HZxB86isPxyhmNVPqu1ZbgMN4YchWBiCcEAKmilpK48MR5aY70hyoY-d5PGkA9Kb1ByPGLHl68Fz-9oKEO_VauzJM8ifuc9YdibYHwuTr807jGO3BPE4q3H9nlcADUIsjXxrijAkLFD1k0Hjnh5ZlqrIwlyJEi_P3TtH2IJUz9I3pMB_hCsLbSHpFpyIuIUvM3Dvb4dxGPzPfLhX-_9w17HocfTGl9j_PICZ-p-82lPNLN06xBlA4LSqw5mLlLeFx4E6GSR_hsLt-ZlwbuS5D5ju8msAgozScoyHt2Pkqu029Ig76NuEpUvN3c27yl2AqhHcDdyjtJYRU", "html_attributions": [], "results": [{"permanently_closed": true, "name": "Hindustan Fibre Tech", "reference": "ChIJic1skDFhUjoRTbb6d2nqTio", "geometry": {"location": {"lat": 13.0466539, "lng": 80.1811412}, "viewport": {"northeast": {"lat": 13.0480342802915, "lng": 80.1824873802915}, "southwest": {"lat": 13.0453363197085, "lng": 80.1797894197085}}}, "place_id": "ChIJic1skDFhUjoRTbb6d2nqTio", "plus_code": {"global_code": "7M5225WJ+MF", "compound_code": "25WJ+MF Chennai, Tamil Nadu, India"}, "vicinity": "No. A, Plot No. 62 C, First Floor, Door, 5, Mullai Street, Chennai", "scope": "GOOGLE", "business_status": "CLOSED_TEMPORARILY", "types": ["local_government_office", "point_of_interest", "establishment"], "icon": "https://maps.gstatic.com/mapfiles/place_api/icons/v1/png_71/civic_building-71.png"}, {"permanently_closed": true, "name": "S.g.enterprise", "reference": "ChIJc9fYVS1hUjoRKadcGlrOibw", "geometry": {"location": {"lat": 13.0339866, "lng": 80.1837075}, "viewport": {"northeast": {"lat": 13.0353341302915, "lng": 80.1851045302915}, "southwest": {"lat": 13.0326361697085, "lng": 80.18240656970848}}}, "place_id": "ChIJc9fYVS1hUjoRKadcGlrOibw", "plus_code": {"global_code": "7M5225MM+HF", "compound_code": "25MM+HF Chennai, Tamil Nadu, India"}, "vicinity": "No 3/31, Valluvar Salai, Ramapuram, Chennai", "scope": "GOOGLE", "business_status": "CLOSED_TEMPORARILY", "types": ["local_government_office", "point_of_interest", "establishment"], "icon": "https://maps.gstatic.com/mapfiles/place_api/icons/v1/png_71/civic_building-71.png"}, {"rating": 5, "user_ratings_total": 1, "permanently_closed": true, "name": "A Team Security Services Pvt Ltd", "reference": "ChIJ428UQCRhUjoRWaVD0i7Djj8", "geometry": {"location": {"lat": 13.0400369, "lng": 80.17223469999999}, "viewport": {"northeast": {"lat": 13.0413893302915, "lng": 80.1736240802915}, "southwest": {"lat": 13.0386913697085, "lng": 80.1709261197085}}}, "place_id": "ChIJ428UQCRhUjoRWaVD0i7Djj8", "plus_code": {"global_code": "7M5225RC+2V", "compound_code": "25RC+2V Chennai, Tamil Nadu, India"}, "vicinity": "1st Main Road, Vani Nagar, Jai Nagar, Valasaravakkam, Chennai", "scope": "GOOGLE", "business_status": "CLOSED_TEMPORARILY", "types": ["local_government_office", "point_of_interest", "establishment"], "icon": "https://maps.gstatic.com/mapfiles/place_api/icons/v1/png_71/civic_building-71.png"}, {"rating": 4.8, "user_ratings_total": 16, "name": "RR matrimony", "reference": "ChIJtZjLgy1hUjoRkYpBGjEwTAg", "geometry": {"location": {"lat": 13.0449293, "lng": 80.1860746}, "viewport": {"northeast": {"lat": 13.0462852802915, "lng": 80.18741808029151}, "southwest": {"lat": 13.0435873197085, "lng": 80.1847201197085}}}, "opening_hours": {"open_now": false}, "place_id": "ChIJtZjLgy1hUjoRkYpBGjEwTAg", "plus_code": {"global_code": "7M5225VP+XC", "compound_code": "25VP+XC Chennai, Tamil Nadu, India"}, "vicinity": "#177/2, Arcot Road, Alwarthiru Nagar, Chennai", "scope": "GOOGLE", "business_status": "OPERATIONAL", "types": ["local_government_office", "health", "point_of_interest", "establishment"], "icon": "https://maps.gstatic.com/mapfiles/place_api/icons/v1/png_71/civic_building-71.png"}, {"rating": 5, "user_ratings_total": 1, "name": "A.T. APPANRAJ", "reference": "ChIJ5W3IdNZgUjoR4m3qK4br6Mo", "geometry": {"location": {"lat": 13.0317443, "lng": 80.1816719}, "viewport": {"northeast": {"lat": 13.0331123302915, "lng": 80.1830197802915}, "southwest": {"lat": 13.0304143697085, "lng": 80.1803218197085}}}, "place_id": "ChIJ5W3IdNZgUjoR4m3qK4br6Mo", "plus_code": {"global_code": "7M5225JJ+MM", "compound_code": "25JJ+MM Chennai, Tamil Nadu, India"}, "vicinity": "36, KUPPUSWAMY NAICKAR STREET, POOTHAPEDU, RAMAPURAM, Chennai", "scope": "GOOGLE", "business_status": "OPERATIONAL", "types": ["local_government_office", "point_of_interest", "establishment"], "icon": "https://maps.gstatic.com/mapfiles/place_api/icons/v1/png_71/civic_building-71.png"}, {"name": "Kalaicinemas", "reference": "ChIJf1RJuN1hUjoRV4fQlOy6bKs", "geometry": {"location": {"lat": 13.0484798, "lng": 80.1804463}, "viewport": {"northeast": {"lat": 13.0498018802915, "lng": 80.18181203029151}, "southwest": {"lat": 13.0471039197085, "lng": 80.1791140697085}}}, "place_id": "ChIJf1RJuN1hUjoRV4fQlOy6bKs", "plus_code": {"global_code": "7M5225XJ+95", "compound_code": "25XJ+95 Chennai, Tamil Nadu, India"}, "vicinity": "3rd Street, Sastha Nagar, Valasaravakkam, Chennai", "scope": "GOOGLE", "business_status": "OPERATIONAL", "types": ["local_government_office", "point_of_interest", "establishment"], "icon": "https://maps.gstatic.com/mapfiles/place_api/icons/v1/png_71/civic_building-71.png"}, {"rating": 5, "user_ratings_total": 1, "permanently_closed": true, "name": "Om Xerox", "reference": "ChIJFTAJ6zBhUjoRNqYOiIMaTqQ", "geometry": {"location": {"lat": 13.0484876, "lng": 80.1778967}, "viewport": {"northeast": {"lat": 13.0498509802915, "lng": 80.1792459302915}, "southwest": {"lat": 13.0471530197085, "lng": 80.1765479697085}}}, "place_id": "ChIJFTAJ6zBhUjoRNqYOiIMaTqQ", "plus_code": {"global_code": "7M5225XH+95", "compound_code": "25XH+95 Chennai, Tamil Nadu, India"}, "vicinity": "37, Sridevikuppam, Muralikrishna Nagar Main Road, Murali Krishna nagar, Valasaravakkam, Chennai", "scope": "GOOGLE", "business_status": "CLOSED_TEMPORARILY", "types": ["local_government_office", "point_of_interest", "store", "establishment"], "icon": "https://maps.gstatic.com/mapfiles/place_api/icons/v1/png_71/shopping-71.png"}, {"permanently_closed": true, "name": "MANAMAKKAL MALAI", "reference": "ChIJCaJhYNNmUjoRSHLtj7dq16c", "geometry": {"location": {"lat": 13.039349, "lng": 80.1889723}, "viewport": {"northeast": {"lat": 13.0407194802915, "lng": 80.1903187802915}, "southwest": {"lat": 13.0380215197085, "lng": 80.1876208197085}}}, "place_id": "ChIJCaJhYNNmUjoRSHLtj7dq16c", "plus_code": {"global_code": "7M5225QQ+PH", "compound_code": "25QQ+PH Chennai, Tamil Nadu, India"}, "vicinity": "17, Srinivasa Street, KK Nagar West, Nesapakkam, Chennai", "photos": [{"photo_reference": "ATtYBwJ9A99oHZIwjnGKhAUjP_1FKX05SzI7nIU6vXJ6bn7OxdXkQduib-Kn4iizbjvhE6zDb6WYM5lTbm8xafptUGOKztnhonpfgTy8f5Pq0E-huShO5kbsiXrTkg-t8TdF3ANubSxtmUs6aNJdxRzWfDeOQsa2PI_WyGD4vtjW_GBasV6a", "width": 480, "html_attributions": ["<a href=\"https://maps.google.com/maps/contrib/112895888949701566930\">MANAMAKKAL MALAI</a>"], "height": 270}], "scope": "GOOGLE", "business_status": "CLOSED_TEMPORARILY", "types": ["local_government_office", "point_of_interest", "establishment"], "icon": "https://maps.gstatic.com/mapfiles/place_api/icons/v1/png_71/civic_building-71.png"}, {"rating": 5, "user_ratings_total": 3, "name": "1myCareer", "reference": "ChIJuUNh5DJhUjoRXsLbBHAUyb0", "geometry": {"location": {"lat": 13.047283, "lng": 80.185622}, "viewport": {"northeast": {"lat": 13.0486196802915, "lng": 80.18689793029151}, "southwest": {"lat": 13.0459217197085, "lng": 80.18419996970849}}}, "place_id": "ChIJuUNh5DJhUjoRXsLbBHAUyb0", "plus_code": {"global_code": "7M5225WP+W6", "compound_code": "25WP+W6 Chennai, Tamil Nadu, India"}, "vicinity": "17/1, Daaru Complex, 1st Floor, Gandhi Street, Alwartirunagar, Chennai", "scope": "GOOGLE", "business_status": "OPERATIONAL", "types": ["local_government_office", "point_of_interest", "establishment"], "icon": "https://maps.gstatic.com/mapfiles/place_api/icons/v1/png_71/civic_building-71.png"}, {"name": "AVADI NADAR MATRIMONIAL SERVICES", "reference": "ChIJWSKWAjNhUjoRDV0WAJppOp8", "geometry": {"location": {"lat": 13.0475704, "lng": 80.1853356}, "viewport": {"northeast": {"lat": 13.0489651302915, "lng": 80.1866779302915}, "southwest": {"lat": 13.0462671697085, "lng": 80.18397996970849}}}, "place_id": "ChIJWSKWAjNhUjoRDV0WAJppOp8", "plus_code": {"global_code": "7M5225XP+24", "compound_code": "25XP+24 Avadi, Tamil Nadu, India"}, "vicinity": "Door no, Jeevan appartments,g-1,iceland block, 11, Pillaiyar Koil Street, Govardanagiri, Avadi", "scope": "GOOGLE", "business_status": "OPERATIONAL", "types": ["local_government_office", "point_of_interest", "establishment"], "icon": "https://maps.gstatic.com/mapfiles/place_api/icons/v1/png_71/civic_building-71.png"}, {"permanently_closed": true, "name": "Suresh House", "reference": "ChIJKzerEnFhUjoR7Sfscu454xU", "geometry": {"location": {"lat": 13.0476651, "lng": 80.1855169}, "viewport": {"northeast": {"lat": 13.0492480302915, "lng": 80.1870600302915}, "southwest": {"lat": 13.0465500697085, "lng": 80.1843620697085}}}, "place_id": "ChIJKzerEnFhUjoR7Sfscu454xU", "plus_code": {"global_code": "7M5225XP+36", "compound_code": "25XP+36 Chennai, Tamil Nadu, India"}, "vicinity": "34, Alwar Thirunagar Annexe, New Colony, Valasaravakkam, Chennai", "scope": "GOOGLE", "business_status": "CLOSED_TEMPORARILY", "types": ["local_government_office", "point_of_interest", "establishment"], "icon": "https://maps.gstatic.com/mapfiles/place_api/icons/v1/png_71/civic_building-71.png"}, {"name": "Udhaya Matrimony", "reference": "ChIJVVD-7RlhUjoRSxEVLI1JHhc", "geometry": {"location": {"lat": 13.0323999, "lng": 80.17386069999999}, "viewport": {"northeast": {"lat": 13.0337792802915, "lng": 80.1752180802915}, "southwest": {"lat": 13.0310813197085, "lng": 80.17252011970848}}}, "place_id": "ChIJVVD-7RlhUjoRSxEVLI1JHhc", "plus_code": {"global_code": "7M5225JF+XG", "compound_code": "25JF+XG Chennai, Tamil Nadu, India"}, "vicinity": "No 4A, 1 st Cross Main Road, Valasaravakkam, Chennai", "scope": "GOOGLE", "business_status": "OPERATIONAL", "types": ["local_government_office", "point_of_interest", "establishment"], "icon": "https://maps.gstatic.com/mapfiles/place_api/icons/v1/png_71/civic_building-71.png"}, {"rating": 4, "user_ratings_total": 1, "permanently_closed": true, "name": "Anandhi Mahal", "reference": "ChIJjZ_57oNnUjoRkkLtWbrfEVo", "geometry": {"location": {"lat": 13.0383303, "lng": 80.1899423}, "viewport": {"northeast": {"lat": 13.0396805302915, "lng": 80.19131988029149}, "southwest": {"lat": 13.0369825697085, "lng": 80.18862191970848}}}, "place_id": "ChIJjZ_57oNnUjoRkkLtWbrfEVo", "plus_code": {"global_code": "7M5225QQ+8X", "compound_code": "25QQ+8X Chennai, Tamil Nadu, India"}, "vicinity": "West Vanniar Street, Indian Bank Colony, KK Nagar West, Nesapakkam, Chennai", "scope": "GOOGLE", "business_status": "CLOSED_TEMPORARILY", "types": ["local_government_office", "point_of_interest", "establishment"], "icon": "https://maps.gstatic.com/mapfiles/place_api/icons/v1/png_71/civic_building-71.png"}, {"rating": 5, "user_ratings_total": 1, "permanently_closed": true, "name": "Credit Card Cash", "reference": "ChIJP_Dzn91nUjoRG8_5vhyk_1s", "geometry": {"location": {"lat": 13.0369205, "lng": 80.1898403}, "viewport": {"northeast": {"lat": 13.0382818302915, "lng": 80.1911901302915}, "southwest": {"lat": 13.0355838697085, "lng": 80.18849216970848}}}, "place_id": "ChIJP_Dzn91nUjoRG8_5vhyk_1s", "plus_code": {"global_code": "7M5225PQ+QW", "compound_code": "25PQ+QW Chennai, Tamil Nadu, India"}, "vicinity": "S-1,Best Sri Krishna Apartments, 66, Pillaiyar Kovil Street, West Jafferkhanpet, Chennai", "scope": "GOOGLE", "business_status": "CLOSED_TEMPORARILY", "types": ["local_government_office", "point_of_interest", "establishment"], "icon": "https://maps.gstatic.com/mapfiles/place_api/icons/v1/png_71/civic_building-71.png"}, {"rating": 4.8, "user_ratings_total": 8, "name": "Common Service Centre Ramapuram", "reference": "ChIJ1cNEkxJhUjoRJwybVg_wutA", "geometry": {"location": {"lat": 13.0331129, "lng": 80.17184929999999}, "viewport": {"northeast": {"lat": 13.0344559302915, "lng": 80.1732317802915}, "southwest": {"lat": 13.0317579697085, "lng": 80.1705338197085}}}, "opening_hours": {"open_now": false}, "place_id": "ChIJ1cNEkxJhUjoRJwybVg_wutA", "plus_code": {"global_code": "7M5225MC+6P", "compound_code": "25MC+6P Chennai, Tamil Nadu, India"}, "vicinity": "33, Poothapedu Main Road, Annai Sathya Nagar, Ramapuram, Chennai", "photos": [{"photo_reference": "ATtYBwIpe3evRY8y_j5MmjLFs1YqObkMGR0-qbcY5HKew4pZ4Mf4qxg4MJGAB7I3CyQ59kHh1BSYiBb2pPIhF-fxtfynpvsk5HsdIWBpyfmzPVAme0dZaR9PDwHy5TiKQXND_-bPhl-hmedC4i1JhHqe0QHgViX9IVm72hgJVlYYAv-V23lX", "width": 738, "html_attributions": ["<a href=\"https://maps.google.com/maps/contrib/105993176073815746828\">Common Service Centre Ramapuram</a>"], "height": 415}], "scope": "GOOGLE", "business_status": "OPERATIONAL", "types": ["finance", "insurance_agency", "travel_agency", "local_government_office", "point_of_interest", "establishment"], "icon": "https://maps.gstatic.com/mapfiles/place_api/icons/v1/png_71/civic_building-71.png"}, {"permanently_closed": true, "name": "Dharmalingam Human Rights", "reference": "ChIJFWYwxQFhUjoRslNA6ITF7sA", "geometry": {"location": {"lat": 13.0416265, "lng": 80.1688444}, "viewport": {"northeast": {"lat": 13.0429982302915, "lng": 80.1701954302915}, "southwest": {"lat": 13.0403002697085, "lng": 80.1674974697085}}}, "place_id": "ChIJFWYwxQFhUjoRslNA6ITF7sA", "plus_code": {"global_code": "7M5225R9+MG", "compound_code": "25R9+MG Chennai, Tamil Nadu, India"}, "vicinity": "12, Perumal Koil Street, Madhiravedu, Chennai", "scope": "GOOGLE", "business_status": "CLOSED_TEMPORARILY", "types": ["local_government_office", "point_of_interest", "establishment"], "icon": "https://maps.gstatic.com/mapfiles/place_api/icons/v1/png_71/civic_building-71.png"}, {"rating": 5, "user_ratings_total": 1, "name": "Free Legal Help Association", "reference": "ChIJt9FfV4pnUjoRDNco1NHCYlQ", "geometry": {"location": {"lat": 13.0459459, "lng": 80.1894672}, "viewport": {"northeast": {"lat": 13.0472926802915, "lng": 80.19079708029149}, "southwest": {"lat": 13.0445947197085, "lng": 80.18809911970848}}}, "place_id": "ChIJt9FfV4pnUjoRDNco1NHCYlQ", "plus_code": {"global_code": "7M5225WQ+9Q", "compound_code": "25WQ+9Q Chennai, Tamil Nadu, India"}, "vicinity": "1St Floor, Sri Vidya Apartment,Flat C1, No 16, Vembuliamman Koil Street, KK Nagar West, Chennai", "photos": [{"photo_reference": "ATtYBwL31c_5nEfmoqFKF6em3w3KMWwNXvP7Ojhn1tSnjMGl_4H3AGKBHnzANN-FwK_6Dm6weuAIOinPnV7EQa0Uy-dgLFZTOEuKEsM7yul9aKDVPnGLSOwZiDvT-8DumeiPbjX33BXQ0skgEuWmIvUHU-EXugEn1YnUSI38P1_0FKiwJGUr", "width": 1000, "html_attributions": ["<a href=\"https://maps.google.com/maps/contrib/114659815245919047856\">Free Legal Help Association</a>"], "height": 667}], "scope": "GOOGLE", "business_status": "OPERATIONAL", "types": ["lawyer", "local_government_office", "point_of_interest", "establishment"], "icon": "https://maps.gstatic.com/mapfiles/place_api/icons/v1/png_71/generic_business-71.png"}, {"permanently_closed": true, "name": "Mini Hall", "reference": "ChIJ_XiPSDdhUjoRMVRXfJMNh8o", "geometry": {"location": {"lat": 13.0507994, "lng": 80.1775353}, "viewport": {"northeast": {"lat": 13.0521483802915, "lng": 80.1788864302915}, "southwest": {"lat": 13.0494504197085, "lng": 80.17618846970849}}}, "place_id": "ChIJ_XiPSDdhUjoRMVRXfJMNh8o", "plus_code": {"global_code": "7M52352H+82", "compound_code": "352H+82 Chennai, Tamil Nadu, India"}, "vicinity": "7th Street, Sri Lakshmi Nagar, Valasaravakkam, Chennai", "scope": "GOOGLE", "business_status": "CLOSED_TEMPORARILY", "types": ["local_government_office", "point_of_interest", "establishment"], "icon": "https://maps.gstatic.com/mapfiles/place_api/icons/v1/png_71/civic_building-71.png"}, {"rating": 2, "user_ratings_total": 1, "name": "DTP course coaching center(Seva Samajam Industrial School)", "reference": "ChIJ_f23dzRhUjoRWPhd4afAB70", "geometry": {"location": {"lat": 13.050399, "lng": 80.1839102}, "viewport": {"northeast": {"lat": 13.0518070802915, "lng": 80.1852531302915}, "southwest": {"lat": 13.0491091197085, "lng": 80.1825551697085}}}, "opening_hours": {"open_now": false}, "place_id": "ChIJ_f23dzRhUjoRWPhd4afAB70", "plus_code": {"global_code": "7M52352M+5H", "compound_code": "352M+5H Chennai, Tamil Nadu, India"}, "vicinity": "Alwartirunagar, Valasaravakkam, Chennai", "scope": "GOOGLE", "business_status": "OPERATIONAL", "types": ["local_government_office", "point_of_interest", "establishment"], "icon": "https://maps.gstatic.com/mapfiles/place_api/icons/v1/png_71/civic_building-71.png"}, {"name": "B.K. INDUSTRIES", "reference": "ChIJ664yp2VnUjoRgesSPGm_A14", "geometry": {"location": {"lat": 13.0365419, "lng": 80.19133939999999}, "viewport": {"northeast": {"lat": 13.0379058802915, "lng": 80.1927167802915}, "southwest": {"lat": 13.0352079197085, "lng": 80.1900188197085}}}, "place_id": "ChIJ664yp2VnUjoRgesSPGm_A14", "plus_code": {"global_code": "7M5225PR+JG", "compound_code": "25PR+JG Chennai, Tamil Nadu, India"}, "vicinity": "No.3/173, Pilaiyar Kovil 5th Street, Periyar Nagar Extrn, 61-Nandampakka, Kundrathur, Chennai", "scope": "GOOGLE", "business_status": "OPERATIONAL", "types": ["local_government_office", "point_of_interest", "establishment"], "icon": "https://maps.gstatic.com/mapfiles/place_api/icons/v1/png_71/civic_building-71.png"}]}