{"status": "OK", "html_attributions": [], "results": [{"rating": 4.4, "user_ratings_total": 10, "permanently_closed": true, "name": "TamilMatrimony.com from BharatMatrimony.com", "reference": "ChIJkxBCnO9lUjoRn3Trs34iM5o", "geometry": {"location": {"lat": 13.094208, "lng": 80.263055}, "viewport": {"northeast": {"lat": 13.0955730302915, "lng": 80.26443428029151}, "southwest": {"lat": 13.0928750697085, "lng": 80.26173631970849}}}, "place_id": "ChIJkxBCnO9lUjoRn3Trs34iM5o", "plus_code": {"global_code": "7M5237V7+M6", "compound_code": "37V7+M6 Chennai, Tamil Nadu, India"}, "vicinity": "Ground Floor, Old No. 17, New No. 43, Thana Street, Purasawalkam, Chennai", "scope": "GOOGLE", "business_status": "CLOSED_TEMPORARILY", "types": ["local_government_office", "health", "point_of_interest", "establishment"], "icon": "https://maps.gstatic.com/mapfiles/place_api/icons/v1/png_71/civic_building-71.png"}, {"name": "Metro Water Office", "reference": "ChIJjZpB8-dlUjoRmTq2Px9CbGg", "geometry": {"location": {"lat": 13.0915993, "lng": 80.254852}, "viewport": {"northeast": {"lat": 13.0929535302915, "lng": 80.2561242802915}, "southwest": {"lat": 13.0902555697085, "lng": 80.2534263197085}}}, "place_id": "ChIJjZpB8-dlUjoRmTq2Px9CbGg", "plus_code": {"global_code": "7M5237R3+JW", "compound_code": "37R3+JW Chennai, Tamil Nadu, India"}, "vicinity": "Kosapet, Purasaiwakkam, Chennai", "scope": "GOOGLE", "business_status": "OPERATIONAL", "types": ["local_government_office", "point_of_interest", "establishment"], "icon": "https://maps.gstatic.com/mapfiles/place_api/icons/v1/png_71/civic_building-71.png"}, {"rating": 3.4, "user_ratings_total": 5, "name": "Chennai Metro Office", "reference": "ChIJodXloOZlUjoRYgUAhqbwgDk", "geometry": {"location": {"lat": 13.0886158, "lng": 80.2598691}, "viewport": {"northeast": {"lat": 13.0900443802915, "lng": 80.26120778029151}, "southwest": {"lat": 13.0873464197085, "lng": 80.2585098197085}}}, "opening_hours": {"open_now": false}, "place_id": "ChIJodXloOZlUjoRYgUAhqbwgDk", "plus_code": {"global_code": "7M5237Q5+CW", "compound_code": "37Q5+CW Chennai, Tamil Nadu, India"}, "vicinity": "Dally Street, Choolai, Chennai", "scope": "GOOGLE", "business_status": "OPERATIONAL", "types": ["local_government_office", "point_of_interest", "establishment"], "icon": "https://maps.gstatic.com/mapfiles/place_api/icons/v1/png_71/civic_building-71.png"}, {"rating": 3.6, "user_ratings_total": 36, "name": "Pulianthope Regional Transport Office", "reference": "ChIJi6AXQvJlUjoR1h0qiO5dtDw", "geometry": {"location": {"lat": 13.1009348, "lng": 80.2670547}, "viewport": {"northeast": {"lat": 13.1023046802915, "lng": 80.26845118029149}, "southwest": {"lat": 13.0996067197085, "lng": 80.26575321970849}}}, "opening_hours": {"open_now": false}, "place_id": "ChIJi6AXQvJlUjoR1h0qiO5dtDw", "plus_code": {"global_code": "7M524728+9R", "compound_code": "4728+9R Chennai, Tamil Nadu, India"}, "vicinity": "Powder Mill Road, Grey Nagar, Pulianthope, Chennai", "photos": [{"photo_reference": "ATtYBwJRErmZHAUlM9UeHLpzMf4okaJhSy-QFimP9jLb5L6JQ3apikxDnsthXBCOXHQxOFinke2a__MDmquh-08OENQ1Talu8heb_NtosdexjPUj3A-rwioiG6d8XkTtIV9ZtiZTsZF-84MF8zYfIJB_RzEyRd7DmZPCAv4qr4Ozd_DW9BMy", "width": 4000, "html_attributions": ["<a href=\"https://maps.google.com/maps/contrib/108540491636374025143\">Abishek R</a>"], "height": 1844}], "scope": "GOOGLE", "business_status": "OPERATIONAL", "types": ["local_government_office", "point_of_interest", "establishment"], "icon": "https://maps.gstatic.com/mapfiles/place_api/icons/v1/png_71/civic_building-71.png"}, {"name": "TAMIL NADU GOVERNMENT CABLE TV SERVICE", "reference": "ChIJ46HZXV5lUjoR_MmY3bqQhPc", "geometry": {"location": {"lat": 13.0992926, "lng": 80.2597997}, "viewport": {"northeast": {"lat": 13.1006415802915, "lng": 80.2611486802915}, "southwest": {"lat": 13.0979436197085, "lng": 80.25845071970849}}}, "place_id": "ChIJ46HZXV5lUjoR_MmY3bqQhPc", "plus_code": {"global_code": "7M5237X5+PW", "compound_code": "37X5+PW Chennai, Tamil Nadu, India"}, "vicinity": "Doctor Ambedkar College Road, Buckingham Carnatic Mills, Pulianthope, Chennai", "photos": [{"photo_reference": "ATtYBwLLfiTY4H74YljyxG4DzShyjSwyap6HixPhfBFuzZcCOq4GWHbPrY4TWm4qopHCLRjY0jG7AvS2fszoBPSmhWMUOChSloLMS7UXWEtBHcgeJ8GGXwXgIVn9Avpngn6d99vLP4xydiqakSfDD2XvGdhQcMFNsguVZKIUlzO9wnHkMQTE", "width": 3481, "html_attributions": ["<a href=\"https://maps.google.com/maps/contrib/116038925447963429323\">ramalingam india</a>"], "height": 2290}], "scope": "GOOGLE", "business_status": "OPERATIONAL", "types": ["local_government_office", "point_of_interest", "establishment"], "icon": "https://maps.gstatic.com/mapfiles/place_api/icons/v1/png_71/civic_building-71.png"}, {"name": "E SERVICE CENTER", "reference": "ChIJNe8SmYJlUjoRRJRNcMrp5gE", "geometry": {"location": {"lat": 13.1014557, "lng": 80.2603093}, "viewport": {"northeast": {"lat": 13.1028046802915, "lng": 80.26165828029151}, "southwest": {"lat": 13.1001067197085, "lng": 80.25896031970849}}}, "place_id": "ChIJNe8SmYJlUjoRRJRNcMrp5gE", "plus_code": {"global_code": "7M524726+H4", "compound_code": "4726+H4 Chennai, Tamil Nadu, India"}, "vicinity": "Doctor Ambedkar College Road, Buckingham Carnatic Mills, Pulianthope, Chennai", "photos": [{"photo_reference": "ATtYBwIYSLbw_71nPueQMB6_u0mVmPbDrA5euphHp1dZHBo40OjXG3D2dqBJJRPTFoxr1fZQo0EH611O11r88GNeEJ5qFDqkeyEMvq3iD7-nDAeJ1l64nGpHZZRyQFbKNbXxLYIoYf-FA86BfgBJwxV4JqTP-AGD6ehVnTnY5b9n8l-FKmOv", "width": 4128, "html_attributions": ["<a href=\"https://maps.google.com/maps/contrib/116038925447963429323\">ramalingam india</a>"], "height": 3096}], "scope": "GOOGLE", "business_status": "OPERATIONAL", "types": ["local_government_office", "point_of_interest", "establishment"], "icon": "https://maps.gstatic.com/mapfiles/place_api/icons/v1/png_71/civic_building-71.png"}, {"name": "GOVERNMENT E SERVICE", "reference": "ChIJZ0kcdVllUjoRph_5Kc7sKxI", "geometry": {"location": {"lat": 13.0952712, "lng": 80.2587308}, "viewport": {"northeast": {"lat": 13.0966124302915, "lng": 80.2601832302915}, "southwest": {"lat": 13.0939144697085, "lng": 80.2574852697085}}}, "place_id": "ChIJZ0kcdVllUjoRph_5Kc7sKxI", "plus_code": {"global_code": "7M5237W5+4F", "compound_code": "37W5+4F Chennai, Tamil Nadu, India"}, "vicinity": "72, Perambur Barracks Road, Conran Smith Nagar, Purasaiwakkam, Chennai", "scope": "GOOGLE", "business_status": "OPERATIONAL", "types": ["local_government_office", "point_of_interest", "establishment"], "icon": "https://maps.gstatic.com/mapfiles/place_api/icons/v1/png_71/civic_building-71.png"}, {"rating": 5, "user_ratings_total": 1, "name": "SUNDER CALL DRIVERS CHENNAI", "reference": "ChIJC0wzt8ZlUjoRx0e7UfAg9Ps", "geometry": {"location": {"lat": 13.0965391, "lng": 80.255265}, "viewport": {"northeast": {"lat": 13.0978880802915, "lng": 80.2566139802915}, "southwest": {"lat": 13.0951901197085, "lng": 80.2539160197085}}}, "opening_hours": {"open_now": true}, "place_id": "ChIJC0wzt8ZlUjoRx0e7UfAg9Ps", "plus_code": {"global_code": "7M5237W4+J4", "compound_code": "37W4+J4 Chennai, Tamil Nadu, India"}, "vicinity": "8, New,15,Old, 1, Venkatadri Street, Kosapet, Purasaiwakkam, Chennai", "photos": [{"photo_reference": "ATtYBwJ6nSF90b0zAGuynyvgxA4yfMRsL-AJ5YikeL0Q8o-mqYEE94nciF04BloKbwzY9YkR5bJO2RXdIVrRB0e-XJZ2yotW3BAH0CVNZXe5nb478Mx41uiUwyh0Mtwz4gKWoIrWoatxiarcN_lV0Nj9NQjHdmwulScsPVZ9dGVQhjGwS54G", "width": 2448, "html_attributions": ["<a href=\"https://maps.google.com/maps/contrib/110667826674083918829\">sundaramoorthy sundara</a>"], "height": 3264}], "scope": "GOOGLE", "business_status": "OPERATIONAL", "types": ["local_government_office", "point_of_interest", "establishment"], "icon": "https://maps.gstatic.com/mapfiles/place_api/icons/v1/png_71/civic_building-71.png"}, {"rating": 1, "user_ratings_total": 1, "name": "S.S. Cars And Travels", "reference": "ChIJZ0Uu3udlUjoR5dP2MH8rOMc", "geometry": {"location": {"lat": 13.0927732, "lng": 80.2558645}, "viewport": {"northeast": {"lat": 13.0941258302915, "lng": 80.2572235302915}, "southwest": {"lat": 13.0914278697085, "lng": 80.25452556970849}}}, "place_id": "ChIJZ0Uu3udlUjoR5dP2MH8rOMc", "plus_code": {"global_code": "7M5237V4+48", "compound_code": "37V4+48 Chennai, Tamil Nadu, India"}, "vicinity": "Erran Street, Kosapet, Purasaiwakkam, Chennai", "scope": "GOOGLE", "business_status": "OPERATIONAL", "types": ["car_dealer", "travel_agency", "local_government_office", "point_of_interest", "store", "establishment"], "icon": "https://maps.gstatic.com/mapfiles/place_api/icons/v1/png_71/shopping-71.png"}, {"name": "CKM Church India", "reference": "ChIJU7-JEQ1lUjoRiiT_CJFzipY", "geometry": {"location": {"lat": 13.1081198, "lng": 80.2625758}, "viewport": {"northeast": {"lat": 13.1094694302915, "lng": 80.26392198029151}, "southwest": {"lat": 13.1067714697085, "lng": 80.2612240197085}}}, "place_id": "ChIJU7-JEQ1lUjoRiiT_CJFzipY", "plus_code": {"global_code": "7M524757+62", "compound_code": "4757+62 Chennai, Tamil Nadu, India"}, "vicinity": "20/16, Brightons Road, Kannikapuram, Pulianthope, Chennai", "photos": [{"photo_reference": "ATtYBwJXFKiSsMTQHimV48GKeAmAuiLFJQO6j4iNjfVqiMCk89CYS8EraYqj0zW-5dfM5TEgJ2e8-HiUU6UKTWeY_s8MC98r8TPpIIQKgNhH1TKXaxaAjz4eSf7bbTqNJyF7_aOyNMcfnRbKJkASqsgj3Ff2L2Bknbvf4P2_0_G15VS_cIjY", "width": 1920, "html_attributions": ["<a href=\"https://maps.google.com/maps/contrib/112010759111746489987\">CHRIST KINGDOM MINISTRY</a>"], "height": 1080}], "scope": "GOOGLE", "business_status": "OPERATIONAL", "types": ["local_government_office", "point_of_interest", "establishment"], "icon": "https://maps.gstatic.com/mapfiles/place_api/icons/v1/png_71/civic_building-71.png"}, {"rating": 3.1, "user_ratings_total": 16, "name": "Mothi Matrimony", "reference": "ChIJ-_igT7BlUjoRQsFr-2TOwaA", "geometry": {"location": {"lat": 13.1088811, "lng": 80.2567759}, "viewport": {"northeast": {"lat": 13.1102300802915, "lng": 80.2581248802915}, "southwest": {"lat": 13.1075321197085, "lng": 80.2554269197085}}}, "opening_hours": {"open_now": false}, "place_id": "ChIJ-_igT7BlUjoRQsFr-2TOwaA", "plus_code": {"global_code": "7M524754+HP", "compound_code": "4754+HP Chennai, Tamil Nadu, India"}, "vicinity": "near Jeeva Station, 1 Melpatti, near Jeeva Station, Ponappa Street, Vyasarpadi, Chennai", "photos": [{"photo_reference": "ATtYBwLzj8QANIXF2-EBHV7ICymNXPnVv-ZQOJZRkdhgmaeqZvGcl1AiTFJ1BYgnOpJg5H19dZlYhpuq3eh9g2taWPRAkS9LsV_eeV4e6Ofytu2kBz2x8bcjGHF_olWGX7lKKHVzyfUZ1MWP2Avm4f8KgkTwIoErtSfnqedo7-AqK9GMSH5d", "width": 720, "html_attributions": ["<a href=\"https://maps.google.com/maps/contrib/100939692568879695354\">MASS MEDIA POWER</a>"], "height": 720}], "scope": "GOOGLE", "business_status": "OPERATIONAL", "types": ["local_government_office", "point_of_interest", "establishment"], "icon": "https://maps.gstatic.com/mapfiles/place_api/icons/v1/png_71/civic_building-71.png"}, {"rating": 3, "user_ratings_total": 2, "name": "Esic Ramo's District Office", "reference": "ChIJk99Hnb9lUjoRbJScGWZ-Sl0", "geometry": {"location": {"lat": 13.1049775, "lng": 80.25172859999999}, "viewport": {"northeast": {"lat": 13.1063745302915, "lng": 80.2529389302915}, "southwest": {"lat": 13.1036765697085, "lng": 80.2502409697085}}}, "place_id": "ChIJk99Hnb9lUjoRbJScGWZ-Sl0", "plus_code": {"global_code": "7M524732+XM", "compound_code": "4732+XM Chennai, Tamil Nadu, India"}, "vicinity": "Jamalia Nagar, Jamalia, Chennai", "scope": "GOOGLE", "business_status": "OPERATIONAL", "types": ["local_government_office", "point_of_interest", "establishment"], "icon": "https://maps.gstatic.com/mapfiles/place_api/icons/v1/png_71/civic_building-71.png"}, {"rating": 3.6, "user_ratings_total": 8, "name": "Rams Mahal A/C", "reference": "ChIJoWoaLZRlUjoR-5_o_VNJNzI", "geometry": {"location": {"lat": 13.1095301, "lng": 80.2573262}, "viewport": {"northeast": {"lat": 13.1109521802915, "lng": 80.2586347802915}, "southwest": {"lat": 13.1082542197085, "lng": 80.25593681970848}}}, "place_id": "ChIJoWoaLZRlUjoR-5_o_VNJNzI", "plus_code": {"global_code": "7M524754+RW", "compound_code": "4754+RW Chennai, Tamil Nadu, India"}, "vicinity": "Stephenson Lane, Avvai Nagar, Binny Garden, Vyasarpadi, Chennai", "photos": [{"photo_reference": "ATtYBwKwflaqxY9qUt_5MnC2Ifc3d-RHxY-4nVZckYG4bVM2WID10bNmINsrO3kqKaeJeZvuONvtIMbvHMJ93bsykQW_Y8QmQXApSFWJqNl2SEh3Gz4iOkTu3gDfomYw8EuVcess9IHbeFC-A6Z-q2HU2q83vLpBxCcVRQwVbH-aoXi11c1p", "width": 2592, "html_attributions": ["<a href=\"https://maps.google.com/maps/contrib/102923932344207468881\">Sushanta Banerjee</a>"], "height": 1944}], "scope": "GOOGLE", "business_status": "OPERATIONAL", "types": ["city_hall", "local_government_office", "point_of_interest", "establishment"], "icon": "https://maps.gstatic.com/mapfiles/place_api/icons/v1/png_71/civic_building-71.png"}, {"permanently_closed": true, "name": "S3 Surendhra System Services", "reference": "ChIJM9Jj18JlUjoRrz-7M-yP4Qg", "geometry": {"location": {"lat": 13.0935291, "lng": 80.2518707}, "viewport": {"northeast": {"lat": 13.0946484802915, "lng": 80.2532400802915}, "southwest": {"lat": 13.0919505197085, "lng": 80.2505421197085}}}, "place_id": "ChIJM9Jj18JlUjoRrz-7M-yP4Qg", "plus_code": {"global_code": "7M5237V2+CP", "compound_code": "37V2+CP Chennai, Tamil Nadu, India"}, "vicinity": "No. 11/1, Kamarajar 1st Street, Otteri, Purasaiwakkam, Chennai", "scope": "GOOGLE", "business_status": "CLOSED_TEMPORARILY", "types": ["local_government_office", "point_of_interest", "establishment"], "icon": "https://maps.gstatic.com/mapfiles/place_api/icons/v1/png_71/generic_business-71.png"}, {"permanently_closed": true, "name": "Kalyanavaibogam", "reference": "ChIJsToJIedlUjoRJ7GzwrFOX0U", "geometry": {"location": {"lat": 13.088554, "lng": 80.256991}, "viewport": {"northeast": {"lat": 13.0896926802915, "lng": 80.25840293029151}, "southwest": {"lat": 13.0869947197085, "lng": 80.25570496970849}}}, "place_id": "ChIJsToJIedlUjoRJ7GzwrFOX0U", "plus_code": {"global_code": "7M5237Q4+CQ", "compound_code": "37Q4+CQ Chennai, Tamil Nadu, India"}, "vicinity": "Suresh Net Zone No. 17, Murugappa Street Corner, Kariyappa St, Purasawalkam", "scope": "GOOGLE", "business_status": "CLOSED_TEMPORARILY", "types": ["local_government_office", "point_of_interest", "establishment"], "icon": "https://maps.gstatic.com/mapfiles/place_api/icons/v1/png_71/civic_building-71.png"}, {"name": "Parthasarathy", "reference": "ChIJ0dYgDg9lUjoR8AS7b5towrk", "geometry": {"location": {"lat": 13.0902775, "lng": 80.26799729999999}, "viewport": {"northeast": {"lat": 13.0916197302915, "lng": 80.2692956302915}, "southwest": {"lat": 13.0889217697085, "lng": 80.26659766970849}}}, "place_id": "ChIJ0dYgDg9lUjoR8AS7b5towrk", "plus_code": {"global_code": "7M5237R9+45", "compound_code": "37R9+45 Chennai, Tamil Nadu, India"}, "vicinity": "Land, Bashyam, 1st Street, Otteri, Purasaiwakkam, Chennai", "scope": "GOOGLE", "business_status": "OPERATIONAL", "types": ["finance", "local_government_office", "point_of_interest", "establishment"], "icon": "https://maps.gstatic.com/mapfiles/place_api/icons/v1/png_71/civic_building-71.png"}, {"name": "BIOTEK AIRFLOW SYSTEMS", "reference": "ChIJNe0ZY3FlUjoRvELyHpXtoqY", "geometry": {"location": {"lat": 13.0881594, "lng": 80.2555162}, "viewport": {"northeast": {"lat": 13.0895083802915, "lng": 80.25686518029151}, "southwest": {"lat": 13.0868104197085, "lng": 80.2541672197085}}}, "opening_hours": {"open_now": false}, "place_id": "ChIJNe0ZY3FlUjoRvELyHpXtoqY", "plus_code": {"global_code": "7M5237Q4+76", "compound_code": "37Q4+76 Chennai, Tamil Nadu, India"}, "vicinity": "104, VEDANTA, Murugappa Street Selavoyal, Kodungaiyur, Chennai", "scope": "GOOGLE", "business_status": "OPERATIONAL", "types": ["local_government_office", "point_of_interest", "establishment"], "icon": "https://maps.gstatic.com/mapfiles/place_api/icons/v1/png_71/civic_building-71.png"}]}