{"status": "OK", "next_page_token": "ATtYBwJmdBWPSDhciOq-BjeHyluZZ_sB_D-LVYz4E1SyGwg7nGDv03Rny663eKwruW3YgQBz4oG5tpyW2zoeyHGWIQJtlmDAs_QfKNdl9PpaaOg-y-W-o10M0RrVg3RFY_e5SOFFYd_BkGnWA4uY1YIRr7paiNmHE6v1-aLNtpqQxdiWYPp-AmGqhyRKGEAAUOFN3SYDGBDWnuOIu7RbvqzN7FzkeEc7oFZLP_lii0Xg78IVLU6Tn-bDRM_ZAZWxibjdKVkSScAylbQcKA6RPqiUeXxi9mfMXyhQhlWhE8p9NfWhOCAsLJA971Y3gGnbdAkLhKE3gGINYEKx1tcevycC4SUwQ44fOH6Oy7_XVNx2Br48rB_XJscAIvk5dEKeb1XN7XNJxR1q_R9rT24WBcksaqJPimOl9XkR1Ncinf7UcP04gM0oOAwF3g", "html_attributions": [], "results": [{"rating": 4.4, "user_ratings_total": 668, "name": "Apollo Children's Hospital", "reference": "ChIJWWqw8mpmUjoRl8C07DS2T7A", "geometry": {"location": {"lat": 13.0601534, "lng": 80.2523041}, "viewport": {"northeast": {"lat": 13.0613484802915, "lng": 80.25371438029151}, "southwest": {"lat": 13.0586505197085, "lng": 80.2510164197085}}}, "opening_hours": {"open_now": true}, "place_id": "ChIJWWqw8mpmUjoRl8C07DS2T7A", "plus_code": {"global_code": "7M523762+3W", "compound_code": "3762+3W Chennai, Tamil Nadu, India"}, "vicinity": "No. 15, Shafee Mohammed Road, Thousand Lights, Chennai", "photos": [{"photo_reference": "ATtYBwJk0hl2Vmn85aCb5Wcvys0_duFUA0gEyJXJQK3lI-76VWXM-Jn63ymtGYxDr9dsbY2PMWUiwiAbCXa8pBrwxvqkUlGWHnfjGJJ3ERARIe8xMZ8Fgia6Dws9q2MDUe6z1wd-0FE6msjgSLp8Mx-MMDcvMlIVWT2ryu4TnONEPcBMLG_K", "width": 4160, "html_attributions": ["<a href=\"https://maps.google.com/maps/contrib/111925289543412938483\">Jayamoorthy Thambumuthu</a>"], "height": 3120}], "scope": "GOOGLE", "business_status": "OPERATIONAL", "types": ["hospital", "health", "point_of_interest", "establishment"], "icon": "https://maps.gstatic.com/mapfiles/place_api/icons/v1/png_71/hospital-71.png"}, {"rating": 2.9, "user_ratings_total": 8, "name": "Life Med ABC", "reference": "ChIJ-YiUJz9mUjoR9Bvnwiv4x2Y", "geometry": {"location": {"lat": 13.0533398, "lng": 80.2576912}, "viewport": {"northeast": {"lat": 13.0546803302915, "lng": 80.2591151302915}, "southwest": {"lat": 13.0519823697085, "lng": 80.2564171697085}}}, "opening_hours": {"open_now": false}, "place_id": "ChIJ-YiUJz9mUjoR9Bvnwiv4x2Y", "plus_code": {"global_code": "7M523735+83", "compound_code": "3735+83 Chennai, Tamil Nadu, India"}, "vicinity": "12, Conron Smith Road, New Colony, Gopalapuram, Chennai", "scope": "GOOGLE", "business_status": "OPERATIONAL", "types": ["hospital", "doctor", "health", "point_of_interest", "establishment"], "icon": "https://maps.gstatic.com/mapfiles/place_api/icons/v1/png_71/generic_business-71.png"}, {"rating": 4.8, "user_ratings_total": 69, "name": "Harini Radhakrishnan Kesari Clinic", "reference": "ChIJB1TomDxmUjoRkvLW7_tZezU", "geometry": {"location": {"lat": 13.0554155, "lng": 80.26405}, "viewport": {"northeast": {"lat": 13.0567346302915, "lng": 80.2655656302915}, "southwest": {"lat": 13.0540366697085, "lng": 80.2628676697085}}}, "opening_hours": {"open_now": false}, "place_id": "ChIJB1TomDxmUjoRkvLW7_tZezU", "plus_code": {"global_code": "7M523747+5J", "compound_code": "3747+5J Chennai, Tamil Nadu, India"}, "vicinity": "Government hospital, opposite to Royapettah, next to Madurai Kannapar mess, 27, Westcott Road, Indira Garden, Royapettah, Chennai", "photos": [{"photo_reference": "ATtYBwLcnrH7tZ3SENk3q266xLv7PpdWfrRLKzKlU7ClmGEDwj211LJAPJ0743BeDX_VqG-L1RQ4SNTcPZ80fxrepdzPmR1RXYDRak4RjS9j2iq0jtPbPDTsPpCzZT3TtITXemk_iaFQymvwBvI9tix1wqeGLMIQMCaaM8BRxP-f_smrzmQF", "width": 4160, "html_attributions": ["<a href=\"https://maps.google.com/maps/contrib/109260900816573146592\">gopi Naina</a>"], "height": 3120}], "scope": "GOOGLE", "business_status": "OPERATIONAL", "types": ["hospital", "health", "point_of_interest", "establishment"], "icon": "https://maps.gstatic.com/mapfiles/place_api/icons/v1/png_71/generic_business-71.png"}, {"rating": 3.7, "user_ratings_total": 3, "name": "Raj Clinic", "reference": "ChIJsU3zoD5mUjoRwfDPeEJxdKw", "geometry": {"location": {"lat": 13.0544474, "lng": 80.2599374}, "viewport": {"northeast": {"lat": 13.0557422802915, "lng": 80.26128268029152}, "southwest": {"lat": 13.0530443197085, "lng": 80.25858471970851}}}, "opening_hours": {"open_now": false}, "place_id": "ChIJsU3zoD5mUjoRwfDPeEJxdKw", "plus_code": {"global_code": "7M523735+QX", "compound_code": "3735+QX Chennai, Tamil Nadu, India"}, "vicinity": "Near Jafery Opticals, 192/170, Peters Road, Peters Colony, Royapettah, Chennai", "photos": [{"photo_reference": "ATtYBwLlKir8odHUEe1TqgLdTxMazJYhuMqk3snLK2GrzuoRp88xrAAlcivGB1loTEOp2BVNbRIS0bBnO_MkI_Jd0aI3pzrvZ9ex6NhjvvZTOQU0g-cVSrOaRk60zvc6AWVD8nHy_HDZlZwLr0eWxYKM3_P3VzF9jccZGirytZ5YXIZs0GAz", "width": 760, "html_attributions": ["<a href=\"https://maps.google.com/maps/contrib/111172596789092921398\">Raj Clinic</a>"], "height": 1063}], "scope": "GOOGLE", "business_status": "OPERATIONAL", "types": ["hospital", "health", "point_of_interest", "establishment"], "icon": "https://maps.gstatic.com/mapfiles/place_api/icons/v1/png_71/generic_business-71.png"}, {"name": "Coswa Healthcare Private Limited", "reference": "ChIJY7ntejxmUjoRLgN-lARDE7M", "geometry": {"location": {"lat": 13.0539307, "lng": 80.2622026}, "viewport": {"northeast": {"lat": 13.0553128802915, "lng": 80.26355513029151}, "southwest": {"lat": 13.0526149197085, "lng": 80.26085716970849}}}, "place_id": "ChIJY7ntejxmUjoRLgN-lARDE7M", "plus_code": {"global_code": "7M523736+HV", "compound_code": "3736+HV Chennai, Tamil Nadu, India"}, "vicinity": "No.216&217, Peters Road, Ganapathy Colony, Royapettah, Chennai", "scope": "GOOGLE", "business_status": "OPERATIONAL", "types": ["hospital", "health", "point_of_interest", "establishment"], "icon": "https://maps.gstatic.com/mapfiles/place_api/icons/v1/png_71/hospital-71.png"}, {"rating": 4.8, "user_ratings_total": 9, "name": "HAVL HI-TECH SOLUTIONS", "reference": "ChIJz3LiiP9lUjoR9aVFJ2RqmrA", "geometry": {"location": {"lat": 13.061712, "lng": 80.26456999999999}, "viewport": {"northeast": {"lat": 13.0630720302915, "lng": 80.2659323802915}, "southwest": {"lat": 13.0603740697085, "lng": 80.2632344197085}}}, "opening_hours": {"open_now": false}, "place_id": "ChIJz3LiiP9lUjoR9aVFJ2RqmrA", "plus_code": {"global_code": "7M523767+MR", "compound_code": "3767+MR Chennai, Tamil Nadu, India"}, "vicinity": "Woods Road, Express Estate, Royapettah, Chennai", "scope": "GOOGLE", "business_status": "OPERATIONAL", "types": ["hospital", "health", "point_of_interest", "establishment"], "icon": "https://maps.gstatic.com/mapfiles/place_api/icons/v1/png_71/generic_business-71.png"}, {"rating": 4, "user_ratings_total": 3, "name": "Isha Arogya", "reference": "ChIJ-VEkrxdmUjoR0LTzJV8F5Ag", "geometry": {"location": {"lat": 13.0614835, "lng": 80.2633583}, "viewport": {"northeast": {"lat": 13.0628950302915, "lng": 80.2647829802915}, "southwest": {"lat": 13.0601970697085, "lng": 80.2620850197085}}}, "opening_hours": {"open_now": false}, "place_id": "ChIJ-VEkrxdmUjoR0LTzJV8F5Ag", "plus_code": {"global_code": "7M523767+H8", "compound_code": "3767+H8 Chennai, Tamil Nadu, India"}, "vicinity": "No.17, Govindasamy Naidu Layout, Singanallur, Coimbatore", "scope": "GOOGLE", "business_status": "OPERATIONAL", "types": ["hospital", "health", "point_of_interest", "establishment"], "icon": "https://maps.gstatic.com/mapfiles/place_api/icons/v1/png_71/generic_business-71.png"}, {"rating": 3, "user_ratings_total": 2, "name": "Rajasthani Health Foundation", "reference": "ChIJr6-bM0NvUjoRhahb9Hi1asY", "geometry": {"location": {"lat": 13.0639954, "lng": 80.2594242}, "viewport": {"northeast": {"lat": 13.0656361302915, "lng": 80.2603824802915}, "southwest": {"lat": 13.0629381697085, "lng": 80.25768451970849}}}, "opening_hours": {"open_now": false}, "place_id": "ChIJr6-bM0NvUjoRhahb9Hi1asY", "plus_code": {"global_code": "7M523775+HQ", "compound_code": "3775+HQ Chennai, Tamil Nadu, India"}, "vicinity": "3rd floor, Rajasthani Health Foundation #5 Fagun Chamber, 600, Ethiraj Salai, poo Behind Ethiraj College, Egmore, Chennai", "scope": "GOOGLE", "business_status": "OPERATIONAL", "types": ["hospital", "health", "point_of_interest", "establishment"], "icon": "https://maps.gstatic.com/mapfiles/place_api/icons/v1/png_71/hospital-71.png"}, {"rating": 2.5, "user_ratings_total": 4, "name": "Hospital", "reference": "ChIJL8dAeTxmUjoR4__pSMsbOzs", "geometry": {"location": {"lat": 13.05367, "lng": 80.2624294}, "viewport": {"northeast": {"lat": 13.0549502802915, "lng": 80.26377273029149}, "southwest": {"lat": 13.0522523197085, "lng": 80.26107476970849}}}, "place_id": "ChIJL8dAeTxmUjoR4__pSMsbOzs", "plus_code": {"global_code": "7M523736+FX", "compound_code": "3736+FX Chennai, Tamil Nadu, India"}, "vicinity": "Srinivasa Perumal Sannadhi Second Street, Ganapathy Colony, Royapettah, Chennai", "scope": "GOOGLE", "business_status": "OPERATIONAL", "types": ["hospital", "health", "point_of_interest", "establishment"], "icon": "https://maps.gstatic.com/mapfiles/place_api/icons/v1/png_71/hospital-71.png"}, {"rating": 5, "user_ratings_total": 23, "name": "Arista Dental Centre", "reference": "ChIJtSfG9BNmUjoRB_qTRWUG744", "geometry": {"location": {"lat": 13.0648787, "lng": 80.2585608}, "viewport": {"northeast": {"lat": 13.0661479302915, "lng": 80.25985308029149}, "southwest": {"lat": 13.0634499697085, "lng": 80.25715511970849}}}, "opening_hours": {"open_now": false}, "place_id": "ChIJtSfG9BNmUjoRB_qTRWUG744", "plus_code": {"global_code": "7M523775+XC", "compound_code": "3775+XC Chennai, Tamil Nadu, India"}, "vicinity": "G3, Ground Floor, Wellington estate,, 24 Ethiraj Salai, Egmore, Chennai", "scope": "GOOGLE", "business_status": "OPERATIONAL", "types": ["hospital", "dentist", "health", "point_of_interest", "establishment"], "icon": "https://maps.gstatic.com/mapfiles/place_api/icons/v1/png_71/generic_business-71.png"}, {"name": "saint charles", "reference": "ChIJV0RgjBNmUjoRu-bFEwcsBKg", "geometry": {"location": {"lat": 13.0650169, "lng": 80.2584625}, "viewport": {"northeast": {"lat": 13.0664023302915, "lng": 80.2597467302915}, "southwest": {"lat": 13.0637043697085, "lng": 80.25704876970849}}}, "place_id": "ChIJV0RgjBNmUjoRu-bFEwcsBKg", "plus_code": {"global_code": "7M523785+29", "compound_code": "3785+29 Chennai, Tamil Nadu, India"}, "vicinity": "No 129 Gildford stwapt 345 Toronto on", "scope": "GOOGLE", "business_status": "OPERATIONAL", "types": ["hospital", "health", "point_of_interest", "establishment"], "icon": "https://maps.gstatic.com/mapfiles/place_api/icons/v1/png_71/hospital-71.png"}, {"rating": 5, "user_ratings_total": 1, "name": "STAR APOLLO MEDICALS", "reference": "ChIJIQYHNRVmUjoRVDAR24ntfwA", "geometry": {"location": {"lat": 13.060323, "lng": 80.254601}, "viewport": {"northeast": {"lat": 13.0615956802915, "lng": 80.25593563029149}, "southwest": {"lat": 13.0588977197085, "lng": 80.25323766970848}}}, "opening_hours": {"open_now": false}, "place_id": "ChIJIQYHNRVmUjoRVDAR24ntfwA", "plus_code": {"global_code": "7M523763+4R", "compound_code": "3763+4R Chennai, Tamil Nadu, India"}, "vicinity": "No 7, Facing Greams Road, P.T Street, Thousand lights., Chennai", "photos": [{"photo_reference": "ATtYBwKMaiRFKZ_BahrJXCwZfrOYMV2wa6jTcjwpAC1TevClsUd7aWTFlbwpRj3e1fhgRJ5KMtk1nlbasKwl_isANuyaMAnrgTsr9CbDVj1mWNVX6DE7yVogEmYo_1eOEKTI7fpnsm5-PZMRgOBXlaBoXfmiZBtqYtWqDeqXOIOWGtNytawK", "width": 1600, "html_attributions": ["<a href=\"https://maps.google.com/maps/contrib/105704487201459218838\">STAR APOLLO MEDICALS</a>"], "height": 1200}], "scope": "GOOGLE", "business_status": "OPERATIONAL", "types": ["hospital", "health", "point_of_interest", "establishment"], "icon": "https://maps.gstatic.com/mapfiles/place_api/icons/v1/png_71/hospital-71.png"}, {"rating": 4.7, "user_ratings_total": 11, "name": "Heal Your Heart Royapettah", "reference": "ChIJVwzL5CRmUjoR282OQo4r0YY", "geometry": {"location": {"lat": 13.0602634, "lng": 80.265883}, "viewport": {"northeast": {"lat": 13.0615428302915, "lng": 80.2672225302915}, "southwest": {"lat": 13.0588448697085, "lng": 80.2645245697085}}}, "opening_hours": {"open_now": false}, "place_id": "ChIJVwzL5CRmUjoR282OQo4r0YY", "plus_code": {"global_code": "7M523768+49", "compound_code": "3768+49 Chennai, Tamil Nadu, India"}, "vicinity": "Sundar Krishna Complex,1st Floor No 155/156, G.P lane, Anna Salai, Chennai", "photos": [{"photo_reference": "ATtYBwJwbfxaJiSFhFv7DHe1hEbYqyCRTRnJCh5lzQuBUtM8IN0mZ0sxt2APeA32Vi2zxN613SxyllAyDw_TmUqgxFEmp87tNWN94ns4VCqRNAAO_OzRuWJWKbtkoD6L-H0rW5-IOz2DWiIbIBG-SorsLyo6lIvCO91JEQHjsFjf2khxS0n0", "width": 5184, "html_attributions": ["<a href=\"https://maps.google.com/maps/contrib/108085574586113109662\">Heal Your Heart Royapettah</a>"], "height": 3456}], "scope": "GOOGLE", "business_status": "OPERATIONAL", "types": ["hospital", "doctor", "health", "point_of_interest", "establishment"], "icon": "https://maps.gstatic.com/mapfiles/place_api/icons/v1/png_71/generic_business-71.png"}, {"rating": 3.9, "user_ratings_total": 47, "name": "Apollo Cradle Maternity & Children's Hospital in Chennai", "reference": "ChIJb9AzvmpmUjoRn59mGTIo31A", "geometry": {"location": {"lat": 13.0600129, "lng": 80.25256420000001}, "viewport": {"northeast": {"lat": 13.0612816302915, "lng": 80.25390178029151}, "southwest": {"lat": 13.0585836697085, "lng": 80.2512038197085}}}, "opening_hours": {"open_now": true}, "place_id": "ChIJb9AzvmpmUjoRn59mGTIo31A", "plus_code": {"global_code": "7M523763+22", "compound_code": "3763+22 Chennai, Tamil Nadu, India"}, "vicinity": "8, Shafee Mohammed Road, Thousand Lights West, Thousand Lights, Chennai", "photos": [{"photo_reference": "ATtYBwJcHoSABHTHJ0sJ0-oZQUykmUiKyWhOw-90c6PotpWs59qUW6YUjdGpyDrRy_gpfp59ZbKkGu_fR2c7cSbvGEQ2_QtOHin7GSl0F51676iOM3kMP35aVtVvwKW73BUEWeifpQmXNfPnG4LV41HtnqZ7l3e8QqpL5qmhn30j9vswWrZZ", "width": 3120, "html_attributions": ["<a href=\"https://maps.google.com/maps/contrib/112751090229416281777\">Rohit Uttamchandani</a>"], "height": 4160}], "scope": "GOOGLE", "business_status": "OPERATIONAL", "types": ["hospital", "doctor", "health", "point_of_interest", "establishment"], "icon": "https://maps.gstatic.com/mapfiles/place_api/icons/v1/png_71/hospital-71.png"}, {"name": "Pediatric Endocrine, Diabetes, Obesity & Growth Clinic", "reference": "ChIJxUPAkWpmUjoRsMdRwX17zUk", "geometry": {"location": {"lat": 13.059643, "lng": 80.252425}, "viewport": {"northeast": {"lat": 13.0611024302915, "lng": 80.2537896802915}, "southwest": {"lat": 13.0584044697085, "lng": 80.2510917197085}}}, "opening_hours": {"open_now": true}, "place_id": "ChIJxUPAkWpmUjoRsMdRwX17zUk", "plus_code": {"global_code": "7M523752+VX", "compound_code": "3752+VX Chennai, Tamil Nadu, India"}, "vicinity": "Apollo Children Hospital,, 15, Shafee Mohammed Road, Thousand Lights, Chennai", "photos": [{"photo_reference": "ATtYBwLNGUGexPHFxKYj9ptG51sIq_xS6Ou9MM_b2wape4S6KTrwxe26bLTtlArNrXxX9Y8eF6tpQSSo34NFnHcliYqWHXu8jJ8sVwo2zTbM-mvJamLlVWyuYKxGuftWfKYZcEMtceLebqDlKClTK6kyl3OI6mEg9N-_Tz2Jg2qUH9M05VDv", "width": 948, "html_attributions": ["<a href=\"https://maps.google.com/maps/contrib/109027759604020524177\">Pediatric Endocrine, Diabetes, Obesity &amp; Growth Clinic</a>"], "height": 532}], "scope": "GOOGLE", "business_status": "OPERATIONAL", "types": ["hospital", "doctor", "health", "point_of_interest", "establishment"], "icon": "https://maps.gstatic.com/mapfiles/place_api/icons/v1/png_71/generic_business-71.png"}, {"rating": 3.7, "user_ratings_total": 15, "name": "Pediatric endocrinologist", "reference": "ChIJA7U7d2pmUjoRDYGlSN6z9fQ", "geometry": {"location": {"lat": 13.0599139, "lng": 80.25238399999999}, "viewport": {"northeast": {"lat": 13.0612545802915, "lng": 80.2537318302915}, "southwest": {"lat": 13.0585566197085, "lng": 80.2510338697085}}}, "opening_hours": {"open_now": false}, "place_id": "ChIJA7U7d2pmUjoRDYGlSN6z9fQ", "plus_code": {"global_code": "7M523752+XX", "compound_code": "3752+XX Chennai, Tamil Nadu, India"}, "vicinity": "Apollo Children Hospital No. 15, Shafee Mohammed Road, Thousand Lights, Chennai", "photos": [{"photo_reference": "ATtYBwIHBGPACf7-N0loD9OVx6fCWeGIg6HCPRq_dOk7tEH1Jc9BqNSP59ckKBoKcLs_z0YOJr-5VKC689zT_w0nl-P_oxdGrCFqIErUuI1YfHNsoqoudkFRt51fKICXz7f7QktBz2I7UbqOGB3i4p09FZfN5BpfaES_PpwruPNNdXDYZGiQ", "width": 1200, "html_attributions": ["<a href=\"https://maps.google.com/maps/contrib/100149495529242841062\">Dr Ramkumar S</a>"], "height": 674}], "scope": "GOOGLE", "business_status": "OPERATIONAL", "types": ["hospital", "doctor", "health", "point_of_interest", "establishment"], "icon": "https://maps.gstatic.com/mapfiles/place_api/icons/v1/png_71/generic_business-71.png"}, {"rating": 4.9, "user_ratings_total": 723, "name": "ARC Fertility Hospitals", "reference": "ChIJyV76JhNmUjoRPf0bTM-T_Uc", "geometry": {"location": {"lat": 13.0669077, "lng": 80.25554129999999}, "viewport": {"northeast": {"lat": 13.0682047802915, "lng": 80.25684143029149}, "southwest": {"lat": 13.0655068197085, "lng": 80.25414346970848}}}, "opening_hours": {"open_now": false}, "place_id": "ChIJyV76JhNmUjoRPf0bTM-T_Uc", "plus_code": {"global_code": "7M523784+Q6", "compound_code": "3784+Q6 Egmore, Chennai, Tamil Nadu, India"}, "vicinity": "Ethirajsamy Salai, Next to Raddison Blu, #1, Ethiraj Salai, Egmore", "photos": [{"photo_reference": "ATtYBwLIEG2AJTjaNOuQrKxPDW-lf_F7kMqIcEfDfI-4YwAT-73Ye0N1bRwTcyYnrLGacGfN4ejj6sdTdMeZFC_WD7EIT5n5XjWl4pu-pkUe-4nttDDsTMZl0Ph1VxeWsl__zcOi75ayMdeU-mwSEz6VIqU0U8iDsZWzL-y0IVJNOcU7Wouy", "width": 2048, "html_attributions": ["<a href=\"https://maps.google.com/maps/contrib/117959009333980854462\">ARC Fertility Hospitals</a>"], "height": 1365}], "scope": "GOOGLE", "business_status": "OPERATIONAL", "types": ["hospital", "doctor", "health", "point_of_interest", "establishment"], "icon": "https://maps.gstatic.com/mapfiles/place_api/icons/v1/png_71/generic_business-71.png"}, {"rating": 3.4, "user_ratings_total": 88, "name": "Apollo Personalized Health Check", "reference": "ChIJt3XzB2tmUjoRE8XI_fDYwqI", "geometry": {"location": {"lat": 13.0620277, "lng": 80.251738}, "viewport": {"northeast": {"lat": 13.0633148302915, "lng": 80.25277198029151}, "southwest": {"lat": 13.0606168697085, "lng": 80.2500740197085}}}, "opening_hours": {"open_now": false}, "place_id": "ChIJt3XzB2tmUjoRE8XI_fDYwqI", "plus_code": {"global_code": "7M523762+RM", "compound_code": "3762+RM Chennai, Tamil Nadu, India"}, "vicinity": "20, Wallace Garden 1st Street, Thousand Lights West, Thousand Lights, Chennai", "photos": [{"photo_reference": "ATtYBwJKZCCni0VtL1dm9vnSgOk55E8JlOt0b0RzLSK2H5C0-7KeBo0PRQU57vZfxkiQg4gH4P5WXHyLk5-F4cvl1JPuCKapg3bmvQ2Nhi7vcoTiw8CvfBP5MC2aYdQ6HgSVp93pn2qllIDRlu1MsxHjhMlTSv9aHxRhujP4Kx0eDCrI7TZ3", "width": 3000, "html_attributions": ["<a href=\"https://maps.google.com/maps/contrib/116623442655568869187\">Devojyoti Borah</a>"], "height": 4000}], "scope": "GOOGLE", "business_status": "OPERATIONAL", "types": ["hospital", "health", "point_of_interest", "establishment"], "icon": "https://maps.gstatic.com/mapfiles/place_api/icons/v1/png_71/hospital-71.png"}, {"rating": 4.3, "user_ratings_total": 81, "name": "Apollo Hospital Sindoori Block", "reference": "ChIJM9xmC2tmUjoRprD6XRGbkBM", "geometry": {"location": {"lat": 13.0631375, "lng": 80.25197}, "viewport": {"northeast": {"lat": 13.0644903302915, "lng": 80.25338288029151}, "southwest": {"lat": 13.0617923697085, "lng": 80.25068491970849}}}, "place_id": "ChIJM9xmC2tmUjoRprD6XRGbkBM", "plus_code": {"global_code": "7M523772+7Q", "compound_code": "3772+7Q Chennai, Tamil Nadu, India"}, "vicinity": "Thousand Lights West, Gandhi Nagar, Chennai", "photos": [{"photo_reference": "ATtYBwKt2KrZ9yISG8BpBfN9yqKRPhDZ12srtWz2dW4ombT8qtGZsmKRGJg69Zv1fQ5WijR2HyfiDmnr_loutYRxX_oH2NbuDxWHiM0HHTQ3DX-MIGkPceXP2f9fRirxFP1qpXl5rIl9Y1EkDCwSa-MOBIy74B6WSXXJwOg9b_iLyIYZCWRd", "width": 2048, "html_attributions": ["<a href=\"https://maps.google.com/maps/contrib/112483388514761080812\">Sandip Mahapatra</a>"], "height": 1152}], "scope": "GOOGLE", "business_status": "OPERATIONAL", "types": ["hospital", "health", "point_of_interest", "establishment"], "icon": "https://maps.gstatic.com/mapfiles/place_api/icons/v1/png_71/hospital-71.png"}, {"rating": 3.3, "user_ratings_total": 4, "name": "Apollo Eye Department", "reference": "ChIJRQlxqGtmUjoRmL2SEIbwzF4", "geometry": {"location": {"lat": 13.0619861, "lng": 80.2515737}, "viewport": {"northeast": {"lat": 13.0634162302915, "lng": 80.25288338029151}, "southwest": {"lat": 13.0607182697085, "lng": 80.25018541970849}}}, "place_id": "ChIJRQlxqGtmUjoRmL2SEIbwzF4", "plus_code": {"global_code": "7M523762+QJ", "compound_code": "3762+QJ Chennai, Tamil Nadu, India"}, "vicinity": "Greams Lane, Thousand Lights West, Thousand Lights, Chennai", "scope": "GOOGLE", "business_status": "OPERATIONAL", "types": ["hospital", "health", "point_of_interest", "establishment"], "icon": "https://maps.gstatic.com/mapfiles/place_api/icons/v1/png_71/hospital-71.png"}]}