{"status": "OK", "html_attributions": [], "results": [{"rating": 5, "user_ratings_total": 3, "name": "Tower Block 2 , RGGGH", "reference": "ChIJ2SWwoKpoUjoR-bU0v3JyvG4", "geometry": {"location": {"lat": 13.0812731, "lng": 80.2767777}, "viewport": {"northeast": {"lat": 13.0824465302915, "lng": 80.2781573802915}, "southwest": {"lat": 13.0797485697085, "lng": 80.2754594197085}}}, "place_id": "ChIJ2SWwoKpoUjoR-bU0v3JyvG4", "plus_code": {"global_code": "7M5237JG+GP", "compound_code": "37JG+GP Chennai, Tamil Nadu, India"}, "vicinity": "Poonamallee High Road, Park Town, Chennai", "photos": [{"photo_reference": "ATtYBwJBaQcnrOVA_0icZLJeHjZbFmWZQCopc3h7x6mt5wi1z7q7B4KEaWyYPIAxlq9pG-6cFoz6J1XiXP7_yqczSBzjBwpByOIYJoaEpSlw2OMa_MIgJRzIWXRbDOQbUkR8JTuguUnBe3vn21E04SY8xiktWUNtYbv8_G-wbzTN1Or3L9x5", "width": 4115, "html_attributions": ["<a href=\"https://maps.google.com/maps/contrib/113180473818431555027\">Kamalakar Anthati</a>"], "height": 2426}], "scope": "GOOGLE", "business_status": "OPERATIONAL", "types": ["hospital", "health", "point_of_interest", "establishment"], "icon": "https://maps.gstatic.com/mapfiles/place_api/icons/v1/png_71/hospital-71.png"}, {"name": "Institute of Orthopedics And Traumatology, MMC", "reference": "ChIJsdxELzxnUjoRhnnvBomK1Mg", "geometry": {"location": {"lat": 13.0807046, "lng": 80.2765876}, "viewport": {"northeast": {"lat": 13.0821401302915, "lng": 80.27792863029151}, "southwest": {"lat": 13.0794421697085, "lng": 80.27523066970849}}}, "opening_hours": {"open_now": true}, "place_id": "ChIJsdxELzxnUjoRhnnvBomK1Mg", "plus_code": {"global_code": "7M5237JG+7J", "compound_code": "37JG+7J Chennai, Tamil Nadu, India"}, "vicinity": "Park Town, Chennai", "scope": "GOOGLE", "business_status": "OPERATIONAL", "types": ["hospital", "health", "point_of_interest", "establishment"], "icon": "https://maps.gstatic.com/mapfiles/place_api/icons/v1/png_71/hospital-71.png"}, {"name": "BIR INTERVENTION", "reference": "ChIJN9lYeFJnUjoRvCSrkWb2Gwc", "geometry": {"location": {"lat": 13.0803029, "lng": 80.27643549999999}, "viewport": {"northeast": {"lat": 13.0817232802915, "lng": 80.2776345302915}, "southwest": {"lat": 13.0790253197085, "lng": 80.27493656970849}}}, "place_id": "ChIJN9lYeFJnUjoRvCSrkWb2Gwc", "plus_code": {"global_code": "7M5237JG+4H", "compound_code": "37JG+4H Chennai, Tamil Nadu, India"}, "vicinity": "Park Town, Chennai", "scope": "GOOGLE", "business_status": "OPERATIONAL", "types": ["hospital", "health", "point_of_interest", "establishment"], "icon": "https://maps.gstatic.com/mapfiles/place_api/icons/v1/png_71/hospital-71.png"}, {"name": "Rajiv Gandhi hospital heart section", "reference": "ChIJ68hxdTpnUjoR236fA9wv5Yw", "geometry": {"location": {"lat": 13.0805746, "lng": 80.2764552}, "viewport": {"northeast": {"lat": 13.0820773802915, "lng": 80.2778378802915}, "southwest": {"lat": 13.0793794197085, "lng": 80.2751399197085}}}, "place_id": "ChIJ68hxdTpnUjoR236fA9wv5Yw", "plus_code": {"global_code": "7M5237JG+6H", "compound_code": "37JG+6H Chennai, Tamil Nadu, India"}, "vicinity": "Park Town, Chennai", "photos": [{"photo_reference": "ATtYBwLKyZiwyole0XY1IfqUOoPPCAN3TStBcwmb1tfPhJBcEzP7Fp977sONLWGQj2a-5T_Ut-STs-5hwrQ-7OfoHjowCVii7wqs0u0P2IwITFZFZMkS9NnMYsbgu45HqXQprFi8B5FN4-okHLsJHgAk19BKfIgYwalNjYUztcbdZhqnHdvl", "width": 4608, "html_attributions": ["<a href=\"https://maps.google.com/maps/contrib/101260824239474561843\">christopher ebenezer</a>"], "height": 3456}], "scope": "GOOGLE", "business_status": "OPERATIONAL", "types": ["hospital", "health", "point_of_interest", "establishment"], "icon": "https://maps.gstatic.com/mapfiles/place_api/icons/v1/png_71/hospital-71.png"}, {"rating": 5, "user_ratings_total": 2, "name": "cardiology block, madras medical college", "reference": "ChIJtRKvJgBmUjoRngJBUfGyOgU", "geometry": {"location": {"lat": 13.080545, "lng": 80.276414}, "viewport": {"northeast": {"lat": 13.0818803802915, "lng": 80.2776198802915}, "southwest": {"lat": 13.0791824197085, "lng": 80.27492191970849}}}, "place_id": "ChIJtRKvJgBmUjoRngJBUfGyOgU", "plus_code": {"global_code": "7M5237JG+6H", "compound_code": "37JG+6H Chennai, Tamil Nadu, India"}, "vicinity": "Park Town, Chennai", "photos": [{"photo_reference": "ATtYBwIGzjojkJMZ2re0kyx_VTSYjTdUjqvOMHTBniDJIbA2O0gFb7iel8LeJ8w49mZnYRj8YYesFC5mDfmRpoXFnM5_ksAVwwsRbHBxWmaVnnqu2sRUs8cYIYy843YNn3x7X7PDWVl-DdNFk2Tw-99Lf8pssvb-iZLDdHoF9CETo72jY4rJ", "width": 4160, "html_attributions": ["<a href=\"https://maps.google.com/maps/contrib/103532248719081060544\">J Mariano Anto Bruno Mascarenhas</a>"], "height": 3120}], "scope": "GOOGLE", "business_status": "OPERATIONAL", "types": ["hospital", "health", "point_of_interest", "establishment"], "icon": "https://maps.gstatic.com/mapfiles/place_api/icons/v1/png_71/hospital-71.png"}, {"name": "Ayurveda Hospital", "reference": "ChIJATV9fStvUjoRIQiAHgl5xfA", "geometry": {"location": {"lat": 13.0830286, "lng": 80.2780537}, "viewport": {"northeast": {"lat": 13.0843805302915, "lng": 80.27937048029152}, "southwest": {"lat": 13.0816825697085, "lng": 80.2766725197085}}}, "place_id": "ChIJATV9fStvUjoRIQiAHgl5xfA", "plus_code": {"global_code": "7M5237MH+66", "compound_code": "37MH+66 Chennai, Tamil Nadu, India"}, "vicinity": "Mint Street, NGO Annexe, George Town, Chennai", "scope": "GOOGLE", "business_status": "OPERATIONAL", "types": ["hospital", "health", "point_of_interest", "establishment"], "icon": "https://maps.gstatic.com/mapfiles/place_api/icons/v1/png_71/hospital-71.png"}, {"name": "Hospital Muslim Prayer Hall", "reference": "ChIJvR0QJABmUjoRqHdw78YhAsQ", "geometry": {"location": {"lat": 13.0805361, "lng": 80.2763372}, "viewport": {"northeast": {"lat": 13.0818751302915, "lng": 80.2775815302915}, "southwest": {"lat": 13.0791771697085, "lng": 80.27488356970849}}}, "place_id": "ChIJvR0QJABmUjoRqHdw78YhAsQ", "plus_code": {"global_code": "7M5237JG+6G", "compound_code": "37JG+6G Chennai, Tamil Nadu, India"}, "vicinity": "Park Town, Chennai", "photos": [{"photo_reference": "ATtYBwIS_9fOFfLrb0FVxg9jp-_m97Z3ZXrulwNuIAADu-WFIisgspC_hCQOmP8W_2YXSpPtsy6-4y3ewXmyohVbCmot9QIxMlzS_oKptX6t8Rt5bDbSI1xDoPmnQ8ODOaksy-fTWYrn2rIWKJGW6Ef6tf1n0jJBiddvpyZrgVSL5z84lHSN", "width": 2592, "html_attributions": ["<a href=\"https://maps.google.com/maps/contrib/113787145131347570192\">Asik Ekbal</a>"], "height": 4608}], "scope": "GOOGLE", "business_status": "OPERATIONAL", "types": ["hospital", "health", "point_of_interest", "establishment"], "icon": "https://maps.gstatic.com/mapfiles/place_api/icons/v1/png_71/hospital-71.png"}, {"name": "BIRO", "reference": "ChIJmbpzLwBmUjoR-BpcF9Mf_6k", "geometry": {"location": {"lat": 13.0801465, "lng": 80.27624}, "viewport": {"northeast": {"lat": 13.0813582802915, "lng": 80.27756138029152}, "southwest": {"lat": 13.0786603197085, "lng": 80.2748634197085}}}, "opening_hours": {"open_now": false}, "place_id": "ChIJmbpzLwBmUjoR-BpcF9Mf_6k", "plus_code": {"global_code": "7M5237JG+3F", "compound_code": "37JG+3F Chennai, Tamil Nadu, India"}, "vicinity": "Park Town, Chennai", "scope": "GOOGLE", "business_status": "OPERATIONAL", "types": ["hospital", "health", "point_of_interest", "establishment"], "icon": "https://maps.gstatic.com/mapfiles/place_api/icons/v1/png_71/hospital-71.png"}, {"name": "TAEI Centre - Rajiv Gandhi Government General Hospital - for Road Accident Emergencies", "reference": "ChIJT9E5LKVnUjoRXa3XAg5txLs", "geometry": {"location": {"lat": 13.0815608, "lng": 80.2765702}, "viewport": {"northeast": {"lat": 13.0829489302915, "lng": 80.27790308029151}, "southwest": {"lat": 13.0802509697085, "lng": 80.2752051197085}}}, "opening_hours": {"open_now": true}, "place_id": "ChIJT9E5LKVnUjoRXa3XAg5txLs", "plus_code": {"global_code": "7M5237JG+JJ", "compound_code": "37JG+JJ Chennai, Tamil Nadu, India"}, "vicinity": "Unnamed Road, Park Town, Chennai", "scope": "GOOGLE", "business_status": "OPERATIONAL", "types": ["hospital", "health", "point_of_interest", "establishment"], "icon": "https://maps.gstatic.com/mapfiles/place_api/icons/v1/png_71/hospital-71.png"}, {"rating": 4, "user_ratings_total": 2, "name": "Cardio Thoracic and Trauma Block", "reference": "ChIJjdMJGgBmUjoRyOSGUGUiOb8", "geometry": {"location": {"lat": 13.0809454, "lng": 80.276279}, "viewport": {"northeast": {"lat": 13.0822594302915, "lng": 80.27772578029152}, "southwest": {"lat": 13.0795614697085, "lng": 80.2750278197085}}}, "place_id": "ChIJjdMJGgBmUjoRyOSGUGUiOb8", "plus_code": {"global_code": "7M5237JG+9G", "compound_code": "37JG+9G Chennai, Tamil Nadu, India"}, "vicinity": "Park Town, Chennai", "photos": [{"photo_reference": "ATtYBwKgtV99MXFX54lS-TB7Gwi8rNmyahesdyaLgk6ABqksqt_fa_mk9NcIvX0tXQDFhsZtinvmiAzh6liWiDxpo2ieceR-E3M1bkPySdZIasyrYnnC5P03EEwjQQuJX88xUGvsQsmlwnwRWK9BbiVnrsVSFH_Jt5ZVE6nJDnFC3VRTJFaZ", "width": 4160, "html_attributions": ["<a href=\"https://maps.google.com/maps/contrib/109396543799360323537\">You may think I</a>"], "height": 2352}], "scope": "GOOGLE", "business_status": "OPERATIONAL", "types": ["hospital", "health", "point_of_interest", "establishment"], "icon": "https://maps.gstatic.com/mapfiles/place_api/icons/v1/png_71/hospital-71.png"}, {"name": "Institute of venereology", "reference": "ChIJceHGxXxnUjoRL5Zkev0sc1w", "geometry": {"location": {"lat": 13.0803173, "lng": 80.27574440000001}, "viewport": {"northeast": {"lat": 13.0816515802915, "lng": 80.2769827802915}, "southwest": {"lat": 13.0789536197085, "lng": 80.2742848197085}}}, "place_id": "ChIJceHGxXxnUjoRL5Zkev0sc1w", "plus_code": {"global_code": "7M5237JG+47", "compound_code": "37JG+47 Chennai, Tamil Nadu, India"}, "vicinity": "Park Town, Chennai", "scope": "GOOGLE", "business_status": "OPERATIONAL", "types": ["hospital", "health", "point_of_interest", "establishment"], "icon": "https://maps.gstatic.com/mapfiles/place_api/icons/v1/png_71/hospital-71.png"}, {"rating": 3, "user_ratings_total": 1, "name": "STD(Sexually Transmitted Diseases) Clinic", "reference": "ChIJK4ckOgBmUjoRPUm03FxxqSk", "geometry": {"location": {"lat": 13.0803143, "lng": 80.27572099999999}, "viewport": {"northeast": {"lat": 13.0816501302915, "lng": 80.2769710802915}, "southwest": {"lat": 13.0789521697085, "lng": 80.2742731197085}}}, "place_id": "ChIJK4ckOgBmUjoRPUm03FxxqSk", "plus_code": {"global_code": "7M5237JG+47", "compound_code": "37JG+47 Chennai, Tamil Nadu, India"}, "vicinity": "Pallavan Salai, Park Town, Chennai", "scope": "GOOGLE", "business_status": "OPERATIONAL", "types": ["hospital", "health", "point_of_interest", "establishment"], "icon": "https://maps.gstatic.com/mapfiles/place_api/icons/v1/png_71/hospital-71.png"}, {"name": "Southery Railway Annexe Dispensery", "reference": "ChIJGV-7RFVvUjoRav8fRoDw_wc", "geometry": {"location": {"lat": 13.0834243, "lng": 80.27749419999999}, "viewport": {"northeast": {"lat": 13.0848351302915, "lng": 80.2788456802915}, "southwest": {"lat": 13.0821371697085, "lng": 80.27614771970848}}}, "place_id": "ChIJGV-7RFVvUjoRav8fRoDw_wc", "plus_code": {"global_code": "7M5237MG+9X", "compound_code": "37MG+9X Chennai, Tamil Nadu, India"}, "vicinity": "NGO Annexe, George Town, Chennai", "scope": "GOOGLE", "business_status": "OPERATIONAL", "types": ["hospital", "health", "point_of_interest", "establishment"], "icon": "https://maps.gstatic.com/mapfiles/place_api/icons/v1/png_71/hospital-71.png"}, {"name": "NGO annexe hospital Railway Medical Centre", "reference": "ChIJSy9ardRvUjoR7zDdg5EXCi8", "geometry": {"location": {"lat": 13.0832342, "lng": 80.27719350000001}, "viewport": {"northeast": {"lat": 13.0844615302915, "lng": 80.27862563029151}, "southwest": {"lat": 13.0817635697085, "lng": 80.27592766970851}}}, "place_id": "ChIJSy9ardRvUjoR7zDdg5EXCi8", "plus_code": {"global_code": "7M5237MG+7V", "compound_code": "37MG+7V Chennai, Tamil Nadu, India"}, "vicinity": "NGO Annexe, George Town, Chennai", "scope": "GOOGLE", "business_status": "OPERATIONAL", "types": ["hospital", "health", "point_of_interest", "establishment"], "icon": "https://maps.gstatic.com/mapfiles/place_api/icons/v1/png_71/hospital-71.png"}, {"rating": 3, "user_ratings_total": 1, "name": "CT Scan & MRI", "reference": "ChIJu2DtPgBmUjoRjYC7lZMwN50", "geometry": {"location": {"lat": 13.0806853, "lng": 80.2755949}, "viewport": {"northeast": {"lat": 13.0820259302915, "lng": 80.2768813302915}, "southwest": {"lat": 13.0793279697085, "lng": 80.2741833697085}}}, "place_id": "ChIJu2DtPgBmUjoRjYC7lZMwN50", "plus_code": {"global_code": "7M5237JG+76", "compound_code": "37JG+76 Chennai, Tamil Nadu, India"}, "vicinity": "Pallavan Salai, Park Town, Chennai", "photos": [{"photo_reference": "ATtYBwLojC_SPCQVHOSGcCVKs7Ldaff7FieUfjRaaXF29ASy6pxBY-de0bM7CkV6gleBBR-afLZFYj6phNdCb8JP6YK1CR24UP9GVLTJ9r13V9hMpEojEx-Y5TDvNUZ9VCBZYZLBh892_DDXJssmBvmKXQ2NILzEXpEk--z-hNDbaZeRG_Di", "width": 4160, "html_attributions": ["<a href=\"https://maps.google.com/maps/contrib/103532248719081060544\">J Mariano Anto Bruno Mascarenhas</a>"], "height": 3120}], "scope": "GOOGLE", "business_status": "OPERATIONAL", "types": ["hospital", "health", "point_of_interest", "establishment"], "icon": "https://maps.gstatic.com/mapfiles/place_api/icons/v1/png_71/hospital-71.png"}, {"name": "Health unit chennai central", "reference": "ChIJP1SduCNvUjoRLlegxjkBmfg", "geometry": {"location": {"lat": 13.0833956, "lng": 80.2771767}, "viewport": {"northeast": {"lat": 13.0848141302915, "lng": 80.2785143802915}, "southwest": {"lat": 13.0821161697085, "lng": 80.27581641970849}}}, "place_id": "ChIJP1SduCNvUjoRLlegxjkBmfg", "plus_code": {"global_code": "7M5237MG+9V", "compound_code": "37MG+9V Chennai, Tamil Nadu, India"}, "vicinity": "ISSAC Street, Jutkapuram, George Town, Chennai", "scope": "GOOGLE", "business_status": "OPERATIONAL", "types": ["hospital", "health", "point_of_interest", "establishment"], "icon": "https://maps.gstatic.com/mapfiles/place_api/icons/v1/png_71/hospital-71.png"}, {"name": "IMI Medical Pvt Ltd", "reference": "ChIJMzvZlqloUjoRsaWDebRVHgY", "geometry": {"location": {"lat": 13.0756197, "lng": 80.278635}, "viewport": {"northeast": {"lat": 13.0769920302915, "lng": 80.2799765302915}, "southwest": {"lat": 13.0742940697085, "lng": 80.27727856970849}}}, "place_id": "ChIJMzvZlqloUjoRsaWDebRVHgY", "vicinity": "India", "scope": "GOOGLE", "business_status": "OPERATIONAL", "types": ["hospital", "health", "point_of_interest", "establishment"], "icon": "https://maps.gstatic.com/mapfiles/place_api/icons/v1/png_71/hospital-71.png"}, {"rating": 3, "user_ratings_total": 1, "name": "Apollo Hospitals", "reference": "ChIJMboIoVVvUjoRgXWHVlVQxdQ", "geometry": {"location": {"lat": 13.0855115, "lng": 80.2783188}, "viewport": {"northeast": {"lat": 13.0868652302915, "lng": 80.2796358302915}, "southwest": {"lat": 13.0841672697085, "lng": 80.27693786970849}}}, "place_id": "ChIJMboIoVVvUjoRgXWHVlVQxdQ", "plus_code": {"global_code": "7M5237PH+68", "compound_code": "37PH+68 Chennai, Tamil Nadu, India"}, "vicinity": "No 445, Mint Street, Sowcarpet, Peddanaickenpet, George Town, Chennai", "scope": "GOOGLE", "business_status": "OPERATIONAL", "types": ["hospital", "health", "point_of_interest", "establishment"], "icon": "https://maps.gstatic.com/mapfiles/place_api/icons/v1/png_71/hospital-71.png"}, {"name": "Dr sankar", "reference": "ChIJi9Recz9pUjoRCtbn-y6DtcE", "geometry": {"location": {"lat": 13.0818538, "lng": 80.2861447}, "viewport": {"northeast": {"lat": 13.0831737802915, "lng": 80.2876360802915}, "southwest": {"lat": 13.0804758197085, "lng": 80.2849381197085}}}, "place_id": "ChIJi9Recz9pUjoRCtbn-y6DtcE", "plus_code": {"global_code": "7M5237JP+PF", "compound_code": "37JP+PF Chennai, Tamil Nadu, India"}, "vicinity": "Unnamed Road, Fort Saint George, Chennai", "scope": "GOOGLE", "business_status": "OPERATIONAL", "types": ["hospital", "health", "point_of_interest", "establishment"], "icon": "https://maps.gstatic.com/mapfiles/place_api/icons/v1/png_71/hospital-71.png"}, {"rating": 4.1, "user_ratings_total": 7, "name": "ECHS POLYCLINIC ISLAND GROUND", "reference": "ChIJxzro6q1oUjoRumUeBmdxBjo", "geometry": {"location": {"lat": 13.0783954, "lng": 80.28661180000002}, "viewport": {"northeast": {"lat": 13.0797204802915, "lng": 80.28806433029152}, "southwest": {"lat": 13.0770225197085, "lng": 80.28536636970851}}}, "place_id": "ChIJxzro6q1oUjoRumUeBmdxBjo", "plus_code": {"global_code": "7M5237HP+9J", "compound_code": "37HP+9J Chennai, Tamil Nadu, India"}, "vicinity": "Fort St, George, Chennai", "scope": "GOOGLE", "business_status": "OPERATIONAL", "types": ["hospital", "health", "point_of_interest", "establishment"], "icon": "https://maps.gstatic.com/mapfiles/place_api/icons/v1/png_71/hospital-71.png"}]}