{"status": "OK", "next_page_token": "ATtYBwJ2Ag9xA8uCZ_rIowFj26tFYcZ0SOcxwsulSsxsab5uzwKXZqZdNACrskE-JtedDqVqgUNLPzTgBCzH32ZXKotFZAsC35XaxgNzSLEFuA3G3NpU6gc9NTdHOAwKEUtQ-IJXyBhcrNCCjRZ4g__6YmogxU4SqpJXdpGb1pJjD2IeDnZ4Zuv4O8Oqyc2jCz-7qGc_jJvopyz1pgpSeLHGF6ho3cAiKGV73mA5Cj6-vjuf_8YEtDSwFIVy3HReTdNYbWx2GzLZ_MbdIZqYL2s92_OY-f4neA2LEjp5xZnVHo1r8m2i196KLWQz0_QgtSq4O5hEyQnc72wtsKi4Y0aQzMG6Y52dVjw63UWFDoZZvsLh6mgjS0gqc4r94rQmGbAhYIe-w6i_v-dSNQYlShBjRy1cmBIhpLk0grkoDftGB4Q9MXqt9D3lv4s4MPfTDJj0yg7MZYtF05HxTf3BOpHKIAH4OIzD36KOF8qbv1wU_H4Cq2xA4Oq8h2VIUSYKjfEbTdiSfwcFyUqM7XFVZW5zdti4fycIB7VQpgAASl3WBMvI_tBGXTjroaBLcAPoCSFmZV8FdZf9tlMfTPgIrqvTakVZVYX1VvdHXeS-e0XakWzC7GcCFDOjP1FVuQygamej2XOmG7unDwA", "html_attributions": [], "results": [{"name": "Kumar an Medicals", "reference": "ChIJd4wlHUVvUjoR-tVSpGTdgsc", "geometry": {"location": {"lat": 13.0969697, "lng": 80.2899243}, "viewport": {"northeast": {"lat": 13.0983225802915, "lng": 80.2912739302915}, "southwest": {"lat": 13.0956246197085, "lng": 80.28857596970849}}}, "opening_hours": {"open_now": false}, "place_id": "ChIJd4wlHUVvUjoR-tVSpGTdgsc", "plus_code": {"global_code": "7M5237WQ+QX", "compound_code": "37WQ+QX Chennai, Tamil Nadu, India"}, "vicinity": "No. 14/43, \u0b85\u0b99\u0bcd\u0b95\u0baa\u0bcd\u0baa\u0ba9\u0bcd \u0ba8\u0bbe\u0baf\u0b95\u0ba9\u0bcd \u0ba4\u0bc6\u0bb0\u0bc1, Narayanappa Street, Washermanpet, Chennai", "scope": "GOOGLE", "business_status": "OPERATIONAL", "types": ["hospital", "health", "point_of_interest", "establishment"], "icon": "https://maps.gstatic.com/mapfiles/place_api/icons/v1/png_71/hospital-71.png"}, {"name": "Hospital", "reference": "ChIJ5zPyaU9vUjoRJ-J42WOI0As", "geometry": {"location": {"lat": 13.0933142, "lng": 80.29199}, "viewport": {"northeast": {"lat": 13.0946727802915, "lng": 80.2933081802915}, "southwest": {"lat": 13.0919748197085, "lng": 80.2906102197085}}}, "place_id": "ChIJ5zPyaU9vUjoRJ-J42WOI0As", "plus_code": {"global_code": "7M5237VR+8Q", "compound_code": "37VR+8Q Chennai, Tamil Nadu, India"}, "vicinity": "Beach Road, Mannady, Chennai", "scope": "GOOGLE", "business_status": "OPERATIONAL", "types": ["hospital", "health", "point_of_interest", "establishment"], "icon": "https://maps.gstatic.com/mapfiles/place_api/icons/v1/png_71/hospital-71.png"}, {"name": "Chennai Kidney Care", "reference": "ChIJQ0YMHENvUjoR7uXbM58Hu_4", "geometry": {"location": {"lat": 13.1024826, "lng": 80.2896927}, "viewport": {"northeast": {"lat": 13.1038273302915, "lng": 80.2910815802915}, "southwest": {"lat": 13.1011293697085, "lng": 80.2883836197085}}}, "place_id": "ChIJQ0YMHENvUjoR7uXbM58Hu_4", "plus_code": {"global_code": "7M52472Q+XV", "compound_code": "472Q+XV Mannady, George Town, Chennai, Tamil Nadu, India"}, "vicinity": "near Krishnan Kovil, New #16, Old #172, near Krishnan Kovil, Coral Merchant Street, Mannady", "scope": "GOOGLE", "business_status": "OPERATIONAL", "types": ["hospital", "health", "point_of_interest", "establishment"], "icon": "https://maps.gstatic.com/mapfiles/place_api/icons/v1/png_71/hospital-71.png"}, {"name": "Sasikanth Eye Hospital", "reference": "ChIJ0_y0G0VvUjoRqyUlFagIB7c", "geometry": {"location": {"lat": 13.0965855, "lng": 80.28971969999999}, "viewport": {"northeast": {"lat": 13.0979472302915, "lng": 80.2909999802915}, "southwest": {"lat": 13.0952492697085, "lng": 80.2883020197085}}}, "place_id": "ChIJ0_y0G0VvUjoRqyUlFagIB7c", "plus_code": {"global_code": "7M5237WQ+JV", "compound_code": "37WQ+JV Chennai, Tamil Nadu, India"}, "vicinity": "No.74, Thambu Chetty Street, Mannady, George Town, Chennai", "scope": "GOOGLE", "business_status": "OPERATIONAL", "types": ["hospital", "health", "point_of_interest", "establishment"], "icon": "https://maps.gstatic.com/mapfiles/place_api/icons/v1/png_71/hospital-71.png"}, {"rating": 5, "user_ratings_total": 1, "name": "Kso Medical", "reference": "ChIJp9pFF0VvUjoRFxi3ZzKcmlQ", "geometry": {"location": {"lat": 13.096242, "lng": 80.2896863}, "viewport": {"northeast": {"lat": 13.0976402302915, "lng": 80.2910437302915}, "southwest": {"lat": 13.0949422697085, "lng": 80.2883457697085}}}, "opening_hours": {"open_now": true}, "place_id": "ChIJp9pFF0VvUjoRFxi3ZzKcmlQ", "plus_code": {"global_code": "7M5237WQ+FV", "compound_code": "37WQ+FV Chennai, Tamil Nadu, India"}, "vicinity": "No 52, Mannady Street, George Town, Chennai", "scope": "GOOGLE", "business_status": "OPERATIONAL", "types": ["hospital", "health", "point_of_interest", "establishment"], "icon": "https://maps.gstatic.com/mapfiles/place_api/icons/v1/png_71/hospital-71.png"}, {"name": "Jeams Medicals", "reference": "ChIJdwODuVVvUjoREGcaaFGSz8o", "geometry": {"location": {"lat": 13.096368, "lng": 80.28953469999999}, "viewport": {"northeast": {"lat": 13.0977220802915, "lng": 80.2908517802915}, "southwest": {"lat": 13.0950241197085, "lng": 80.2881538197085}}}, "place_id": "ChIJdwODuVVvUjoREGcaaFGSz8o", "plus_code": {"global_code": "7M5237WQ+GR", "compound_code": "37WQ+GR Chennai, Tamil Nadu, India"}, "vicinity": "15 S.M, Thambu Chetty Street, Royapuram, Chennai", "photos": [{"photo_reference": "ATtYBwIAwVDesRX3JHDe_UvN2iBNDFNG0GiFG3RhGkM99yH9ITpHEnnnL7i2IPkCE01HGvlMvdfnUM4vHLezUs12OO_MPb3F_auO3Yh3BbKK-QHV5GhnMv6Pftli27A5caqyiA7FnS4svXEkRyaE8f7VQSQx5-mLtcWP0QgPcS2leLZNRmEU", "width": 780, "html_attributions": ["<a href=\"https://maps.google.com/maps/contrib/107006499718853539308\">Jeams Medicals</a>"], "height": 1052}], "scope": "GOOGLE", "business_status": "OPERATIONAL", "types": ["hospital", "health", "point_of_interest", "establishment"], "icon": "https://maps.gstatic.com/mapfiles/place_api/icons/v1/png_71/hospital-71.png"}, {"name": "SAIRAM POLYCLINIC", "reference": "ChIJUbmNIr1vUjoR_Kj0J8PvyCY", "geometry": {"location": {"lat": 13.1084075, "lng": 80.292816}, "viewport": {"northeast": {"lat": 13.10975648029151, "lng": 80.29416498029151}, "southwest": {"lat": 13.1070585197085, "lng": 80.2914670197085}}}, "opening_hours": {"open_now": false}, "place_id": "ChIJUbmNIr1vUjoR_Kj0J8PvyCY", "plus_code": {"global_code": "7M52475V+94", "compound_code": "475V+94 Chennai, Tamil Nadu, India"}, "vicinity": "Royapuram, Chennai", "photos": [{"photo_reference": "ATtYBwIosvIJnUjFd0ON-RyZbV98SAlfjMv6wmYz7h-GhsjjHzozVDauvqqhGoHSv5FML305EMNCaGk2FFCpXgyoeteBcPYZ9pfsxPJo41pYAN4lAGFCZYoMKrl0b5oUkRnuAyQfkyJ3QySr0gyDZKo9zyvsbo2bQ-TCGGpMW0ppTxsTtQMx", "width": 904, "html_attributions": ["<a href=\"https://maps.google.com/maps/contrib/117701463414796932751\">lalitha Rm</a>"], "height": 1280}], "scope": "GOOGLE", "business_status": "OPERATIONAL", "types": ["hospital", "health", "point_of_interest", "establishment"], "icon": "https://maps.gstatic.com/mapfiles/place_api/icons/v1/png_71/hospital-71.png"}, {"name": "Sai poly clinic", "reference": "ChIJW0V9bkVvUjoRgmDGNk9GZVQ", "geometry": {"location": {"lat": 13.095292, "lng": 80.28979799999999}, "viewport": {"northeast": {"lat": 13.0966281302915, "lng": 80.29122783029149}, "southwest": {"lat": 13.0939301697085, "lng": 80.28852986970848}}}, "place_id": "ChIJW0V9bkVvUjoRgmDGNk9GZVQ", "plus_code": {"global_code": "7M5237WQ+4W", "compound_code": "37WQ+4W Chennai, Tamil Nadu, India"}, "vicinity": "No 195 linghi Chetty Street broadway Chennai, Chennai", "scope": "GOOGLE", "business_status": "OPERATIONAL", "types": ["hospital", "health", "point_of_interest", "establishment"], "icon": "https://maps.gstatic.com/mapfiles/place_api/icons/v1/png_71/hospital-71.png"}, {"name": "PURPLE DIAGNOSTICS", "reference": "ChIJbZiYqERvUjoRe1jeTXrWqrI", "geometry": {"location": {"lat": 13.0996515, "lng": 80.2885486}, "viewport": {"northeast": {"lat": 13.1009965802915, "lng": 80.2899225302915}, "southwest": {"lat": 13.0982986197085, "lng": 80.2872245697085}}}, "place_id": "ChIJbZiYqERvUjoRe1jeTXrWqrI", "plus_code": {"global_code": "7M5237XQ+VC", "compound_code": "37XQ+VC Chennai, Tamil Nadu, India"}, "vicinity": "110/3, New Street, Muthialpet, George Town, Chennai", "scope": "GOOGLE", "business_status": "OPERATIONAL", "types": ["hospital", "health", "point_of_interest", "establishment"], "icon": "https://maps.gstatic.com/mapfiles/place_api/icons/v1/png_71/hospital-71.png"}, {"rating": 1, "user_ratings_total": 1, "name": "Algu Amma Baby Clinic", "reference": "ChIJ4VUeqURvUjoR-TM96zwx8TU", "geometry": {"location": {"lat": 13.0996557, "lng": 80.2883913}, "viewport": {"northeast": {"lat": 13.1009939302915, "lng": 80.2897386802915}, "southwest": {"lat": 13.0982959697085, "lng": 80.2870407197085}}}, "place_id": "ChIJ4VUeqURvUjoR-TM96zwx8TU", "plus_code": {"global_code": "7M5237XQ+V9", "compound_code": "37XQ+V9 Chennai, Tamil Nadu, India"}, "vicinity": "23, Gills Street, Muthialpet, George Town, Chennai", "scope": "GOOGLE", "business_status": "OPERATIONAL", "types": ["hospital", "health", "point_of_interest", "establishment"], "icon": "https://maps.gstatic.com/mapfiles/place_api/icons/v1/png_71/hospital-71.png"}, {"rating": 5, "user_ratings_total": 2, "name": "Darul Arqam Hijama Centre (DAHC)", "reference": "ChIJz83dyiVvUjoRilh43Zl_RxY", "geometry": {"location": {"lat": 13.0927595, "lng": 80.2908862}, "viewport": {"northeast": {"lat": 13.0940882302915, "lng": 80.29229983029151}, "southwest": {"lat": 13.0913902697085, "lng": 80.28960186970849}}}, "opening_hours": {"open_now": false}, "place_id": "ChIJz83dyiVvUjoRilh43Zl_RxY", "plus_code": {"global_code": "7M5237VR+49", "compound_code": "37VR+49 Chennai, Tamil Nadu, India"}, "vicinity": "12/28, Beach Road, Parry's Corner, George Town, Chennai", "scope": "GOOGLE", "business_status": "OPERATIONAL", "types": ["hospital", "health", "point_of_interest", "establishment"], "icon": "https://maps.gstatic.com/mapfiles/place_api/icons/v1/png_71/hospital-71.png"}, {"rating": 5, "user_ratings_total": 1, "name": "Sai Physiotherapy Clinic", "reference": "ChIJS13Vq0RvUjoR2UBKcyMa9ac", "geometry": {"location": {"lat": 13.0997526, "lng": 80.2882283}, "viewport": {"northeast": {"lat": 13.1010803302915, "lng": 80.2895756802915}, "southwest": {"lat": 13.0983823697085, "lng": 80.2868777197085}}}, "place_id": "ChIJS13Vq0RvUjoR2UBKcyMa9ac", "plus_code": {"global_code": "7M5237XQ+W7", "compound_code": "37XQ+W7 Chennai, Tamil Nadu, India"}, "vicinity": "23, Gills Street, Kachaleeswarar Garden, George Town, Chennai", "scope": "GOOGLE", "business_status": "OPERATIONAL", "types": ["hospital", "health", "point_of_interest", "establishment"], "icon": "https://maps.gstatic.com/mapfiles/place_api/icons/v1/png_71/hospital-71.png"}, {"name": "RCHID", "reference": "ChIJzdMIPdpvUjoRTlowH_yp3IE", "geometry": {"location": {"lat": 13.111315, "lng": 80.29723440000001}, "viewport": {"northeast": {"lat": 13.1132457802915, "lng": 80.29804923029151}, "southwest": {"lat": 13.1105478197085, "lng": 80.2953512697085}}}, "place_id": "ChIJzdMIPdpvUjoRTlowH_yp3IE", "plus_code": {"global_code": "7M52476W+GV", "compound_code": "476W+GV Chennai, Tamil Nadu, India"}, "vicinity": "1, 1, Panaimarathotti, Pudumanaikuppam, Royapuram, Chennai", "scope": "GOOGLE", "business_status": "OPERATIONAL", "types": ["hospital", "health", "point_of_interest", "establishment"], "icon": "https://maps.gstatic.com/mapfiles/place_api/icons/v1/png_71/hospital-71.png"}, {"name": "M.K.Medical", "reference": "ChIJa6bJvEVvUjoRcwTfNzpkW70", "geometry": {"location": {"lat": 13.0964754, "lng": 80.2885878}, "viewport": {"northeast": {"lat": 13.0978154302915, "lng": 80.2899352302915}, "southwest": {"lat": 13.0951174697085, "lng": 80.28723726970848}}}, "opening_hours": {"open_now": false}, "place_id": "ChIJa6bJvEVvUjoRcwTfNzpkW70", "plus_code": {"global_code": "7M5237WQ+HC", "compound_code": "37WQ+HC Chennai, Tamil Nadu, India"}, "vicinity": "19, Mannady Street, Mannady, George Town, Chennai", "photos": [{"photo_reference": "ATtYBwKP44wEWmdcYjbALCoUKB2f_M8EXVJRI2fuUOihjRZQUdqRCYiYC4qc9-kuyowZHGi6DfRDySjwvZD4NKQC-HfBtr7GSp3RqeFK9qY8PW9RDp4coP7Nihd7jRvo21_h5qnxcTjdRoI6IIOnvHhUq6TDQgAmy_PGQ4U2pHiYgoq0QNIx", "width": 720, "html_attributions": ["<a href=\"https://maps.google.com/maps/contrib/115003117696931632989\">ayub khan</a>"], "height": 1280}], "scope": "GOOGLE", "business_status": "OPERATIONAL", "types": ["pharmacy", "hospital", "health", "point_of_interest", "store", "establishment"], "icon": "https://maps.gstatic.com/mapfiles/place_api/icons/v1/png_71/pharmacy-71.png"}, {"rating": 4.2, "user_ratings_total": 13, "name": "S.M Hospital & Pharmacy", "reference": "ChIJq9Vc-d9vUjoROg_vatkw8fY", "geometry": {"location": {"lat": 13.0971472, "lng": 80.2882523}, "viewport": {"northeast": {"lat": 13.0985105302915, "lng": 80.2895213802915}, "southwest": {"lat": 13.0958125697085, "lng": 80.28682341970848}}}, "opening_hours": {"open_now": false}, "place_id": "ChIJq9Vc-d9vUjoROg_vatkw8fY", "plus_code": {"global_code": "7M5237WQ+V8", "compound_code": "37WQ+V8 Chennai, Tamil Nadu, India"}, "vicinity": "137, 66 B, New Street, Mannady, George Town, Chennai", "photos": [{"photo_reference": "ATtYBwIUdpgckW_c3YJUu7NAKa_QUdQ5m6OopE-XKUUZ5a7XaZfjS0yPRqI_1DH7Ru7kgJvruXc5NA1Wv4qdCUfd76TTmcFDAjU9_s9hO2MWmaigUyHeLhdTkP5qkcImu43CNhk_ziO7hJYYrn8h80j14EzKjmt2ts1YqaklS9y3c9MslhJv", "width": 678, "html_attributions": ["<a href=\"https://maps.google.com/maps/contrib/105311238984804397422\">S.M Hospital &amp; Pharmacy</a>"], "height": 381}], "scope": "GOOGLE", "business_status": "OPERATIONAL", "types": ["hospital", "health", "point_of_interest", "establishment"], "icon": "https://maps.gstatic.com/mapfiles/place_api/icons/v1/png_71/hospital-71.png"}, {"name": "SATGYAM MEDICALS", "reference": "ChIJ5ZcxDz5vUjoR4YwblVvMM2M", "geometry": {"location": {"lat": 13.1084488, "lng": 80.29149319999999}, "viewport": {"northeast": {"lat": 13.1097915802915, "lng": 80.2928738802915}, "southwest": {"lat": 13.1070936197085, "lng": 80.29017591970849}}}, "place_id": "ChIJ5ZcxDz5vUjoR4YwblVvMM2M", "plus_code": {"global_code": "7M52475R+9H", "compound_code": "475R+9H Chennai, Tamil Nadu, India"}, "vicinity": "13, MS Koil Street, Royapuram, Chennai", "photos": [{"photo_reference": "ATtYBwIzb4m3bukl-O5u_A6W3luW-7c5-25W7BctIE_yfiTr16lqSGnqKTus-Geba3M1ekQukCibY706_0n8X9zKUS4S8YWNyuL8ZUev-nZAV6ueNYrQZM95_O8hMFUo63VnTqljIknljbaPcjykrA4V7zgxOS3cF2Ne5bMA9S94yM7ojto_", "width": 780, "html_attributions": ["<a href=\"https://maps.google.com/maps/contrib/111317465999152312050\">SATGYAM MEDICALS</a>"], "height": 1052}], "scope": "GOOGLE", "business_status": "OPERATIONAL", "types": ["hospital", "health", "point_of_interest", "establishment"], "icon": "https://maps.gstatic.com/mapfiles/place_api/icons/v1/png_71/hospital-71.png"}, {"name": "Vvs", "reference": "ChIJVfT2n-5vUjoRmdBIYwzMLdY", "geometry": {"location": {"lat": 13.1049034, "lng": 80.28857599999999}, "viewport": {"northeast": {"lat": 13.1062446802915, "lng": 80.2899226802915}, "southwest": {"lat": 13.1035467197085, "lng": 80.28722471970849}}}, "place_id": "ChIJVfT2n-5vUjoRmdBIYwzMLdY", "plus_code": {"global_code": "7M52473Q+XC", "compound_code": "473Q+XC Chennai, Tamil Nadu, India"}, "vicinity": "Anjaneya Nagar, Old Washermanpet, Chennai", "scope": "GOOGLE", "business_status": "OPERATIONAL", "types": ["hospital", "health", "point_of_interest", "establishment"], "icon": "https://maps.gstatic.com/mapfiles/place_api/icons/v1/png_71/hospital-71.png"}, {"name": "Sudharsana Building", "reference": "ChIJAw_j8k9vUjoRXFayp6OZt0M", "geometry": {"location": {"lat": 13.093692, "lng": 80.28915099999999}, "viewport": {"northeast": {"lat": 13.0950459302915, "lng": 80.2904682302915}, "southwest": {"lat": 13.0923479697085, "lng": 80.28777026970849}}}, "place_id": "ChIJAw_j8k9vUjoRXFayp6OZt0M", "plus_code": {"global_code": "7M5237VQ+FM", "compound_code": "37VQ+FM Chennai, Tamil Nadu, India"}, "vicinity": "229/112, Mannady, George Town, Chennai", "photos": [{"photo_reference": "ATtYBwKSwi5lKL_hnnT3IoUiLvu-c16B6928fi50JnSXlJAdnV6fY0wNQQ79C6O9J6qxwFMjv1_Wcg8gstGu1jGQmoQZ-3qIU52CYBcD2GZqikr09PzOm866uuczo-QjERWIZB9NKyXBKaGKbLJ3FV-t-dGjJc8fcY-ObMR5iaNt6lM-2Lp8", "width": 2592, "html_attributions": ["<a href=\"https://maps.google.com/maps/contrib/117143821243556119631\">Prabhakar Subramani</a>"], "height": 1944}], "scope": "GOOGLE", "business_status": "OPERATIONAL", "types": ["hospital", "health", "point_of_interest", "establishment"], "icon": "https://maps.gstatic.com/mapfiles/place_api/icons/v1/png_71/hospital-71.png"}, {"name": "Maxxaall Med PVT.LTD.", "reference": "ChIJVS9LHitvUjoRjp16zRnm-uY", "geometry": {"location": {"lat": 13.0947624, "lng": 80.28851209999999}, "viewport": {"northeast": {"lat": 13.09622215, "lng": 80.28966963029151}, "southwest": {"lat": 13.09038315, "lng": 80.28697166970849}}}, "place_id": "ChIJVS9LHitvUjoRjp16zRnm-uY", "plus_code": {"global_code": "7M5237VQ+WC", "compound_code": "37VQ+WC Chennai, Tamil Nadu, India"}, "vicinity": "Building No, 50, Armenian Street, Mannady, George Town, Chennai", "scope": "GOOGLE", "business_status": "OPERATIONAL", "types": ["hospital", "health", "point_of_interest", "establishment"], "icon": "https://maps.gstatic.com/mapfiles/place_api/icons/v1/png_71/hospital-71.png"}, {"name": "Safire medicals", "reference": "ChIJi1vE6vxvUjoR7pRqLBBvAhI", "geometry": {"location": {"lat": 13.09224, "lng": 80.29007399999999}, "viewport": {"northeast": {"lat": 13.0935975802915, "lng": 80.29137063029151}, "southwest": {"lat": 13.0908996197085, "lng": 80.28867266970849}}}, "opening_hours": {"open_now": false}, "place_id": "ChIJi1vE6vxvUjoR7pRqLBBvAhI", "plus_code": {"global_code": "7M5237RR+V2", "compound_code": "37RR+V2 Chennai, Tamil Nadu, India"}, "vicinity": "No.225, angappa naikchan street, manaday, Chennai", "scope": "GOOGLE", "business_status": "OPERATIONAL", "types": ["hospital", "health", "point_of_interest", "establishment"], "icon": "https://maps.gstatic.com/mapfiles/place_api/icons/v1/png_71/hospital-71.png"}]}