{"status": "OK", "next_page_token": "ATtYBwIWzT5UqO136BsFfVfa_wcqhfhrACF0PZeMobFTCc2mptnko8IjHUpBUqYsaddfkL-wJObhnPXZizcl8iAwuMb0nrzrUW0wAkY7ICNtW23p4C-SuQjJczo2V-Xzg3f-s6X_KjadX24CSRKQ5juRbptXdxawcXGrJqi3rdbRlNmOUHYqKH8hy0n3UwoyiIUEbFrcf3HsD1Ur4RgjFBabwquUaFDtzuPIsluOxv5Re4qnoV_5PyvfitSMfB64QIvvdvG_51yMyktQ5Fm3HG5HRXwn18lVBsZyc3uXM1EP1rAuWIT9SbMgXQ-KQAyfNaPsJSmfd7i4D6uZcPWeSVT3TMEXf-ASy-ZaXt9y45KX07ThK1k-6NySrqUEUlv1QbvCI3vZEudrAkCCLJ2Bby8TJyEU22NANFJrCrO8yLZ1s6Md39lcUwRWz0SuctlMaW2ydUHZSz71wTrI_aXic4hqjOzefpQOJTpDqQuPxYzROgDS7jT1JEkZGtQizrbxkuub975ygV7K9Fg0J0xwd6-Z2HkUor_blDhkYUcHhzuSxdQIQ02J3LjsfjAWG7O5UHrJ2QGZvg3gLs68fxf1Uj9-f1y2QPbf4m4dB7Mfu50GVCIA995bN8e1fpUvwaprnM-ftoNoj8na2wM", "html_attributions": [], "results": [{"name": "Robin and Robin Health Care Pvt. Ltd", "reference": "ChIJNaeucS1lUjoRttO0efXtPqQ", "geometry": {"location": {"lat": 13.0808705, "lng": 80.19878279999999}, "viewport": {"northeast": {"lat": 13.0822139302915, "lng": 80.2000439302915}, "southwest": {"lat": 13.0795159697085, "lng": 80.1973459697085}}}, "opening_hours": {"open_now": false}, "place_id": "ChIJNaeucS1lUjoRttO0efXtPqQ", "plus_code": {"global_code": "7M5235JX+8G", "compound_code": "35JX+8G Chennai, Tamil Nadu, India"}, "vicinity": "162/16, 7th Avenue, Mangalam Colony, Anna Nagar, Chennai", "photos": [{"photo_reference": "ATtYBwIL8jKNljrPtSm5qAnfmry7TwFVQFiWDQUDozkdgFY4M9xNo84WDZlRfLGpBGnfmjDw7QHir-OV0FhDDsMnXizcS4yv7zkINWlQ8CgN1WiH_SYRVdW4xxL2MUjKtr71_GlffA2AXeP__hS_lrjT_4dE3o5RgeASX_yO50o1f5BjBznm", "width": 829, "html_attributions": ["<a href=\"https://maps.google.com/maps/contrib/114613689688460784186\">Robin and Robin Health Care Pvt. Ltd</a>"], "height": 466}], "scope": "GOOGLE", "business_status": "OPERATIONAL", "types": ["hospital", "doctor", "health", "point_of_interest", "establishment"], "icon": "https://maps.gstatic.com/mapfiles/place_api/icons/v1/png_71/generic_business-71.png"}, {"name": "TRISHEL", "reference": "ChIJqTuIDAVkUjoR5IKb3y_p4hs", "geometry": {"location": {"lat": 13.0815613, "lng": 80.1988302}, "viewport": {"northeast": {"lat": 13.0829109302915, "lng": 80.20005403029151}, "southwest": {"lat": 13.0802129697085, "lng": 80.1973560697085}}}, "opening_hours": {"open_now": false}, "place_id": "ChIJqTuIDAVkUjoR5IKb3y_p4hs", "plus_code": {"global_code": "7M5235JX+JG", "compound_code": "35JX+JG Chennai, Tamil Nadu, India"}, "vicinity": "Robin Hospitals, 7th Avenue, Mangalam Colony, Anna Nagar, Chennai", "photos": [{"photo_reference": "ATtYBwJFomFxxy5HDZGP90yH0UBRzaJXbG51HJlND-lU0DXqPAfZ9N_BclYWWVHPKQMEP-ZWyKWUFkHTmZVmNWy2SyNihnSf_GPk-YqH5OSd50DJoezL8vyR0gNbjBx1FDZoGU3694dMoXVV6M6fvfp811rV0wcuhgNFiiT4RwN2oD5aUBJZ", "width": 1202, "html_attributions": ["<a href=\"https://maps.google.com/maps/contrib/108391093059305614558\">TRISHEL</a>"], "height": 1203}], "scope": "GOOGLE", "business_status": "OPERATIONAL", "types": ["hospital", "health", "point_of_interest", "establishment"], "icon": "https://maps.gstatic.com/mapfiles/place_api/icons/v1/png_71/generic_business-71.png"}, {"rating": 5, "user_ratings_total": 1, "name": "Helius Physio Clinic", "reference": "ChIJgQGU4BxkUjoRuXFtMSwqWU4", "geometry": {"location": {"lat": 13.0825651, "lng": 80.20012559999999}, "viewport": {"northeast": {"lat": 13.08391348029151, "lng": 80.2015343802915}, "southwest": {"lat": 13.0812155197085, "lng": 80.19883641970848}}}, "opening_hours": {"open_now": false}, "place_id": "ChIJgQGU4BxkUjoRuXFtMSwqWU4", "plus_code": {"global_code": "7M5236M2+23", "compound_code": "36M2+23 Chennai, Tamil Nadu, India"}, "vicinity": "166/2, 13th Main Road, Shakti Colony, Anna Nagar, Chennai", "scope": "GOOGLE", "business_status": "OPERATIONAL", "types": ["hospital", "health", "point_of_interest", "establishment"], "icon": "https://maps.gstatic.com/mapfiles/place_api/icons/v1/png_71/hospital-71.png"}, {"name": "Dr.R.Sokkalingam Pet Clinic", "reference": "ChIJXxsFF-xlUjoRz5vv5pqv9FQ", "geometry": {"location": {"lat": 13.0828867, "lng": 80.2013583}, "viewport": {"northeast": {"lat": 13.0842034302915, "lng": 80.2027054802915}, "southwest": {"lat": 13.0815054697085, "lng": 80.20000751970849}}}, "place_id": "ChIJXxsFF-xlUjoRz5vv5pqv9FQ", "plus_code": {"global_code": "7M5236M2+5G", "compound_code": "36M2+5G Chennai, Tamil Nadu, India"}, "vicinity": "No AK 1, Shanthi Colony, Anna Nagar, Chennai", "photos": [{"photo_reference": "ATtYBwIQE_lRPzsQxXbhOllQ1UEmz2edtUnvpWfREGkueALaKSGQnorESU5ug626eGYwiUknzJKGHU8len6zu_nHwMXxDQlaZdTrtBBSQu8bm8M2uyuAvIaNXojdTedMkcJESbN0g7uJaGrt89H9-v_I3f__AumKUabPZzAInIyWgTC3Czva", "width": 720, "html_attributions": ["<a href=\"https://maps.google.com/maps/contrib/109208114974105036194\">Dr.R.B. Parthiban</a>"], "height": 1280}], "scope": "GOOGLE", "business_status": "OPERATIONAL", "types": ["hospital", "health", "point_of_interest", "establishment"], "icon": "https://maps.gstatic.com/mapfiles/place_api/icons/v1/png_71/hospital-71.png"}, {"rating": 5, "user_ratings_total": 1, "name": "Chennai Plastic Surgery", "reference": "ChIJh64TMgNkUjoRTawQCmQO8-g", "geometry": {"location": {"lat": 13.0830224, "lng": 80.1983553}, "viewport": {"northeast": {"lat": 13.0843709302915, "lng": 80.1997406302915}, "southwest": {"lat": 13.0816729697085, "lng": 80.1970426697085}}}, "place_id": "ChIJh64TMgNkUjoRTawQCmQO8-g", "plus_code": {"global_code": "7M5235MX+68", "compound_code": "35MX+68 Chennai, Tamil Nadu, India"}, "vicinity": "106, Jawaharlal Nehru Road, Thillaiyadi Valliammai Nagar, Thirumangalam, Chennai", "scope": "GOOGLE", "business_status": "OPERATIONAL", "types": ["hospital", "health", "point_of_interest", "establishment"], "icon": "https://maps.gstatic.com/mapfiles/place_api/icons/v1/png_71/hospital-71.png"}, {"rating": 2, "user_ratings_total": 1, "name": "G. Senthilkumar", "reference": "ChIJR6iliahmUjoRUyd3s8Tvi-Y", "geometry": {"location": {"lat": 13.076387, "lng": 80.197741}, "viewport": {"northeast": {"lat": 13.0777415302915, "lng": 80.1990491802915}, "southwest": {"lat": 13.0750435697085, "lng": 80.19635121970849}}}, "opening_hours": {"open_now": false}, "place_id": "ChIJR6iliahmUjoRUyd3s8Tvi-Y", "plus_code": {"global_code": "7M5235GX+H3", "compound_code": "35GX+H3 Chennai, Tamil Nadu, India"}, "vicinity": "Koyambedu, Chennai", "photos": [{"photo_reference": "ATtYBwL-PMnTCxPSc-oPZQNAYoZbzDV5S4e8vaPA9t7q9AyyTD70UX8fAXSuKhAp5NyqfJJ68sT3Kt-xSSf8eMH_vZ_8T85xAoZ4vLA_3zTnBwg2wWe2cHHT3e_l7mbhtnD_ykdW3GjmDJ5qa5WIjZCWuKDvTxuj2ts7XfpLpLk2qR8eP5-l", "width": 3120, "html_attributions": ["<a href=\"https://maps.google.com/maps/contrib/113943397533783107972\">Gopu T</a>"], "height": 4160}], "scope": "GOOGLE", "business_status": "OPERATIONAL", "types": ["hospital", "health", "point_of_interest", "establishment"], "icon": "https://maps.gstatic.com/mapfiles/place_api/icons/v1/png_71/hospital-71.png"}, {"name": "Sundaram Medical Foundation Dhort Stay Center", "reference": "ChIJf6x0KDZlUjoRYuVRrhwGLzo", "geometry": {"location": {"lat": 13.0828998, "lng": 80.20474999999999}, "viewport": {"northeast": {"lat": 13.0842424802915, "lng": 80.2061600302915}, "southwest": {"lat": 13.0815445197085, "lng": 80.2034620697085}}}, "place_id": "ChIJf6x0KDZlUjoRYuVRrhwGLzo", "plus_code": {"global_code": "7M5236M3+5V", "compound_code": "36M3+5V Chennai, Tamil Nadu, India"}, "vicinity": "89, Block AF, AF Block, Anna Nagar, Chennai", "scope": "GOOGLE", "business_status": "OPERATIONAL", "types": ["hospital", "health", "point_of_interest", "establishment"], "icon": "https://maps.gstatic.com/mapfiles/place_api/icons/v1/png_71/hospital-71.png"}, {"rating": 5, "user_ratings_total": 2, "name": "Jaya Multispeciality Hospital", "reference": "ChIJXfQ6ah5kUjoR7Q3F4daU-5k", "geometry": {"location": {"lat": 13.0814014, "lng": 80.2055137}, "viewport": {"northeast": {"lat": 13.0828118802915, "lng": 80.20686453029151}, "southwest": {"lat": 13.0801139197085, "lng": 80.20416656970849}}}, "opening_hours": {"open_now": false}, "place_id": "ChIJXfQ6ah5kUjoR7Q3F4daU-5k", "plus_code": {"global_code": "7M5236J4+H6", "compound_code": "36J4+H6 Chennai, Tamil Nadu, India"}, "vicinity": "AK-18, 7th Main Road, AL Block, Anna Nagar, Chennai", "photos": [{"photo_reference": "ATtYBwL9qY0HVFLnzzVsxcfXtXS4bQJ5stvlfs9ObajMRMNN-qVJ3TLSk4AjLBK4c0gB7xvnS4Afr8aGiJLQr4LNOnFxqoOtL4X6_6uLbj8_Rd5tJZUXhUHxFRCFbsh5hWtUyAOJ29aI3R8uyXl4fcf59aqPsKUKeMr2DCWJ-GD0cJwpSdj-", "width": 3260, "html_attributions": ["<a href=\"https://maps.google.com/maps/contrib/107423380553262322759\">Shivaram Krishnan</a>"], "height": 1841}], "scope": "GOOGLE", "business_status": "OPERATIONAL", "types": ["hospital", "health", "point_of_interest", "establishment"], "icon": "https://maps.gstatic.com/mapfiles/place_api/icons/v1/png_71/hospital-71.png"}, {"rating": 5, "user_ratings_total": 4, "name": "Jaya Multispecialty Dental Clinic", "reference": "ChIJx0eSLh5kUjoRip-qSi7O644", "geometry": {"location": {"lat": 13.0814146, "lng": 80.2055136}, "viewport": {"northeast": {"lat": 13.0827662802915, "lng": 80.20681523029151}, "southwest": {"lat": 13.0800683197085, "lng": 80.2041172697085}}}, "opening_hours": {"open_now": false}, "place_id": "ChIJx0eSLh5kUjoRip-qSi7O644", "plus_code": {"global_code": "7M5236J4+H6", "compound_code": "36J4+H6 Chennai, Tamil Nadu, India"}, "vicinity": "24, 6th Street, AK Block, Anna Nagar, Chennai", "photos": [{"photo_reference": "ATtYBwIBOqLD8lriUr8tq-6YivACMB-ARkj8aoREeQk70eMT_LMjDIPHAdMdsH6wPA7NIS3q8W6wcou-F6ZdKqoc-D6ztjgClsx4sTDSyApiTecwXBT62y1T2eu1foW5bx3SLbv53tbULe74ancW19YildRrWMTrJAUBK27h8UI03aH_jIso", "width": 1200, "html_attributions": ["<a href=\"https://maps.google.com/maps/contrib/110461290874265081935\">Jaya Multispecialty Dental Clinic</a>"], "height": 673}], "scope": "GOOGLE", "business_status": "OPERATIONAL", "types": ["hospital", "dentist", "health", "point_of_interest", "establishment"], "icon": "https://maps.gstatic.com/mapfiles/place_api/icons/v1/png_71/generic_business-71.png"}, {"rating": 5, "user_ratings_total": 13, "name": "Dr Parimala Selvi -Acupuncturist", "reference": "ChIJb0UT_C9nUjoR535JpaQGD5o", "geometry": {"location": {"lat": 13.0743658, "lng": 80.2006103}, "viewport": {"northeast": {"lat": 13.0757192302915, "lng": 80.20194143029151}, "southwest": {"lat": 13.0730212697085, "lng": 80.19924346970849}}}, "opening_hours": {"open_now": false}, "place_id": "ChIJb0UT_C9nUjoR535JpaQGD5o", "plus_code": {"global_code": "7M5236F2+P6", "compound_code": "36F2+P6 Chennai, Tamil Nadu, India"}, "vicinity": "18, School Street, Janakiraman Colony, Koyambedu, Chennai", "photos": [{"photo_reference": "ATtYBwIRNI_WE0-pmp5fXHxVwAejFoBK8ocY-0bwsYZe0iTdghgiBid3j6og1sf7rWQpmHHE-_aFnrI8xs926JRfXPwWU9ZJ0GqaQwARHBMChFaiwcUKyQrt8JWdijm9iacePePMa5pLn1CEk5Ol25l6sk9Lp4fMF-2MhvXj2MY6N6CjYJbN", "width": 720, "html_attributions": ["<a href=\"https://maps.google.com/maps/contrib/104617796725375464245\">Dr Parimala Selvi -Acupuncturist</a>"], "height": 960}], "scope": "GOOGLE", "business_status": "OPERATIONAL", "types": ["doctor", "hospital", "health", "point_of_interest", "establishment"], "icon": "https://maps.gstatic.com/mapfiles/place_api/icons/v1/png_71/generic_business-71.png"}, {"rating": 5, "user_ratings_total": 2, "name": "Green Care", "reference": "ChIJNa-egEFlUjoR75v0WtYE0So", "geometry": {"location": {"lat": 13.0797643, "lng": 80.20579470000001}, "viewport": {"northeast": {"lat": 13.0811912802915, "lng": 80.20714598029151}, "southwest": {"lat": 13.0784933197085, "lng": 80.20444801970851}}}, "place_id": "ChIJNa-egEFlUjoR75v0WtYE0So", "plus_code": {"global_code": "7M5236H4+W8", "compound_code": "36H4+W8 Chennai, Tamil Nadu, India"}, "vicinity": "43 Block, Ak, 9, Shanthi Colony, Anna Nagar, Chennai", "scope": "GOOGLE", "business_status": "OPERATIONAL", "types": ["hospital", "health", "point_of_interest", "establishment"], "icon": "https://maps.gstatic.com/mapfiles/place_api/icons/v1/png_71/hospital-71.png"}, {"rating": 5, "user_ratings_total": 25, "name": "Dental Health Care And Orthodontic Centre", "reference": "ChIJ____D6BdUjoRbGLZiePb8Es", "geometry": {"location": {"lat": 13.0856782, "lng": 80.19832319999999}, "viewport": {"northeast": {"lat": 13.0870316802915, "lng": 80.19968403029151}, "southwest": {"lat": 13.0843337197085, "lng": 80.1969860697085}}}, "opening_hours": {"open_now": false}, "place_id": "ChIJ____D6BdUjoRbGLZiePb8Es", "plus_code": {"global_code": "7M5235PX+78", "compound_code": "35PX+78 Chennai, Tamil Nadu, India"}, "vicinity": "JJ Complex, TNSCB Complex, No:59 and 60, Jawaharlal Nehru Road, Anna Nagar West, junction, Chennai", "photos": [{"photo_reference": "ATtYBwKdBvTijsiZx0jG_OsFcEZJKv6K-fVXFpKzXqfGlUVfTJALbyu-MECSLsshAHz8ATW6mjrWI65o2E_lfj_bz3Z61IpO6cywRNtP4s3YMhRim0uHS17BJL5b3M2CU0Ljm7n6rA5x5iyQL53f9SqQF9TuloVx5M8O0cYEfOsKU_YZrdia", "width": 2304, "html_attributions": ["<a href=\"https://maps.google.com/maps/contrib/106788468690298867335\">Rafeeq Dental</a>"], "height": 4608}], "scope": "GOOGLE", "business_status": "OPERATIONAL", "types": ["hospital", "dentist", "health", "point_of_interest", "establishment"], "icon": "https://maps.gstatic.com/mapfiles/place_api/icons/v1/png_71/generic_business-71.png"}, {"rating": 5, "user_ratings_total": 3, "name": "saratha medical centre", "reference": "ChIJ12UElg9lUjoRziBf8UfIRIk", "geometry": {"location": {"lat": 13.085288, "lng": 80.2027365}, "viewport": {"northeast": {"lat": 13.0866684302915, "lng": 80.2040867802915}, "southwest": {"lat": 13.0839704697085, "lng": 80.2013888197085}}}, "opening_hours": {"open_now": false}, "place_id": "ChIJ12UElg9lUjoRziBf8UfIRIk", "plus_code": {"global_code": "7M5236P3+43", "compound_code": "36P3+43 Chennai, Tamil Nadu, India"}, "vicinity": "No:24, , 2nd Ave, above nilgiris, Anna Nagar West, Anna Nagar, Chennai", "photos": [{"photo_reference": "ATtYBwKYNS_y3DsdtNw5KrjlJkjmolbl6cisBFObKy96IMi4ao8xNXZuIS_F6FWHasm36TD7kd8SaRFNRIbZD9p0t7_rNYDTj7wjfk3eUA09fv_pXACDYQKxR_LlXfUbc1gx8vdWgCBsK3cspMG2_wWtPQF3fwrYn56t5azpqrlUv3Xjw59F", "width": 4128, "html_attributions": ["<a href=\"https://maps.google.com/maps/contrib/117203654553062208266\">saratha medical centre</a>"], "height": 3096}], "scope": "GOOGLE", "business_status": "OPERATIONAL", "types": ["hospital", "health", "point_of_interest", "establishment"], "icon": "https://maps.gstatic.com/mapfiles/place_api/icons/v1/png_71/hospital-71.png"}, {"rating": 5, "user_ratings_total": 1, "name": "Murugan Clinic", "reference": "ChIJbYEFpARkUjoRfAUCBRc0BBU", "geometry": {"location": {"lat": 13.0854723, "lng": 80.19765070000001}, "viewport": {"northeast": {"lat": 13.0868661302915, "lng": 80.19900343029151}, "southwest": {"lat": 13.0841681697085, "lng": 80.19630546970849}}}, "opening_hours": {"open_now": false}, "place_id": "ChIJbYEFpARkUjoRfAUCBRc0BBU", "plus_code": {"global_code": "7M5235PX+53", "compound_code": "35PX+53 Chennai, Tamil Nadu, India"}, "vicinity": "153, Thiruvalluvar Street, TV Nagar, Thirumangalam, Chennai", "scope": "GOOGLE", "business_status": "OPERATIONAL", "types": ["hospital", "health", "point_of_interest", "establishment"], "icon": "https://maps.gstatic.com/mapfiles/place_api/icons/v1/png_71/hospital-71.png"}, {"rating": 5, "user_ratings_total": 3, "name": "The dental zone", "reference": "ChIJvc7aaBtkUjoR_agLop1gYbQ", "geometry": {"location": {"lat": 13.0861848, "lng": 80.2002686}, "viewport": {"northeast": {"lat": 13.0875344302915, "lng": 80.2016754802915}, "southwest": {"lat": 13.0848364697085, "lng": 80.19897751970849}}}, "place_id": "ChIJvc7aaBtkUjoR_agLop1gYbQ", "plus_code": {"global_code": "7M5236P2+F4", "compound_code": "36P2+F4 Chennai, Tamil Nadu, India"}, "vicinity": "1995, 13th Main Road, Tirumaniamman Nagar, Anna Nagar, Chennai", "photos": [{"photo_reference": "ATtYBwIL8B0rVhiO9X5n7vjznpc8zPg-_7JIBS_iezYCEYyFA5Wt0TFsVrDSe4d_F1ToAxnXXLJY_Jl6hpk6W6zTtWKc_ssnfm41fpKsvfNBgZpZ9tV1mAbo-YEEtx-UKMrFnwOki3aJZ89QTZmb2kmlyrZNz7_VELU7Qiv5rRXT_LIie_2A", "width": 1080, "html_attributions": ["<a href=\"https://maps.google.com/maps/contrib/101146144169118495228\">Vigneshwar Mohan</a>"], "height": 1920}], "scope": "GOOGLE", "business_status": "OPERATIONAL", "types": ["hospital", "health", "point_of_interest", "establishment"], "icon": "https://maps.gstatic.com/mapfiles/place_api/icons/v1/png_71/hospital-71.png"}, {"name": "RAJHARA MEDICALS", "reference": "ChIJtye5nBtkUjoRyw2UPpQJiZc", "geometry": {"location": {"lat": 13.0860038, "lng": 80.2017272}, "viewport": {"northeast": {"lat": 13.0873063302915, "lng": 80.2030741302915}, "southwest": {"lat": 13.0846083697085, "lng": 80.20037616970849}}}, "opening_hours": {"open_now": true}, "place_id": "ChIJtye5nBtkUjoRyw2UPpQJiZc", "plus_code": {"global_code": "7M5236P2+CM", "compound_code": "36P2+CM Chennai, Tamil Nadu, India"}, "vicinity": "AP 710, #826,11th, 1st Street, G Block, Anna Nagar, Chennai", "photos": [{"photo_reference": "ATtYBwJvwLFuB8bOyNyVAmo6jwPpRiItH1QSvOqf9vGB5QVYykbA55h_0DgDp-aL8azhbqc2B7Jus02FaMQ8BFvt6ehDJqpRZXRgB41-BNpA5P7E_2j1CotDBjKSBr79-IFlncroGHUwbKmo_ygrScLoYf71It8etmoj5mLHRzZxtgxu3Vls", "width": 1600, "html_attributions": ["<a href=\"https://maps.google.com/maps/contrib/110476054637173228277\">RAJHARA MEDICALS</a>"], "height": 1200}], "scope": "GOOGLE", "business_status": "OPERATIONAL", "types": ["hospital", "health", "point_of_interest", "establishment"], "icon": "https://maps.gstatic.com/mapfiles/place_api/icons/v1/png_71/hospital-71.png"}, {"name": "Thirumangalam", "reference": "ChIJMXYry9BlUjoRZpckUzt4Gl4", "geometry": {"location": {"lat": 13.083528, "lng": 80.1944807}, "viewport": {"northeast": {"lat": 13.0848553302915, "lng": 80.1958222802915}, "southwest": {"lat": 13.0821573697085, "lng": 80.19312431970847}}}, "place_id": "ChIJMXYry9BlUjoRZpckUzt4Gl4", "plus_code": {"global_code": "7M5235MV+CQ", "compound_code": "35MV+CQ Chennai, Tamil Nadu, India"}, "vicinity": "Anna Nagar West, Chennai", "scope": "GOOGLE", "business_status": "OPERATIONAL", "types": ["hospital", "health", "point_of_interest", "establishment"], "icon": "https://maps.gstatic.com/mapfiles/place_api/icons/v1/png_71/hospital-71.png"}, {"name": "Trimed", "reference": "ChIJ3ft2nBtkUjoRj1DSfZpLDgk", "geometry": {"location": {"lat": 13.0861781, "lng": 80.2017906}, "viewport": {"northeast": {"lat": 13.0876062802915, "lng": 80.2031437302915}, "southwest": {"lat": 13.0849083197085, "lng": 80.2004457697085}}}, "place_id": "ChIJ3ft2nBtkUjoRj1DSfZpLDgk", "plus_code": {"global_code": "7M5236P2+FP", "compound_code": "36P2+FP Chennai, Tamil Nadu, India"}, "vicinity": "Anna Nagar West, Chennai", "scope": "GOOGLE", "business_status": "OPERATIONAL", "types": ["hospital", "health", "point_of_interest", "establishment"], "icon": "https://maps.gstatic.com/mapfiles/place_api/icons/v1/png_71/hospital-71.png"}, {"rating": 1, "user_ratings_total": 1, "name": "Krishna Medicals", "reference": "ChIJA535gDxlUjoRkl7b8BlTP0w", "geometry": {"location": {"lat": 13.0857322, "lng": 80.20301630000002}, "viewport": {"northeast": {"lat": 13.0871440802915, "lng": 80.20436648029151}, "southwest": {"lat": 13.0844461197085, "lng": 80.2016685197085}}}, "place_id": "ChIJA535gDxlUjoRkl7b8BlTP0w", "plus_code": {"global_code": "7M5236P3+76", "compound_code": "36P3+76 Chennai, Tamil Nadu, India"}, "vicinity": "H Block 2nd Street, Ranganathan Garden, Anna Nagar, Chennai", "scope": "GOOGLE", "business_status": "OPERATIONAL", "types": ["hospital", "health", "point_of_interest", "establishment"], "icon": "https://maps.gstatic.com/mapfiles/place_api/icons/v1/png_71/hospital-71.png"}, {"name": "Dr.GUGANATHAN DENTAL CLINIC", "reference": "ChIJq6vr46VmUjoRUwPOtwhEx8c", "geometry": {"location": {"lat": 13.0734967, "lng": 80.1996351}, "viewport": {"northeast": {"lat": 13.0748016302915, "lng": 80.2009849302915}, "southwest": {"lat": 13.0721036697085, "lng": 80.19828696970849}}}, "place_id": "ChIJq6vr46VmUjoRUwPOtwhEx8c", "plus_code": {"global_code": "7M5235FX+9V", "compound_code": "35FX+9V Chennai, Tamil Nadu, India"}, "vicinity": "North Mada Street, Virrugambakkam, Koyambedu, Chennai", "scope": "GOOGLE", "business_status": "OPERATIONAL", "types": ["hospital", "health", "point_of_interest", "establishment"], "icon": "https://maps.gstatic.com/mapfiles/place_api/icons/v1/png_71/hospital-71.png"}]}