{"status": "OK", "next_page_token": "ATtYBwLQd832Sj5sAkk6QWuUGxYH9TrJhl-W_bg8ToGLZh1iE4J_FEdE-i5ZBBbjXH-GqIPRpPj8IimQr0L8Fr30oAPO_1eUi8bqwOuAK_IF5UH_TLEKhjYG3n6rFuDIAjuLPP_WGq6bZykXqSufZzMjjDBqrHyfmfGvXOQHleLKL2JFK4H2abHVu5U6mzfDQn9K6j-z1ne1uXFo2ecuJk_wvv5ONbFTK1JMF3eNREVQanMLnfpXOaAU18PJlrUhl8gIO07tDqXUPcti6OY1Y-cweoHMOO3zucxUruN669lM__HlgLzWfkEr15Dbb35V4a59-sNeKfR1no6yVz6Rsy3_GkM3NrZFx-A9Sq2QIDWCKOKsHJlMKP72A_BlqXTjUzmCpd7pWWubz0VMtbNyxw_Kx7cq-AmibNqSG79eQdCOctmwCfw8_lJmpA", "html_attributions": [], "results": [{"rating": 3, "user_ratings_total": 41, "name": "Aishwarya Hospital", "reference": "ChIJX45a-GJkUjoRzE3Y7o8X5I0", "geometry": {"location": {"lat": 13.1226548, "lng": 80.2014006}, "viewport": {"northeast": {"lat": 13.1240400302915, "lng": 80.2028847802915}, "southwest": {"lat": 13.1213420697085, "lng": 80.20018681970849}}}, "opening_hours": {"open_now": true}, "place_id": "ChIJX45a-GJkUjoRzE3Y7o8X5I0", "plus_code": {"global_code": "7M5246F2+3H", "compound_code": "46F2+3H Chennai, Tamil Nadu, India"}, "vicinity": "No. 3, 200 Feet Road, Near Senthil Nagar Signal, Kolathur, Chennai", "photos": [{"photo_reference": "ATtYBwK9AeJkCoJQQJPbgcue1kM8PaAET7clytn9QxoDLGypwNCeG6NfScXX497XpGhNJeu3hdbY5WJLCWLrTvAQO2PqVO3qeBzEPkySxbDLj_fyE4tFUJD_OkfDimbUs5EoDIxU1YZoOgFgJv8pbrJ8DBeLVeC8WwvMPFHqto0eRBAWOxvg", "width": 4128, "html_attributions": ["<a href=\"https://maps.google.com/maps/contrib/116038925447963429323\">ramalingam india</a>"], "height": 2322}], "scope": "GOOGLE", "business_status": "OPERATIONAL", "types": ["hospital", "health", "point_of_interest", "establishment"], "icon": "https://maps.gstatic.com/mapfiles/place_api/icons/v1/png_71/hospital-71.png"}, {"rating": 3.1, "user_ratings_total": 70, "name": "DRJ Hospital", "reference": "ChIJbYkHVNFdUjoRlsx__OP3hRE", "geometry": {"location": {"lat": 13.1218457, "lng": 80.19970740000001}, "viewport": {"northeast": {"lat": 13.1232712802915, "lng": 80.2010924802915}, "southwest": {"lat": 13.1205733197085, "lng": 80.1983945197085}}}, "opening_hours": {"open_now": true}, "place_id": "ChIJbYkHVNFdUjoRlsx__OP3hRE", "plus_code": {"global_code": "7M5245CX+PV", "compound_code": "45CX+PV Chennai, Tamil Nadu, India"}, "vicinity": "No: 9, Thirumalai Nagar, Annexed, Jawaharlal Nehru Road, Kolathur, Chennai", "photos": [{"photo_reference": "ATtYBwIhrLbtH-Q6p0usvWnZEtpB0StiVaUxNRlUTIOzjvke0mIUr877xfMIFRt18e5zRb6Vidy4J7yMLxt9k8LOTZYo_4DwbtmIfFPMaw_53h-CGQoxqOevcYTGN30bF4fZRZkh2RpyJKiMYQGygIDmg0jmAK4AlzNd58lISPmVO0d8-6G4", "width": 2533, "html_attributions": ["<a href=\"https://maps.google.com/maps/contrib/109957667860113070210\">Yesu ilamParithi J</a>"], "height": 2932}], "scope": "GOOGLE", "business_status": "OPERATIONAL", "types": ["hospital", "health", "point_of_interest", "establishment"], "icon": "https://maps.gstatic.com/mapfiles/place_api/icons/v1/png_71/hospital-71.png"}, {"rating": 5, "user_ratings_total": 1, "name": "Premier Medical Corporation-used medical equipment-used ct scan-used digital xray-used mri scan", "reference": "ChIJ8zQmiIFmUjoRcrwQBd-UREU", "geometry": {"location": {"lat": 13.1186417, "lng": 80.1978938}, "viewport": {"northeast": {"lat": 13.1199906802915, "lng": 80.19924278029151}, "southwest": {"lat": 13.1172927197085, "lng": 80.1965448197085}}}, "opening_hours": {"open_now": false}, "place_id": "ChIJ8zQmiIFmUjoRcrwQBd-UREU", "plus_code": {"global_code": "7M52459X+F5", "compound_code": "459X+F5 Chennai, Tamil Nadu, India"}, "vicinity": "17A,kanniammal St, NRS Road, Korattur, Chennai", "photos": [{"photo_reference": "ATtYBwL4e73CJ8BYO7JoqPt_kBAej_4qwfEXsJFbiQ8Zac8DqIib71c_q5oYZutYtMFCDxEaMDoeeQC-E8UMIb2D6o-Id2kqVd6_lgnYQO1Et0mJrjVUpGxznu-XB3rBMYIWUZyrIsdBc5lvIZS12h6NdfWwvj2H5nqSajPTbxw5okpa8Rk0", "width": 737, "html_attributions": ["<a href=\"https://maps.google.com/maps/contrib/107211359461505430004\">Premier Medical Corporation-used medical equipment-used ct scan-used digital xray-used mri scan</a>"], "height": 490}], "scope": "GOOGLE", "business_status": "OPERATIONAL", "types": ["hospital", "health", "point_of_interest", "establishment"], "icon": "https://maps.gstatic.com/mapfiles/place_api/icons/v1/png_71/hospital-71.png"}, {"rating": 3.9, "user_ratings_total": 13, "name": "Subash Hospital", "reference": "ChIJSU_wK2VkUjoRJ7fXrPAa4mo", "geometry": {"location": {"lat": 13.116246, "lng": 80.198824}, "viewport": {"northeast": {"lat": 13.1176142802915, "lng": 80.2001791802915}, "southwest": {"lat": 13.1149163197085, "lng": 80.1974812197085}}}, "opening_hours": {"open_now": false}, "place_id": "ChIJSU_wK2VkUjoRJ7fXrPAa4mo", "plus_code": {"global_code": "7M52458X+FG", "compound_code": "458X+FG Chennai, Tamil Nadu, India"}, "vicinity": "15/13 13, Near, Sastha Nagar Extension Road, Thathan Kuppam, Villivakkam, Chennai", "photos": [{"photo_reference": "ATtYBwIMEN8Rf8r0aTv_EI9BxSF2z2AHW2cz0pvQeD6KCPCb1CoHCAC8r_AnCi9o7LGIxlg6BZPVy2mulXAAAa63BuqROsKbpGYtksCMjSyfE8uWkGOm-kFlKnAq-zv5Ii2RlIub6LM7CmZi91i2y98buGW47ueT_gyO5Kr80Ex8l9BefspH", "width": 1600, "html_attributions": ["<a href=\"https://maps.google.com/maps/contrib/113636268804686095772\">Subash Hospital</a>"], "height": 1200}], "scope": "GOOGLE", "business_status": "OPERATIONAL", "types": ["hospital", "health", "point_of_interest", "establishment"], "icon": "https://maps.gstatic.com/mapfiles/place_api/icons/v1/png_71/hospital-71.png"}, {"rating": 2.5, "user_ratings_total": 2, "name": "Apollo pharmacy sendhil Nagar near rajamangalam police station", "reference": "ChIJs-9YhzFkUjoRVXoABqxXKgM", "geometry": {"location": {"lat": 13.1212112, "lng": 80.20500849999999}, "viewport": {"northeast": {"lat": 13.1225911302915, "lng": 80.20635153029151}, "southwest": {"lat": 13.1198931697085, "lng": 80.20365356970851}}}, "opening_hours": {"open_now": false}, "place_id": "ChIJs-9YhzFkUjoRVXoABqxXKgM", "plus_code": {"global_code": "7M5246C4+F2", "compound_code": "46C4+F2 Chennai, Tamil Nadu, India"}, "vicinity": "Senthil Nagar 2nd Cross Street, Subramaniapuram, Kolathur, Chennai", "photos": [{"photo_reference": "ATtYBwLl5RmA4l22z4YWmjmg0ZJingGbJ39QkuyBpY2mXB53n9rzhX6bxgBZJt5y5KDucuMQCrGvbVK2G_NQP81ZJ4bgupIyW6HNyzabdmb0fupU0CliyBeoWQ3FujctSMwvjftMA3eU5z6N6twDTTFOtdEOtJ2RTfyqhxl1FlgdUFhaZfVm", "width": 1080, "html_attributions": ["<a href=\"https://maps.google.com/maps/contrib/117062338685596075055\">GG jayahar</a>"], "height": 1920}], "scope": "GOOGLE", "business_status": "OPERATIONAL", "types": ["pharmacy", "hospital", "university", "food", "health", "point_of_interest", "store", "establishment"], "icon": "https://maps.gstatic.com/mapfiles/place_api/icons/v1/png_71/school-71.png"}, {"rating": 5, "user_ratings_total": 2, "name": "Apollo Diagnostics", "reference": "ChIJaQHHM2ZkUjoRtlI8pM-MFUw", "geometry": {"location": {"lat": 13.1155992, "lng": 80.2044683}, "viewport": {"northeast": {"lat": 13.1168990302915, "lng": 80.20581823029151}, "southwest": {"lat": 13.1142010697085, "lng": 80.2031202697085}}}, "opening_hours": {"open_now": false}, "place_id": "ChIJaQHHM2ZkUjoRtlI8pM-MFUw", "plus_code": {"global_code": "7M524683+6Q", "compound_code": "4683+6Q Chennai, Tamil Nadu, India"}, "vicinity": "No. 121, North Redhills Road, Valluvar Nagar, Kolathur, Villivakkam, Chennai", "scope": "GOOGLE", "business_status": "OPERATIONAL", "types": ["hospital", "health", "point_of_interest", "establishment"], "icon": "https://maps.gstatic.com/mapfiles/place_api/icons/v1/png_71/generic_business-71.png"}, {"rating": 3.3, "user_ratings_total": 25, "name": "Niranjana Hospital And Well Women Centre", "reference": "ChIJJXpCS2ZkUjoRKa-kP2YMGN0", "geometry": {"location": {"lat": 13.1175646, "lng": 80.20629319999999}, "viewport": {"northeast": {"lat": 13.1189128802915, "lng": 80.2076882802915}, "southwest": {"lat": 13.1162149197085, "lng": 80.2049903197085}}}, "opening_hours": {"open_now": false}, "place_id": "ChIJJXpCS2ZkUjoRKa-kP2YMGN0", "plus_code": {"global_code": "7M524694+2G", "compound_code": "4694+2G Chennai, Tamil Nadu, India"}, "vicinity": "163, 117, Red Hills Road, Villivakkam, Chennai", "scope": "GOOGLE", "business_status": "OPERATIONAL", "types": ["hospital", "health", "point_of_interest", "establishment"], "icon": "https://maps.gstatic.com/mapfiles/place_api/icons/v1/png_71/hospital-71.png"}, {"rating": 1, "user_ratings_total": 1, "name": "Sri Hospital", "reference": "ChIJK_LzAopkUjoR6mdl48j88Do", "geometry": {"location": {"lat": 13.1257687, "lng": 80.2043484}, "viewport": {"northeast": {"lat": 13.1271205302915, "lng": 80.2056592302915}, "southwest": {"lat": 13.1244225697085, "lng": 80.2029612697085}}}, "place_id": "ChIJK_LzAopkUjoR6mdl48j88Do", "plus_code": {"global_code": "7M5246G3+8P", "compound_code": "46G3+8P Chennai, Tamil Nadu, India"}, "vicinity": "12, 2nd Cross Road, Doctors Colony, Jayanthi Nagar, Lakshmipuram, Chennai", "scope": "GOOGLE", "business_status": "OPERATIONAL", "types": ["hospital", "health", "point_of_interest", "establishment"], "icon": "https://maps.gstatic.com/mapfiles/place_api/icons/v1/png_71/hospital-71.png"}, {"name": "Care Clinic - General Medicine and Cardiology", "reference": "ChIJM4Xp_mZkUjoRtxZcZgbIDVE", "geometry": {"location": {"lat": 13.1169977, "lng": 80.2067799}, "viewport": {"northeast": {"lat": 13.1183352302915, "lng": 80.2080356802915}, "southwest": {"lat": 13.1156372697085, "lng": 80.2053377197085}}}, "opening_hours": {"open_now": true}, "place_id": "ChIJM4Xp_mZkUjoRtxZcZgbIDVE", "plus_code": {"global_code": "7M524684+QP", "compound_code": "4684+QP Chennai, Tamil Nadu, India"}, "vicinity": "53B, Janakiraman Colony, Villivakkam, Chennai", "scope": "GOOGLE", "business_status": "OPERATIONAL", "types": ["hospital", "health", "point_of_interest", "establishment"], "icon": "https://maps.gstatic.com/mapfiles/place_api/icons/v1/png_71/hospital-71.png"}, {"rating": 4.3, "user_ratings_total": 11, "name": "Shree Health Care", "reference": "ChIJR_UYHopkUjoROmHxyFPmdbQ", "geometry": {"location": {"lat": 13.126359, "lng": 80.204276}, "viewport": {"northeast": {"lat": 13.1277784802915, "lng": 80.20562363029151}, "southwest": {"lat": 13.1250805197085, "lng": 80.20292566970849}}}, "opening_hours": {"open_now": true}, "place_id": "ChIJR_UYHopkUjoROmHxyFPmdbQ", "plus_code": {"global_code": "7M5246G3+GP", "compound_code": "46G3+GP Chennai, Tamil Nadu, India"}, "vicinity": "12, 2nd Cross Road, Doctors Colony, Jayanthi Nagar, Lakshmipuram, Chennai", "photos": [{"photo_reference": "ATtYBwJ2gitBbq1VBfP1DXR-HTnEMD2mh6R0wrvPmU-BKjOe_YuDkIuSDFUqTixqN-YfJnoY1dbX7GD8eCQ49Sk13KBgktgdQbcFe9EsBgctOf53NH_XfObg9f2h5wiaKHtk-byGd2QDDBgDEPKOyihw2vYp5X9GnVDil10MbKEqbpGSZsmc", "width": 4608, "html_attributions": ["<a href=\"https://maps.google.com/maps/contrib/101773933930023899759\">Pranav Kumar S.</a>"], "height": 3456}], "scope": "GOOGLE", "business_status": "OPERATIONAL", "types": ["hospital", "health", "point_of_interest", "establishment"], "icon": "https://maps.gstatic.com/mapfiles/place_api/icons/v1/png_71/hospital-71.png"}, {"name": "sumathi medical", "reference": "ChIJd7OcOAevJzoRhmtF3Lxdj5k", "geometry": {"location": {"lat": 13.1156012, "lng": 80.2067264}, "viewport": {"northeast": {"lat": 13.1169522302915, "lng": 80.2080995802915}, "southwest": {"lat": 13.1142542697085, "lng": 80.2054016197085}}}, "opening_hours": {"open_now": false}, "place_id": "ChIJd7OcOAevJzoRhmtF3Lxdj5k", "plus_code": {"global_code": "7M524684+6M", "compound_code": "4684+6M Chennai, Tamil Nadu, India"}, "vicinity": "No.537/5,valluvar street,kavagarai., Chennai", "photos": [{"photo_reference": "ATtYBwIrNhLmARr82mN2pyKyveZiAne5kQAGMcjznh4t95Q0qm62p3Mv_UVfLjLotdKONxnk11I5RYgR_UeWy-aIt34EQOOWPEBruGQNeRIPZ3j33_fT4y87f4WP9geJc9RvjcKjft-qmK4Mg7RfnTjt1J3ENxOnKKhw1mJZNItC7lGIQgDu", "width": 1600, "html_attributions": ["<a href=\"https://maps.google.com/maps/contrib/105991962404299449324\">sumathi medical</a>"], "height": 1200}], "scope": "GOOGLE", "business_status": "OPERATIONAL", "types": ["hospital", "health", "point_of_interest", "establishment"], "icon": "https://maps.gstatic.com/mapfiles/place_api/icons/v1/png_71/hospital-71.png"}, {"rating": 3.6, "user_ratings_total": 30, "name": "Government Veterinary Hospital", "reference": "ChIJKXr1pGhkUjoRfikWxb3JsAM", "geometry": {"location": {"lat": 13.1132875, "lng": 80.2051875}, "viewport": {"northeast": {"lat": 13.1146317302915, "lng": 80.2065916302915}, "southwest": {"lat": 13.1119337697085, "lng": 80.20389366970848}}}, "place_id": "ChIJKXr1pGhkUjoRfikWxb3JsAM", "plus_code": {"global_code": "7M524674+83", "compound_code": "4674+83 Chennai, Tamil Nadu, India"}, "vicinity": "1st Main Road, Rajamangalam, Villivakkam, Chennai", "scope": "GOOGLE", "business_status": "OPERATIONAL", "types": ["hospital", "veterinary_care", "health", "point_of_interest", "establishment"], "icon": "https://maps.gstatic.com/mapfiles/place_api/icons/v1/png_71/generic_business-71.png"}, {"rating": 2.7, "user_ratings_total": 6, "name": "Swamy Eye Clinic", "reference": "ChIJL5Fxh2BkUjoRyb4L9k_pmH0", "geometry": {"location": {"lat": 13.1224885, "lng": 80.20933509999999}, "viewport": {"northeast": {"lat": 13.1238934302915, "lng": 80.2106488802915}, "southwest": {"lat": 13.1211954697085, "lng": 80.2079509197085}}}, "opening_hours": {"open_now": false}, "place_id": "ChIJL5Fxh2BkUjoRyb4L9k_pmH0", "plus_code": {"global_code": "7M5246C5+XP", "compound_code": "46C5+XP Chennai, Tamil Nadu, India"}, "vicinity": "5, 1st Street, Venkateshwara Nagar, Kolathur, Chennai", "scope": "GOOGLE", "business_status": "OPERATIONAL", "types": ["hospital", "health", "point_of_interest", "establishment"], "icon": "https://maps.gstatic.com/mapfiles/place_api/icons/v1/png_71/hospital-71.png"}, {"rating": 4.7, "user_ratings_total": 11, "name": "Sankalp Beautiful World", "reference": "ChIJQa3noGBkUjoRE_q0AY3dvmk", "geometry": {"location": {"lat": 13.1208836, "lng": 80.2096826}, "viewport": {"northeast": {"lat": 13.1223159802915, "lng": 80.2110268802915}, "southwest": {"lat": 13.1196180197085, "lng": 80.20832891970849}}}, "opening_hours": {"open_now": false}, "place_id": "ChIJQa3noGBkUjoRE_q0AY3dvmk", "plus_code": {"global_code": "7M5246C5+9V", "compound_code": "46C5+9V Chennai, Tamil Nadu, India"}, "vicinity": "82, 4th Main Road, Jayaram Nagar, Kolathur, Chennai", "photos": [{"photo_reference": "ATtYBwK5tOrdh5Sv_8eBeVsI6YzReolAMFBXfEBGErsZgkBBP2Kc14gLloaon8WPzvH6_s9ZtLeFwJV9j09HX-AksSQ9lKiOFDz41gpr-bSBh4AeYYGwOIfJBbMUBZZnSZ1yNmon_-hnXd8C8HbzVwlem3oe_uWWKO7UmnoQtFe5--ItzVH1", "width": 2048, "html_attributions": ["<a href=\"https://maps.google.com/maps/contrib/114971539701340015721\">Victor Moni</a>"], "height": 1152}], "scope": "GOOGLE", "business_status": "OPERATIONAL", "types": ["hospital", "health", "point_of_interest", "establishment"], "icon": "https://maps.gstatic.com/mapfiles/place_api/icons/v1/png_71/hospital-71.png"}, {"rating": 4.5, "user_ratings_total": 4, "name": "Apollo Pharmacy", "reference": "ChIJdVgZ92hkUjoRL3cl-pnfEe4", "geometry": {"location": {"lat": 13.1124784, "lng": 80.2074382}, "viewport": {"northeast": {"lat": 13.1137993802915, "lng": 80.2087868302915}, "southwest": {"lat": 13.1111014197085, "lng": 80.2060888697085}}}, "opening_hours": {"open_now": true}, "place_id": "ChIJdVgZ92hkUjoRL3cl-pnfEe4", "plus_code": {"global_code": "7M524664+XX", "compound_code": "4664+XX Chennai, Tamil Nadu, India"}, "vicinity": "Door No 78, 160, Red Hills Road, Villivakkam, Chennai", "photos": [{"photo_reference": "ATtYBwIzji-KU4Tqa7fXgxXsFR3IPRVlIikZP89lV5Z5K_aN5xPhMEi9ia4BYkBUpiH1GR-C1uNhrFP5ImfRN2ybtqV5kB5OOxLmQj4gLqnMsdeZaVrSjGEfXT_zK7U-3EJ4fLuF3oAEm1AHztNRdpW2L8OTUW-fj_nnbgtlyHFBj2Ilc2Fn", "width": 4160, "html_attributions": ["<a href=\"https://maps.google.com/maps/contrib/108630959171556219807\">Pradeep R</a>"], "height": 3120}], "scope": "GOOGLE", "business_status": "OPERATIONAL", "types": ["pharmacy", "hospital", "food", "health", "point_of_interest", "store", "establishment"], "icon": "https://maps.gstatic.com/mapfiles/place_api/icons/v1/png_71/pharmacy-71.png"}, {"rating": 2.3, "user_ratings_total": 25, "name": "Kings Hospital", "reference": "ChIJ9QPxBIhkUjoRNb9T5UkooYA", "geometry": {"location": {"lat": 13.1309612, "lng": 80.2027964}, "viewport": {"northeast": {"lat": 13.1322611302915, "lng": 80.20415413029151}, "southwest": {"lat": 13.1295631697085, "lng": 80.20145616970849}}}, "opening_hours": {"open_now": true}, "place_id": "ChIJ9QPxBIhkUjoRNb9T5UkooYA", "plus_code": {"global_code": "7M5246J3+94", "compound_code": "46J3+94 Chennai, Tamil Nadu, India"}, "vicinity": "No 32, Ganapathi Nagar, Teacher's Colony, Kadappa Rd, Lakshmipuram, Chennai", "photos": [{"photo_reference": "ATtYBwKObPKbg_LRU3GIW4fAgcYgjPZqUjNIP9spPIYA4U7w_TSXcq87dOfLs_74Cz_h_dNorG0JLnFDuL3Zl2gGEUs79aGX6T-boX0aOw4GUmfU64fBK-CJBkDapZpatdO-Fdxh0IbJhTLt1f_ipkmuMYmgyAnss6Xy2Bf9Z1uk8WlP5dgf", "width": 4208, "html_attributions": ["<a href=\"https://maps.google.com/maps/contrib/103159364684776095822\">Ahamarshan Jn</a>"], "height": 2368}], "scope": "GOOGLE", "business_status": "OPERATIONAL", "types": ["hospital", "health", "point_of_interest", "establishment"], "icon": "https://maps.gstatic.com/mapfiles/place_api/icons/v1/png_71/hospital-71.png"}, {"rating": 4.5, "user_ratings_total": 2, "name": "Sri Padali Speciality Hospital", "reference": "ChIJYY1mTGNkUjoRBRM3dJmr2gQ", "geometry": {"location": {"lat": 13.1202991, "lng": 80.1988693}, "viewport": {"northeast": {"lat": 13.1216474302915, "lng": 80.2002186302915}, "southwest": {"lat": 13.1189494697085, "lng": 80.1975206697085}}}, "opening_hours": {"open_now": true}, "place_id": "ChIJYY1mTGNkUjoRBRM3dJmr2gQ", "plus_code": {"global_code": "7M5245CX+4G", "compound_code": "45CX+4G Chennai, Tamil Nadu, India"}, "vicinity": "Water Canal Road, 4, Canal Road, Korattur, Chennai", "photos": [{"photo_reference": "ATtYBwIIFaSNVJOCPjU3kgcfKY32UyZWRI9jzAtjdnIoBAs06jFcEmgBPLYlhx9XIKEY1nqVp34LBRIWFKWrtx_HZU-DKSofGQQ--7lwdFNTRdbcBEEvm7v-qWNevjaTNNEPisexh_dR7TVGjTtxAjppTIEq-dhZVmr3GIQrMK1MmTxXImX1", "width": 768, "html_attributions": ["<a href=\"https://maps.google.com/maps/contrib/101663647974627251053\">j Energy</a>"], "height": 1024}], "scope": "GOOGLE", "business_status": "OPERATIONAL", "types": ["hospital", "health", "point_of_interest", "establishment"], "icon": "https://maps.gstatic.com/mapfiles/place_api/icons/v1/png_71/hospital-71.png"}, {"name": "SWASAM SPECIALITY CLINIC", "reference": "ChIJ3epQRZVlUjoRsZvVvLBdBnk", "geometry": {"location": {"lat": 13.1213963, "lng": 80.20078509999999}, "viewport": {"northeast": {"lat": 13.1227452802915, "lng": 80.2021340802915}, "southwest": {"lat": 13.1200473197085, "lng": 80.1994361197085}}}, "place_id": "ChIJ3epQRZVlUjoRsZvVvLBdBnk", "plus_code": {"global_code": "7M5246C2+H8", "compound_code": "46C2+H8 Chennai, Tamil Nadu, India"}, "vicinity": "2 Ii Street, Sri Ayyappa Nagar, Kolathur, Chennai", "scope": "GOOGLE", "business_status": "OPERATIONAL", "types": ["hospital", "health", "point_of_interest", "establishment"], "icon": "https://maps.gstatic.com/mapfiles/place_api/icons/v1/png_71/hospital-71.png"}, {"rating": 4, "user_ratings_total": 1, "name": "Deepa Hospital", "reference": "ChIJO8gMJGNkUjoR83NL04fq9ww", "geometry": {"location": {"lat": 13.1218029, "lng": 80.1996456}, "viewport": {"northeast": {"lat": 13.1231013302915, "lng": 80.20109478029151}, "southwest": {"lat": 13.1204033697085, "lng": 80.19839681970849}}}, "place_id": "ChIJO8gMJGNkUjoR83NL04fq9ww", "plus_code": {"global_code": "7M5245CX+PV", "compound_code": "45CX+PV Chennai, Tamil Nadu, India"}, "vicinity": "Vivekananda Nagar, Villivakkam, Chennai", "scope": "GOOGLE", "business_status": "OPERATIONAL", "types": ["hospital", "health", "point_of_interest", "establishment"], "icon": "https://maps.gstatic.com/mapfiles/place_api/icons/v1/png_71/hospital-71.png"}, {"rating": 5, "user_ratings_total": 9, "name": "Chennai Liver Foundation", "reference": "ChIJMXN6iHhmUjoRmLiDFBpKVs4", "geometry": {"location": {"lat": 13.1204556, "lng": 80.19779860000001}, "viewport": {"northeast": {"lat": 13.1218433302915, "lng": 80.19920743029151}, "southwest": {"lat": 13.1191453697085, "lng": 80.1965094697085}}}, "opening_hours": {"open_now": true}, "place_id": "ChIJMXN6iHhmUjoRmLiDFBpKVs4", "plus_code": {"global_code": "7M5245CX+54", "compound_code": "45CX+54 Chennai, Tamil Nadu, India"}, "vicinity": "65, 2, Water Canal Road, Korattur, Chennai", "photos": [{"photo_reference": "ATtYBwJhjWe1-HNqpueS-GGAk-mCfQZYprGYxyD7znwZHPPXc9eUNNY410-HnlhwiUCs2EBVSrUC7omzw9qtcIf0r1JFl9EY9BbH2arHf_jUpbS93t2f9BYCzOk0LDNLm4wVQ2qmvqBsA3XY_nEK47hpg-vWuBxIqzHXGYhnvjNJbr_cwexj", "width": 4160, "html_attributions": ["<a href=\"https://maps.google.com/maps/contrib/117807986824731575552\">Saravanan Mukaiah \u0b9a\u0bb0\u0bb5\u0ba3\u0ba9\u0bcd \u0bae\u0bc2\u0b95\u0bcd\u0b95\u0bc8\u0baf\u0bcd\u0baf\u0bbe</a>"], "height": 3120}], "scope": "GOOGLE", "business_status": "OPERATIONAL", "types": ["hospital", "doctor", "health", "point_of_interest", "establishment"], "icon": "https://maps.gstatic.com/mapfiles/place_api/icons/v1/png_71/generic_business-71.png"}]}