{"status": "OK", "html_attributions": [], "results": [{"rating": 4.2, "user_ratings_total": 117, "name": "Kottakkal South Indian Store", "reference": "ChIJyw8uCNoaDTkR3-LQ6PUtp-4", "geometry": {"location": {"lat": 28.595752, "lng": 77.0498389}, "viewport": {"northeast": {"lat": 28.5971797302915, "lng": 77.0510692302915}, "southwest": {"lat": 28.5944817697085, "lng": 77.0483712697085}}}, "place_id": "ChIJyw8uCNoaDTkR3-LQ6PUtp-4", "plus_code": {"global_code": "7JWVH2WX+8W", "compound_code": "H2WX+8W Delhi, India"}, "vicinity": "Pocket 1, Sector 11 Dwarka, Dwarka, Delhi", "photos": [{"photo_reference": "ATtYBwKuiAj3RxLK4kDCP-nzYilKvYxu__UwY-0ZLdVvS3xAHN7t_CnSCjO6tUwvdDHpOgdapcocMsPvMxY7jNYizIpKRWxl9u4aMTu763xo7JR6oG9w8Es7tNGhPFAB2Sk4hh2VjzpwtUnsxEg18rYhh1no9c1MUREBYLZ_44LPmHMlKTTN", "width": 4608, "html_attributions": ["<a href=\"https://maps.google.com/maps/contrib/111221456685595174085\">Tanay Dey</a>"], "height": 3456}], "scope": "GOOGLE", "business_status": "OPERATIONAL", "types": ["supermarket", "grocery_or_supermarket", "food", "point_of_interest", "store", "establishment"], "icon": "https://maps.gstatic.com/mapfiles/place_api/icons/v1/png_71/shopping-71.png"}, {"rating": 3, "user_ratings_total": 1, "name": "Akaash Store", "reference": "ChIJcfopMhYbDTkRKboMJ04gnpo", "geometry": {"location": {"lat": 28.585535, "lng": 77.07119399999999}, "viewport": {"northeast": {"lat": 28.5868962802915, "lng": 77.0725445302915}, "southwest": {"lat": 28.5841983197085, "lng": 77.06984656970849}}}, "opening_hours": {"open_now": true}, "place_id": "ChIJcfopMhYbDTkRKboMJ04gnpo", "plus_code": {"global_code": "7JWVH3PC+6F", "compound_code": "H3PC+6F New Delhi, Delhi, India"}, "vicinity": "Near Star City Mall, Sector 7 Dwarka, Road No 224, Block C, Palam Extension, Palam, New Delhi", "scope": "GOOGLE", "business_status": "OPERATIONAL", "types": ["supermarket", "grocery_or_supermarket", "food", "point_of_interest", "store", "establishment"], "icon": "https://maps.gstatic.com/mapfiles/place_api/icons/v1/png_71/shopping-71.png"}, {"rating": 3.8, "user_ratings_total": 6179, "name": "Vishal Mega Mart", "reference": "ChIJebtgTxYbDTkRlpCTIoe4T18", "geometry": {"location": {"lat": 28.5848575, "lng": 77.0716569}, "viewport": {"northeast": {"lat": 28.5861990302915, "lng": 77.0728709802915}, "southwest": {"lat": 28.5835010697085, "lng": 77.07017301970849}}}, "opening_hours": {"open_now": true}, "place_id": "ChIJebtgTxYbDTkRlpCTIoe4T18", "plus_code": {"global_code": "7JWVH3MC+WM", "compound_code": "H3MC+WM New Delhi, Delhi, India"}, "vicinity": "Ramphal Chowk Road, Sector 7 Dwarka, New Delhi", "photos": [{"photo_reference": "ATtYBwKThL2YLMc5TGynEVtNBEHgeID6AIMDa_73jmZ27m1la-37AxwX_kkzAeS3W2VL5fORF8qotH78xxzXYdRLkYm23BJfhyND5a9stTBmCrAj07exYDa8MAORINztq4uZrjfxtu9xP2_NtcN0UiU7HR5Wj4k4X54DQgPTsjvsVRW-Uv0y", "width": 780, "html_attributions": ["<a href=\"https://maps.google.com/maps/contrib/116334826813487950914\">Vishal Mega Mart</a>"], "height": 1040}], "scope": "GOOGLE", "business_status": "OPERATIONAL", "types": ["supermarket", "grocery_or_supermarket", "food", "point_of_interest", "store", "establishment"], "icon": "https://maps.gstatic.com/mapfiles/place_api/icons/v1/png_71/shopping-71.png"}, {"name": "Superb delhi-Mart, www.sdelhimart.com by Shree Sheetla Services", "reference": "ChIJr9IBh9oaDTkRMhSY7C9p9IU", "geometry": {"location": {"lat": 28.5951415, "lng": 77.0476923}, "viewport": {"northeast": {"lat": 28.5963859302915, "lng": 77.0489508302915}, "southwest": {"lat": 28.5936879697085, "lng": 77.04625286970848}}}, "opening_hours": {"open_now": false}, "place_id": "ChIJr9IBh9oaDTkRMhSY7C9p9IU", "plus_code": {"global_code": "7JWVH2WX+33", "compound_code": "H2WX+33 Delhi, India"}, "vicinity": "101, agarwal arcade, sec-12, dwarka, New Delhi, Delhi", "scope": "GOOGLE", "business_status": "OPERATIONAL", "types": ["supermarket", "grocery_or_supermarket", "food", "point_of_interest", "store", "establishment"], "icon": "https://maps.gstatic.com/mapfiles/place_api/icons/v1/png_71/shopping-71.png"}, {"rating": 4.2, "user_ratings_total": 335, "name": "Tuesday Sabzi Bazaar", "reference": "ChIJz5m6VCEbDTkRcsHYWIHeIgE", "geometry": {"location": {"lat": 28.5908241, "lng": 77.0603345}, "viewport": {"northeast": {"lat": 28.5923655802915, "lng": 77.0626919}, "southwest": {"lat": 28.5896676197085, "lng": 77.0595487}}}, "opening_hours": {"open_now": false}, "place_id": "ChIJz5m6VCEbDTkRcsHYWIHeIgE", "plus_code": {"global_code": "7JWVH3R6+84", "compound_code": "H3R6+84 New Delhi, Delhi, India"}, "vicinity": "49A TO 50D, Sec-6 Market, Sector 6 Dwarka, Dwarka, New Delhi", "photos": [{"photo_reference": "ATtYBwJ1bpl15LzPovMbI0DkBGj-YFP1hsKXPbx8bMKEYEnX9WKILgmGHerEgLHg9EaEF6doc_erdKKeJLE-J3Tv3uwcA9R7osXSpoqNaOg0KIPpHTEDxo_apWIHCuTtqnnzy6dUAOZioutXT0OLSJwN-RNkEnFshcGjsj2r2UpOQU0gKbnU", "width": 3024, "html_attributions": ["<a href=\"https://maps.google.com/maps/contrib/112852095668757784748\">dinesh gupta</a>"], "height": 4032}], "scope": "GOOGLE", "business_status": "OPERATIONAL", "types": ["supermarket", "grocery_or_supermarket", "food", "point_of_interest", "store", "establishment"], "icon": "https://maps.gstatic.com/mapfiles/place_api/icons/v1/png_71/shopping-71.png"}, {"rating": 2.8, "user_ratings_total": 23, "permanently_closed": true, "name": "Planet World Sec. 10 Dwarka", "reference": "ChIJT1VV0CAbDTkRTDYqFwlyZpM", "geometry": {"location": {"lat": 28.5905031, "lng": 77.0584384}, "viewport": {"northeast": {"lat": 28.5919024802915, "lng": 77.05983118029151}, "southwest": {"lat": 28.5892045197085, "lng": 77.05713321970849}}}, "place_id": "ChIJT1VV0CAbDTkRTDYqFwlyZpM", "plus_code": {"global_code": "7JWVH3R5+69", "compound_code": "H3R5+69 Dwarka, New Delhi, Delhi, India"}, "vicinity": "Sector 10 Service Road, Pocket 1, Sector 10 Dwarka, Dwarka", "photos": [{"photo_reference": "ATtYBwLe2xhyArNTuZ2SdT8nXksS055Kkfyh_4hm2_Xkh8y5-zgvI5erIfFNeLyAJR3pI_7-oR0QolB08UWCQUa3angkSbIHMlppmlNWhPJmQCQ0JPXobUVv1xlDatx6MqMYTs1mg-RBWTL0omFDQ-Vs6zJL6yLu08oYWEmKcXY20y4izqiv", "width": 720, "html_attributions": ["<a href=\"https://maps.google.com/maps/contrib/117503575119762908296\">Shankar Bhai</a>"], "height": 1280}], "scope": "GOOGLE", "business_status": "CLOSED_TEMPORARILY", "types": ["grocery_or_supermarket", "supermarket", "food", "point_of_interest", "store", "establishment"], "icon": "https://maps.gstatic.com/mapfiles/place_api/icons/v1/png_71/shopping-71.png"}, {"rating": 5, "user_ratings_total": 2, "name": "Madina 2 chicken mutton and fish shop", "reference": "ChIJbTmtWmEbDTkR9zvJcQxa940", "geometry": {"location": {"lat": 28.58914799999999, "lng": 77.05635199999999}, "viewport": {"northeast": {"lat": 28.5904969802915, "lng": 77.0577009802915}, "southwest": {"lat": 28.58779901970849, "lng": 77.0550030197085}}}, "opening_hours": {"open_now": false}, "place_id": "ChIJbTmtWmEbDTkR9zvJcQxa940", "plus_code": {"global_code": "7JWVH3Q4+MG", "compound_code": "H3Q4+MG Delhi, India"}, "vicinity": "plot 1 shop, Vardhman Dwarakadhees, g1Sector 10, Dwarka, Delhi", "photos": [{"photo_reference": "ATtYBwJc45U4D5BYK8aOM64hQrTHlOI2gzJ_CDHvgaKeEizoWs7etKVrH2wB2WZp52OkLsu3L5xyzu1PJsq1DONhTA25oL6hc5fEdlsmbfVwnAu7MoRMggAMEWFZraK_oi8bl5MwUBKP-lyl0z4tOLJrhrqxR69dQcpZmOCPNBgUqSy3c6vz", "width": 780, "html_attributions": ["<a href=\"https://maps.google.com/maps/contrib/103385769571946581632\">Madina Fish</a>"], "height": 1040}], "scope": "GOOGLE", "business_status": "OPERATIONAL", "types": ["supermarket", "grocery_or_supermarket", "food", "point_of_interest", "store", "establishment"], "icon": "https://maps.gstatic.com/mapfiles/place_api/icons/v1/png_71/shopping-71.png"}, {"name": "Toys he toys", "reference": "ChIJva5A9EkbDTkREk6qOC5fOQ0", "geometry": {"location": {"lat": 28.5928446, "lng": 77.0636419}, "viewport": {"northeast": {"lat": 28.5941762302915, "lng": 77.06497568029151}, "southwest": {"lat": 28.5914782697085, "lng": 77.06227771970849}}}, "place_id": "ChIJva5A9EkbDTkREk6qOC5fOQ0", "plus_code": {"global_code": "7JWVH3V7+4F", "compound_code": "H3V7+4F New Delhi, Delhi, India"}, "vicinity": "Sector 6 Dwarka, Dwarka, New Delhi", "scope": "GOOGLE", "business_status": "OPERATIONAL", "types": ["supermarket", "grocery_or_supermarket", "food", "point_of_interest", "store", "establishment"], "icon": "https://maps.gstatic.com/mapfiles/place_api/icons/v1/png_71/shopping-71.png"}, {"rating": 5, "user_ratings_total": 1, "name": "Big basket dwarka", "reference": "ChIJ5RcX5iQbDTkR-hhIJwtx_9I", "geometry": {"location": {"lat": 28.59766359999999, "lng": 77.0620299}, "viewport": {"northeast": {"lat": 28.5990833802915, "lng": 77.06344073029152}, "southwest": {"lat": 28.5963854197085, "lng": 77.06074276970851}}}, "place_id": "ChIJ5RcX5iQbDTkR-hhIJwtx_9I", "plus_code": {"global_code": "7JWVH3X6+3R", "compound_code": "H3X6+3R Delhi, India"}, "vicinity": "A-85, A-BLOCK GALI NO -4,MADHU VIHAR, Sector 5, Dwarka, Delhi", "scope": "GOOGLE", "business_status": "OPERATIONAL", "types": ["supermarket", "grocery_or_supermarket", "food", "point_of_interest", "store", "establishment"], "icon": "https://maps.gstatic.com/mapfiles/place_api/icons/v1/png_71/shopping-71.png"}, {"rating": 5, "user_ratings_total": 2, "name": "AmaZe A-Z Supermarket", "reference": "ChIJ5QT20EsbDTkRtc6hXXybC7g", "geometry": {"location": {"lat": 28.585189, "lng": 77.069}, "viewport": {"northeast": {"lat": 28.5865379802915, "lng": 77.07034898029151}, "southwest": {"lat": 28.5838400197085, "lng": 77.0676510197085}}}, "place_id": "ChIJ5QT20EsbDTkRtc6hXXybC7g", "plus_code": {"global_code": "7JWVH3P9+3J", "compound_code": "H3P9+3J New Delhi, Delhi, India"}, "vicinity": "opposite Shiksha Bharti School, C-707, Basement, opposite Shiksha Bharti School, Sector 7 Dwarka, Dwarka, New Delhi", "scope": "GOOGLE", "business_status": "OPERATIONAL", "types": ["supermarket", "grocery_or_supermarket", "food", "point_of_interest", "store", "establishment"], "icon": "https://maps.gstatic.com/mapfiles/place_api/icons/v1/png_71/shopping-71.png"}, {"rating": 5, "user_ratings_total": 1, "name": "Harjeet Store", "reference": "ChIJdb9J-vMbDTkRnwqlaM_mRhg", "geometry": {"location": {"lat": 28.600671, "lng": 77.06108200000001}, "viewport": {"northeast": {"lat": 28.6020110302915, "lng": 77.06242118029151}, "southwest": {"lat": 28.5993130697085, "lng": 77.0597232197085}}}, "place_id": "ChIJdb9J-vMbDTkRnwqlaM_mRhg", "plus_code": {"global_code": "7JWVJ326+7C", "compound_code": "J326+7C New Delhi, Delhi, India"}, "vicinity": "Saraswati garden, Block C, Sector 6 Dwarka, Dwarka, New Delhi", "scope": "GOOGLE", "business_status": "OPERATIONAL", "types": ["supermarket", "grocery_or_supermarket", "food", "point_of_interest", "store", "establishment"], "icon": "https://maps.gstatic.com/mapfiles/place_api/icons/v1/png_71/shopping-71.png"}, {"rating": 5, "user_ratings_total": 2, "name": "Solanki Market Madhu Vihar Dwarka", "reference": "ChIJkQcVE6cbDTkR-OJJoU1gn88", "geometry": {"location": {"lat": 28.6007286, "lng": 77.06116449999999}, "viewport": {"northeast": {"lat": 28.6020785302915, "lng": 77.0624948802915}, "southwest": {"lat": 28.5993805697085, "lng": 77.05979691970849}}}, "opening_hours": {"open_now": false}, "place_id": "ChIJkQcVE6cbDTkR-OJJoU1gn88", "plus_code": {"global_code": "7JWVJ326+7F", "compound_code": "J326+7F New Delhi, Delhi, India"}, "vicinity": "Solanki Market, Block D, Madhu Vihar, New Delhi", "scope": "GOOGLE", "business_status": "OPERATIONAL", "types": ["supermarket", "grocery_or_supermarket", "food", "point_of_interest", "store", "establishment"], "icon": "https://maps.gstatic.com/mapfiles/place_api/icons/v1/png_71/shopping-71.png"}, {"rating": 5, "user_ratings_total": 1, "name": "Gupta Store Atta Chakki", "reference": "ChIJwZRYYJ4bDTkRFV1G1qwkn4E", "geometry": {"location": {"lat": 28.5843471, "lng": 77.0707937}, "viewport": {"northeast": {"lat": 28.5856973302915, "lng": 77.07215268029151}, "southwest": {"lat": 28.5829993697085, "lng": 77.0694547197085}}}, "place_id": "ChIJwZRYYJ4bDTkRFV1G1qwkn4E", "plus_code": {"global_code": "7JWVH3MC+P8", "compound_code": "H3MC+P8 New Delhi, Delhi, India"}, "vicinity": "Unnamed Road, Block D, Sector 7 Dwarka, Palam, New Delhi", "scope": "GOOGLE", "business_status": "OPERATIONAL", "types": ["supermarket", "grocery_or_supermarket", "food", "point_of_interest", "store", "establishment"], "icon": "https://maps.gstatic.com/mapfiles/place_api/icons/v1/png_71/shopping-71.png"}, {"name": "SRS Value Bazaar", "reference": "ChIJIcbYNhYbDTkR8bMS9eFtWgM", "geometry": {"location": {"lat": 28.5852842, "lng": 77.0713699}, "viewport": {"northeast": {"lat": 28.5866329302915, "lng": 77.0727547302915}, "southwest": {"lat": 28.58393496970849, "lng": 77.07005676970849}}}, "place_id": "ChIJIcbYNhYbDTkR8bMS9eFtWgM", "plus_code": {"global_code": "7JWVH3PC+4G", "compound_code": "H3PC+4G New Delhi, Delhi, India"}, "vicinity": "Plot no. F-601, 603 602, Ramphal Chowk Road, Sector 7 Dwarka, Dwarka, New Delhi", "scope": "GOOGLE", "business_status": "OPERATIONAL", "types": ["supermarket", "grocery_or_supermarket", "food", "point_of_interest", "store", "establishment"], "icon": "https://maps.gstatic.com/mapfiles/place_api/icons/v1/png_71/shopping-71.png"}, {"name": "JSR Kukreja Digital Studio", "reference": "ChIJryCwNx4bDTkRF1_MgipxVow", "geometry": {"location": {"lat": 28.5996874, "lng": 77.0662681}, "viewport": {"northeast": {"lat": 28.6010363802915, "lng": 77.06761708029151}, "southwest": {"lat": 28.59833841970849, "lng": 77.06491911970849}}}, "opening_hours": {"open_now": false}, "place_id": "ChIJryCwNx4bDTkRF1_MgipxVow", "plus_code": {"global_code": "7JWVH3X8+VG", "compound_code": "H3X8+VG New Delhi, Delhi, India"}, "vicinity": "Bindapur DDA FLATS D 937 DDA FLATS PKT 3 BINDAPUR DWARKA DELHI 59, New Delhi", "scope": "GOOGLE", "business_status": "OPERATIONAL", "types": ["supermarket", "grocery_or_supermarket", "food", "point_of_interest", "store", "establishment"], "icon": "https://maps.gstatic.com/mapfiles/place_api/icons/v1/png_71/shopping-71.png"}, {"rating": 4, "user_ratings_total": 1, "name": "Pritam fruit vegetable store", "reference": "ChIJL5ec8BYbDTkR0b6HoaY2R1A", "geometry": {"location": {"lat": 28.5830908, "lng": 77.0715755}, "viewport": {"northeast": {"lat": 28.5844397802915, "lng": 77.0729244802915}, "southwest": {"lat": 28.58174181970849, "lng": 77.0702265197085}}}, "opening_hours": {"open_now": true}, "place_id": "ChIJL5ec8BYbDTkR0b6HoaY2R1A", "plus_code": {"global_code": "7JWVH3MC+6J", "compound_code": "H3MC+6J New Delhi, Delhi, India"}, "vicinity": "166, Dada Dev Mandir, Palam Extension, Palam, New Delhi", "scope": "GOOGLE", "business_status": "OPERATIONAL", "types": ["supermarket", "grocery_or_supermarket", "food", "point_of_interest", "store", "establishment"], "icon": "https://maps.gstatic.com/mapfiles/place_api/icons/v1/png_71/shopping-71.png"}, {"rating": 3.9, "user_ratings_total": 190, "name": "Revolt showroom", "reference": "ChIJMV7qUjEbDTkRL640azZXJhg", "geometry": {"location": {"lat": 28.6023567, "lng": 77.0582503}, "viewport": {"northeast": {"lat": 28.6036916802915, "lng": 77.0595875802915}, "southwest": {"lat": 28.60099371970849, "lng": 77.05688961970849}}}, "opening_hours": {"open_now": false}, "place_id": "ChIJMV7qUjEbDTkRL640azZXJhg", "plus_code": {"global_code": "7JWVJ325+W8", "compound_code": "J325+W8 Delhi, India"}, "vicinity": "K1, opposite Sector 5, 6, Main Rajapuri Road, Dwarka, Delhi", "photos": [{"photo_reference": "ATtYBwIrFXqDkIfzc1YTWbfFW-gr8oAhV533tWCFPrvO5dalMGHEcKaWTOhdtVttTiRtyA8bPjR7xiEiwikIkaaUNe1NCwAhpbvFtoklCP-nIb2hWzzzVbFDFyJe90B0-IuQN2EW0Y9HM-1zD1eM7jcb3kG_zRRpsH8dVYyLQwxazWbagTfU", "width": 1920, "html_attributions": ["<a href=\"https://maps.google.com/maps/contrib/108882573727429002450\">Revolt showroom</a>"], "height": 1080}], "scope": "GOOGLE", "business_status": "OPERATIONAL", "types": ["supermarket", "grocery_or_supermarket", "food", "point_of_interest", "store", "establishment"], "icon": "https://maps.gstatic.com/mapfiles/place_api/icons/v1/png_71/shopping-71.png"}, {"name": "Makrand shop", "reference": "ChIJa-rzawAbDTkROUchfTXcmH0", "geometry": {"location": {"lat": 28.5921401, "lng": 77.0460481}, "viewport": {"northeast": {"lat": 28.5934976302915, "lng": 77.0473842302915}, "southwest": {"lat": 28.5907996697085, "lng": 77.04468626970849}}}, "place_id": "ChIJa-rzawAbDTkROUchfTXcmH0", "plus_code": {"global_code": "7JWVH2RW+VC", "compound_code": "H2RW+VC New Delhi, Delhi, India"}, "vicinity": "Dwarka, New Delhi", "photos": [{"photo_reference": "ATtYBwKXbpU44Dz8YIxtvWp3EHiVvYrPfG93U7NepTjxdzH5nDp7G4SyLT4CoQcoqa_HqAUmghNx8QqGY-wMcFenSxcs2t0bRyDb4Ynz87aVGW5HjnwALgAu9H-wvzTfjxo-4Zeepc7NDIu6snYz0Z9f5rmic9QGo91HHd_jhALeZAqLT9FE", "width": 1920, "html_attributions": ["<a href=\"https://maps.google.com/maps/contrib/106730165799187240766\">Arun Roy</a>"], "height": 1080}], "scope": "GOOGLE", "business_status": "OPERATIONAL", "types": ["supermarket", "grocery_or_supermarket", "food", "point_of_interest", "store", "establishment"], "icon": "https://maps.gstatic.com/mapfiles/place_api/icons/v1/png_71/shopping-71.png"}]}