{"status": "OK", "next_page_token": "ATtYBwKNLsEgKIZwXNoBoVE6viBIUDHSedXIDYcBC-z6Y_75idHhqmzdewbBMJCRAaAmjvft7dayilydt0WcmPzF-txl58MBjktQQEMshu9PJ39pMcvONo14US0D1V96zExvJuNIyRdIu8KgPBYaUMVzKi_XUsMx3dR_arLX2pbEnPz2MgEahd2gkMQYkCE9SAzAlLDwlepyvbkEZqm566YfweTkChQkVGXhhqo6Kt_WfUT287hLlnkcAdZa7cL1hvas_ONbWkdzmYYP9bm-c1Ctz8zvNfS_NM3-khPNGvDiA_xaMTTFzynHig_2IqMbtaEiojL8u55Z4Q-dT6lvsPGiWlpPuPSApj55ojeRdiAy2PVSfnXooNWx25jasP8ksobWvnsU-TIXhjxPRm0leExmvWQMHMj3_vk5X1CcAoG5HVqiY7pJMAu8l8oifg", "html_attributions": [], "results": [{"rating": 4.1, "user_ratings_total": 487, "name": "Easy Life Store", "reference": "ChIJPRor5uEEDTkRfm8WyPWQzvA", "geometry": {"location": {"lat": 28.6354158, "lng": 77.0570596}, "viewport": {"northeast": {"lat": 28.6367136802915, "lng": 77.0583668302915}, "southwest": {"lat": 28.6340157197085, "lng": 77.05566886970848}}}, "opening_hours": {"open_now": false}, "place_id": "ChIJPRor5uEEDTkRfm8WyPWQzvA", "plus_code": {"global_code": "7JWVJ3P4+5R", "compound_code": "J3P4+5R New Delhi, Delhi, India"}, "vicinity": "Property No 53, Hastsal Village, Hastsal, New Delhi", "photos": [{"photo_reference": "ATtYBwKdg4jVKx6sZqoRQXYIbkzkKeObHva4jfgfDZkDTaV773TuRHJWpW2gF9iLPut054jAcPJjVXY2Vgmdy0Fjj1eZrswLlbspA365a_j7CTsMU8hr7uAbol-ovdO7YhBMKQzCd21OSsZCw6ogS59zclqAFsCIgzOri3DL2C-dxj-xGvUJ", "width": 2048, "html_attributions": ["<a href=\"https://maps.google.com/maps/contrib/113170629555413282351\">Easy Life Store</a>"], "height": 1536}], "scope": "GOOGLE", "business_status": "OPERATIONAL", "types": ["supermarket", "grocery_or_supermarket", "food", "point_of_interest", "store", "establishment"], "icon": "https://maps.gstatic.com/mapfiles/place_api/icons/v1/png_71/shopping-71.png"}, {"rating": 4.4, "user_ratings_total": 12, "name": "Akash store", "reference": "ChIJ6-BGCCEFDTkRg48oM7TlKOk", "geometry": {"location": {"lat": 28.6275517, "lng": 77.0528867}, "viewport": {"northeast": {"lat": 28.6288629802915, "lng": 77.0542355302915}, "southwest": {"lat": 28.62616501970849, "lng": 77.0515375697085}}}, "place_id": "ChIJ6-BGCCEFDTkRg48oM7TlKOk", "plus_code": {"global_code": "7JWVJ3H3+25", "compound_code": "J3H3+25 Delhi, India"}, "vicinity": "near jp, C-47, Street Number 2, Hastsal Vihar, Uttam Nagar, Delhi", "photos": [{"photo_reference": "ATtYBwI24t54u87VuVj3pcPK-zgDfItAazL-z9CW38ja8E-xHp_QCSJ73chUeADE4gTh-g69QFFrKiMA0ssW94WVeCHks25h7X8A1KCl4Ec13iO-fNPfPFGIrkwm0qpEEd4JX3YE5ODJuj3c5xppLuSesFuN-1P_vHTq4xSI3Nra1D23PBYx", "width": 1920, "html_attributions": ["<a href=\"https://maps.google.com/maps/contrib/110777007969264030717\">Akash store</a>"], "height": 1080}], "scope": "GOOGLE", "business_status": "OPERATIONAL", "types": ["supermarket", "grocery_or_supermarket", "food", "point_of_interest", "store", "establishment"], "icon": "https://maps.gstatic.com/mapfiles/place_api/icons/v1/png_71/generic_business-71.png"}, {"rating": 5, "user_ratings_total": 5, "name": "Wholesale Vyapari", "reference": "ChIJlX4s7dkEDTkR8KCgR4eGDZg", "geometry": {"location": {"lat": 28.6238444, "lng": 77.0652731}, "viewport": {"northeast": {"lat": 28.6251301802915, "lng": 77.06658573029151}, "southwest": {"lat": 28.6224322197085, "lng": 77.0638877697085}}}, "opening_hours": {"open_now": true}, "place_id": "ChIJlX4s7dkEDTkR8KCgR4eGDZg", "plus_code": {"global_code": "7JWVJ3F8+G4", "compound_code": "J3F8+G4 New Delhi, Delhi, India"}, "vicinity": "A-900, Uttam Nagar, New Delhi", "photos": [{"photo_reference": "ATtYBwKVGd42vqsnmDqcARguMc-ZaJc5Gf2FRq_pU82sjMDSgmXZLsi8ULp4QiLL0GjlFjABMxxdR5BNxQcpgBcBqlKBzlLlLHkSJ91c8_j5BsoHtA4dWHwzUIyiXZtAhj3FyxbkSCf3fjMkmT6FRUqEUt3jwN-cYU6qU11JxSDxDgaa__Oj", "width": 461, "html_attributions": ["<a href=\"https://maps.google.com/maps/contrib/100969888955650524101\">Wholesale Vyapari</a>"], "height": 259}], "scope": "GOOGLE", "business_status": "OPERATIONAL", "types": ["supermarket", "grocery_or_supermarket", "food", "point_of_interest", "store", "establishment"], "icon": "https://maps.gstatic.com/mapfiles/place_api/icons/v1/png_71/generic_business-71.png"}, {"rating": 2, "user_ratings_total": 4, "name": "Yash Impex, Yash Impex India", "reference": "ChIJAWU1dScFDTkR6Jjs8_69Agw", "geometry": {"location": {"lat": 28.622186, "lng": 77.0550185}, "viewport": {"northeast": {"lat": 28.6236036302915, "lng": 77.0563042302915}, "southwest": {"lat": 28.6209056697085, "lng": 77.0536062697085}}}, "opening_hours": {"open_now": false}, "place_id": "ChIJAWU1dScFDTkR6Jjs8_69Agw", "plus_code": {"global_code": "7JWVJ3C4+V2", "compound_code": "J3C4+V2 Uttam Nagar, Delhi, India"}, "vicinity": "Plot No 49, Jaggi Farm, Bhagwati Garden, Uttam Nagar", "scope": "GOOGLE", "business_status": "OPERATIONAL", "types": ["grocery_or_supermarket", "supermarket", "food", "point_of_interest", "store", "establishment"], "icon": "https://maps.gstatic.com/mapfiles/place_api/icons/v1/png_71/shopping-71.png"}, {"rating": 3.9, "user_ratings_total": 165, "name": "Reliance Fresh", "reference": "ChIJBR0AfCcFDTkRYu1ofQBBFwQ", "geometry": {"location": {"lat": 28.6225469, "lng": 77.0560278}, "viewport": {"northeast": {"lat": 28.6238733802915, "lng": 77.0573759302915}, "southwest": {"lat": 28.6211754197085, "lng": 77.0546779697085}}}, "opening_hours": {"open_now": true}, "place_id": "ChIJBR0AfCcFDTkRYu1ofQBBFwQ", "plus_code": {"global_code": "7JWVJ3F4+2C", "compound_code": "J3F4+2C Delhi, India"}, "vicinity": "K-1/1 Peepal Wala Chowk, Mohan Garden, Uttam Nagar, Delhi", "photos": [{"photo_reference": "ATtYBwIURymxdlksNC32n2edVCFnRxsIV5bEuWWQPHmRkST0nAT-_b0-7hzWq9LIvqGp1uFAfuVkS_aNYXcaoG6pQT0Pw9uOiuqldwiRtZFjMGSxdWJqCvSHzCxPkH25Lj07wK27-khZ3UJQlPjbQHg-KbR9mpg4Hp_6WsqcYuiT2RFJQeAY", "width": 592, "html_attributions": ["<a href=\"https://maps.google.com/maps/contrib/117566144937973523827\">Deepak Singh</a>"], "height": 1052}], "scope": "GOOGLE", "business_status": "OPERATIONAL", "types": ["supermarket", "grocery_or_supermarket", "food", "point_of_interest", "store", "establishment"], "icon": "https://maps.gstatic.com/mapfiles/place_api/icons/v1/png_71/shopping-71.png"}, {"rating": 3.3, "user_ratings_total": 9, "name": "loQalse", "reference": "ChIJTyAW69kEDTkR8G7iXydanCI", "geometry": {"location": {"lat": 28.621163, "lng": 77.061005}, "viewport": {"northeast": {"lat": 28.6224979802915, "lng": 77.06235893029151}, "southwest": {"lat": 28.6198000197085, "lng": 77.0596609697085}}}, "opening_hours": {"open_now": false}, "place_id": "ChIJTyAW69kEDTkR8G7iXydanCI", "plus_code": {"global_code": "7JWVJ3C6+FC", "compound_code": "J3C6+FC Delhi, India"}, "vicinity": "G-62, School Road, Uttam Nagar, Delhi", "scope": "GOOGLE", "business_status": "OPERATIONAL", "types": ["supermarket", "grocery_or_supermarket", "food", "point_of_interest", "store", "establishment"], "icon": "https://maps.gstatic.com/mapfiles/place_api/icons/v1/png_71/shopping-71.png"}, {"name": "Material Keeper", "reference": "ChIJkf__s8UEDTkRYBfFzrSeD4I", "geometry": {"location": {"lat": 28.6271072, "lng": 77.0721559}, "viewport": {"northeast": {"lat": 28.6285008802915, "lng": 77.07348223029152}, "southwest": {"lat": 28.62580291970849, "lng": 77.0707842697085}}}, "opening_hours": {"open_now": false}, "place_id": "ChIJkf__s8UEDTkRYBfFzrSeD4I", "plus_code": {"global_code": "7JWVJ3GC+RV", "compound_code": "J3GC+RV New Delhi, Delhi, India"}, "vicinity": "167, Janakpuri, New Delhi", "photos": [{"photo_reference": "ATtYBwJRIalb6oxRB3KYEY2d4gyc8p8WyWeMH25hmBO_Y588TzI_j3InuzhlO_0ZdY1rANzOVna4PlapAOKqGvbds6rrDlpnE2S4T8-CwOWr7jH8N6c_euxJhWd34PcDrXvWzvrTyA68b3HmvvDKBeLktlqGhDj5oIMgG43glB9JpYEupHmp", "width": 386, "html_attributions": ["<a href=\"https://maps.google.com/maps/contrib/109617802013557736120\">Material Keeper</a>"], "height": 470}], "scope": "GOOGLE", "business_status": "OPERATIONAL", "types": ["supermarket", "grocery_or_supermarket", "car_dealer", "food", "point_of_interest", "store", "establishment"], "icon": "https://maps.gstatic.com/mapfiles/place_api/icons/v1/png_71/shopping-71.png"}, {"rating": 3, "user_ratings_total": 3, "name": "Raju Bangle Store", "reference": "ChIJfwDIAcAFDTkR-WbczfBFqME", "geometry": {"location": {"lat": 28.6271265, "lng": 77.0574055}, "viewport": {"northeast": {"lat": 28.6285063802915, "lng": 77.05875493029151}, "southwest": {"lat": 28.6258084197085, "lng": 77.0560569697085}}}, "place_id": "ChIJfwDIAcAFDTkR-WbczfBFqME", "plus_code": {"global_code": "7JWVJ3G4+VX", "compound_code": "J3G4+VX Delhi, India"}, "vicinity": "Block A 3, Uttam Nagar, Delhi", "photos": [{"photo_reference": "ATtYBwJxU0ndfiuQa4eIQiJPwyixPud2HadnsDNyEhQ6MLRGwTZ0yTBG-dbuV2DrOdHdkjZM1aR9GLobciPxhV-Z3nYti0her78fLct9Zu2C0AjMtrDnr7FWcsRikX_b3mKJcuSWFK6YlU6CAQd0-IU9yqoDgE9BmMaERmjiPJ4SA6Z5Yyn7", "width": 1080, "html_attributions": ["<a href=\"https://maps.google.com/maps/contrib/102605313076375567947\">Mohammed Asif</a>"], "height": 1920}], "scope": "GOOGLE", "business_status": "OPERATIONAL", "types": ["supermarket", "grocery_or_supermarket", "food", "point_of_interest", "store", "establishment"], "icon": "https://maps.gstatic.com/mapfiles/place_api/icons/v1/png_71/shopping-71.png"}, {"rating": 5, "user_ratings_total": 3, "name": "Aaradhya Store", "reference": "ChIJRWWE4uAEDTkRsLHoOGRmbKQ", "geometry": {"location": {"lat": 28.634046, "lng": 77.06019289999999}, "viewport": {"northeast": {"lat": 28.6353988302915, "lng": 77.0615521802915}, "southwest": {"lat": 28.63270086970849, "lng": 77.0588542197085}}}, "opening_hours": {"open_now": false}, "place_id": "ChIJRWWE4uAEDTkRsLHoOGRmbKQ", "plus_code": {"global_code": "7JWVJ3M6+J3", "compound_code": "J3M6+J3 Delhi, India"}, "vicinity": "Krishna Colony, Hastsal Village, Hastsal, Delhi", "scope": "GOOGLE", "business_status": "OPERATIONAL", "types": ["supermarket", "grocery_or_supermarket", "food", "point_of_interest", "store", "establishment"], "icon": "https://maps.gstatic.com/mapfiles/place_api/icons/v1/png_71/shopping-71.png"}, {"rating": 2, "user_ratings_total": 1, "name": "Fruit Corner", "reference": "ChIJp7WdpdsEDTkRDwncQEX_-w4", "geometry": {"location": {"lat": 28.6238182, "lng": 77.0645277}, "viewport": {"northeast": {"lat": 28.6251993302915, "lng": 77.0659141802915}, "southwest": {"lat": 28.62250136970849, "lng": 77.0632162197085}}}, "place_id": "ChIJp7WdpdsEDTkRDwncQEX_-w4", "plus_code": {"global_code": "7JWVJ3F7+GR", "compound_code": "J3F7+GR Delhi, India"}, "vicinity": "A-3, Block D2, Milap Nagar, Uttam Nagar, Delhi", "scope": "GOOGLE", "business_status": "OPERATIONAL", "types": ["supermarket", "grocery_or_supermarket", "food", "point_of_interest", "store", "establishment"], "icon": "https://maps.gstatic.com/mapfiles/place_api/icons/v1/png_71/shopping-71.png"}, {"rating": 4.2, "user_ratings_total": 1573, "name": "Reliance SMART", "reference": "ChIJU8tFqsIEDTkRexD1ZJFsN6w", "geometry": {"location": {"lat": 28.6317881, "lng": 77.0681956}, "viewport": {"northeast": {"lat": 28.6331167802915, "lng": 77.06977188029151}, "southwest": {"lat": 28.6304188197085, "lng": 77.06707391970849}}}, "opening_hours": {"open_now": false}, "place_id": "ChIJU8tFqsIEDTkRexD1ZJFsN6w", "plus_code": {"global_code": "7JWVJ3J9+P7", "compound_code": "J3J9+P7 Delhi, India"}, "vicinity": "Reliance Mall, A, Community Centre, Apartment A-Block, Near Petrol Pump, Vikaspuri, Delhi", "photos": [{"photo_reference": "ATtYBwLsIjQQqsL313HUt_nCjIInWMMEHMOjhlzF1KQnMOTCNj3D260h-0WZNZGbk7neXjOG1CjgVsk9rPVNAhxH_08szQ9Is7GAIn8223OW9lrXlO1_mSrFSiJFOGwD9TZXek_W50mAxx6DtOlMWvULM1LIgwDcegeJ-c2Yf6kOQGqrKTKL", "width": 512, "html_attributions": ["<a href=\"https://maps.google.com/maps/contrib/112278499681883147610\">Dr. Sunil Bhawariya</a>"], "height": 384}], "scope": "GOOGLE", "business_status": "OPERATIONAL", "types": ["supermarket", "grocery_or_supermarket", "food", "point_of_interest", "store", "establishment"], "icon": "https://maps.gstatic.com/mapfiles/place_api/icons/v1/png_71/shopping-71.png"}, {"name": "Jesus Restoreth Super Centre", "reference": "ChIJi-9P73QFDTkRISmHGyRDSdw", "geometry": {"location": {"lat": 28.6256584, "lng": 77.0530053}, "viewport": {"northeast": {"lat": 28.6270075302915, "lng": 77.05439018029149}, "southwest": {"lat": 28.6243095697085, "lng": 77.05169221970849}}}, "place_id": "ChIJi-9P73QFDTkRISmHGyRDSdw", "plus_code": {"global_code": "7JWVJ3G3+76", "compound_code": "J3G3+76 Delhi, India"}, "vicinity": "West Minister La Parfaite Harmony, Phase 1 Om Vihar Road", "scope": "GOOGLE", "business_status": "OPERATIONAL", "types": ["supermarket", "grocery_or_supermarket", "food", "point_of_interest", "store", "establishment"], "icon": "https://maps.gstatic.com/mapfiles/place_api/icons/v1/png_71/shopping-71.png"}, {"rating": 5, "user_ratings_total": 8, "name": "BIKAJI EXCLUSIVE STORE", "reference": "ChIJq9pSmCAFDTkRhuR4Fo6-3ms", "geometry": {"location": {"lat": 28.6272301, "lng": 77.0520215}, "viewport": {"northeast": {"lat": 28.6285861802915, "lng": 77.0533706802915}, "southwest": {"lat": 28.62588821970849, "lng": 77.05067271970849}}}, "opening_hours": {"open_now": true}, "place_id": "ChIJq9pSmCAFDTkRhuR4Fo6-3ms", "plus_code": {"global_code": "7JWVJ3G2+VR", "compound_code": "J3G2+VR Delhi, India"}, "vicinity": "B17, Uttam Nagar, Delhi", "photos": [{"photo_reference": "ATtYBwJ4qVC2FLE1vl0f6Lz3m4h8jnS71Lexsbvzu1EzbwcF0y0Su2PvLz-gFnT5arlTwZG13tn2yS8D4XHCPpp1XGAzMKzwk5hhXq836onh34LmFIRehZPeznwHAyZeJ-MLC7_okVqGw7sSXuNwyd7Q24EzEsRa6NmhaD4flCartG7_1Pja", "width": 2048, "html_attributions": ["<a href=\"https://maps.google.com/maps/contrib/101164839907586959763\">BIKAJI EXCLUSIVE STORE</a>"], "height": 1536}], "scope": "GOOGLE", "business_status": "OPERATIONAL", "types": ["supermarket", "grocery_or_supermarket", "food", "point_of_interest", "store", "establishment"], "icon": "https://maps.gstatic.com/mapfiles/place_api/icons/v1/png_71/shopping-71.png"}, {"name": "Padmini luxury salon", "reference": "ChIJCW9vZkoFDTkRGcdTn9tIuJc", "geometry": {"location": {"lat": 28.6220258, "lng": 77.0579559}, "viewport": {"northeast": {"lat": 28.6233748802915, "lng": 77.05930253029149}, "southwest": {"lat": 28.6206769197085, "lng": 77.05660456970848}}}, "place_id": "ChIJCW9vZkoFDTkRGcdTn9tIuJc", "plus_code": {"global_code": "7JWVJ3C5+R5", "compound_code": "J3C5+R5 Delhi, India"}, "vicinity": "Shop no. 12 West uttam nagar near metro station Opp.pilar no. 132 Punjabi bagh, dwarka sector -22 Saket okhla phase 2, Govindpuri, karolbagh, vasant kunj, Uttam Nagar, Delhi", "scope": "GOOGLE", "business_status": "OPERATIONAL", "types": ["supermarket", "grocery_or_supermarket", "food", "point_of_interest", "store", "establishment"], "icon": "https://maps.gstatic.com/mapfiles/place_api/icons/v1/png_71/shopping-71.png"}, {"rating": 5, "user_ratings_total": 2, "name": "SMC global securities Ltd", "reference": "ChIJ07XSnTQFDTkRGzslLcwGNKw", "geometry": {"location": {"lat": 28.622665, "lng": 77.055086}, "viewport": {"northeast": {"lat": 28.6240168302915, "lng": 77.0564356802915}, "southwest": {"lat": 28.6213188697085, "lng": 77.0537377197085}}}, "place_id": "ChIJ07XSnTQFDTkRGzslLcwGNKw", "plus_code": {"global_code": "7JWVJ3F4+32", "compound_code": "J3F4+32 New Delhi, Delhi, India"}, "vicinity": "H-65 C F/F, Mohan Garden, Uttam Nagar, New Delhi", "scope": "GOOGLE", "business_status": "OPERATIONAL", "types": ["supermarket", "grocery_or_supermarket", "food", "point_of_interest", "store", "establishment"], "icon": "https://maps.gstatic.com/mapfiles/place_api/icons/v1/png_71/shopping-71.png"}, {"rating": 4.4, "user_ratings_total": 24, "name": "Ayush Agencies Vikaspuri", "reference": "ChIJw-LlxxoFDTkRCJOnwIUtBro", "geometry": {"location": {"lat": 28.6317933, "lng": 77.0695156}, "viewport": {"northeast": {"lat": 28.6331184802915, "lng": 77.07086248029151}, "southwest": {"lat": 28.6304205197085, "lng": 77.06816451970849}}}, "opening_hours": {"open_now": false}, "place_id": "ChIJw-LlxxoFDTkRCJOnwIUtBro", "plus_code": {"global_code": "7JWVJ3J9+PR", "compound_code": "J3J9+PR Delhi, India"}, "vicinity": "C 68, Near Hdfc Bank, Block C, Vikaspuri, Delhi", "scope": "GOOGLE", "business_status": "OPERATIONAL", "types": ["grocery_or_supermarket", "supermarket", "food", "point_of_interest", "store", "establishment"], "icon": "https://maps.gstatic.com/mapfiles/place_api/icons/v1/png_71/shopping-71.png"}, {"name": "QUEFREE INDIA", "reference": "ChIJszIlxtkEDTkR8CcX9TLOeWQ", "geometry": {"location": {"lat": 28.6209325, "lng": 77.0600891}, "viewport": {"northeast": {"lat": 28.6222721302915, "lng": 77.0614038302915}, "southwest": {"lat": 28.6195741697085, "lng": 77.05870586970849}}}, "place_id": "ChIJszIlxtkEDTkR8CcX9TLOeWQ", "vicinity": "Arya Samaj Road, Uttam Nagar, New Delhi", "scope": "GOOGLE", "business_status": "OPERATIONAL", "types": ["supermarket", "grocery_or_supermarket", "food", "point_of_interest", "store", "establishment"], "icon": "https://maps.gstatic.com/mapfiles/place_api/icons/v1/png_71/shopping-71.png"}, {"rating": 5, "user_ratings_total": 1, "name": "Sunny sir", "reference": "ChIJo93p_BoFDTkR8p9NnZm6FR8", "geometry": {"location": {"lat": 28.62117199999999, "lng": 77.06313329999999}, "viewport": {"northeast": {"lat": 28.6225213302915, "lng": 77.06448178029152}, "southwest": {"lat": 28.6198233697085, "lng": 77.0617838197085}}}, "place_id": "ChIJo93p_BoFDTkR8p9NnZm6FR8", "plus_code": {"global_code": "7JWVJ3C7+F7", "compound_code": "J3C7+F7 Delhi, India"}, "vicinity": "1, Milap Nagar Main Road, Vijay Vihar, Block C, Block H, Uttam Nagar, Delhi", "scope": "GOOGLE", "business_status": "OPERATIONAL", "types": ["supermarket", "grocery_or_supermarket", "food", "point_of_interest", "store", "establishment"], "icon": "https://maps.gstatic.com/mapfiles/place_api/icons/v1/png_71/shopping-71.png"}, {"rating": 3.1, "user_ratings_total": 19, "name": "Aarushi Store 9255", "reference": "ChIJ_XVTrCYFDTkRUYLk0ukDlaw", "geometry": {"location": {"lat": 28.6244, "lng": 77.05120520000001}, "viewport": {"northeast": {"lat": 28.6257482302915, "lng": 77.0525835302915}, "southwest": {"lat": 28.6230502697085, "lng": 77.0498855697085}}}, "place_id": "ChIJ_XVTrCYFDTkRUYLk0ukDlaw", "plus_code": {"global_code": "7JWVJ3F2+QF", "compound_code": "J3F2+QF Delhi, India"}, "vicinity": "Som Bazaar Road Nawada, Om Vihar, Uttam Nagar, Delhi", "photos": [{"photo_reference": "ATtYBwLyOwN-JgYpkCw7zUCuujjO4_c_1EdvO8fEgj-UHpmnbJxgEEGS7_tXxQ7Zztoy4MDXY0aSKlu9Kj25r5owHraN4qDrVqBpe7UMcUeQus0g5f7-9Nc_heOmtlWRe0BzsRBPKuClWwcuukO5EIrJgdmqvO29Us6HWJznznkDcIWJzunj", "width": 720, "html_attributions": ["<a href=\"https://maps.google.com/maps/contrib/101440726265379280940\">Suraj Kumar</a>"], "height": 1280}], "scope": "GOOGLE", "business_status": "OPERATIONAL", "types": ["supermarket", "grocery_or_supermarket", "food", "point_of_interest", "store", "establishment"], "icon": "https://maps.gstatic.com/mapfiles/place_api/icons/v1/png_71/shopping-71.png"}, {"rating": 5, "user_ratings_total": 3, "name": "KALRA TRADING COMPANY", "reference": "ChIJyZxj53sFDTkRZRhLIqkuD3g", "geometry": {"location": {"lat": 28.6224008, "lng": 77.0667864}, "viewport": {"northeast": {"lat": 28.6237377302915, "lng": 77.0680852802915}, "southwest": {"lat": 28.6210397697085, "lng": 77.06538731970849}}}, "place_id": "ChIJyZxj53sFDTkRZRhLIqkuD3g", "plus_code": {"global_code": "7JWVJ3C8+XP", "compound_code": "J3C8+XP New Delhi, Delhi, India"}, "vicinity": "C 112, Ram Datt Enclave, Uttam Nagar, New Delhi", "scope": "GOOGLE", "business_status": "OPERATIONAL", "types": ["supermarket", "grocery_or_supermarket", "food", "point_of_interest", "store", "establishment"], "icon": "https://maps.gstatic.com/mapfiles/place_api/icons/v1/png_71/generic_business-71.png"}]}