{"status": "OK", "next_page_token": "ATtYBwJqyCp3pmkU0E5p_5HIwW1__xE3jAS0gBUJyUUO9j0YmrnxIs-DCxQBkx42lVFlt3VR5AfjomFKHZGEBY3yWBsc6aQfrSZv0CZDC2y5LD8TitGAy9am-Qfr5LQ1ETm1K-ca2NmTx94U7U82POj66xdWh0B7Gk_KnLJQvKmFEPoOAqIgS7uli588chHDzqYD-n156hXwY6ZKpuOGwAPbILCoQ4I0gZ-YXxsxC-dsFA8lOU1o_T5qHc-LFBFz9KvbNiwRlv6ct8Piq3Alka8C4ckc3GRo1LE9_cNPlxTs6JDuEEqRBxzuGIqZWSNPWOiT-JU7_-UmKUOWoatnyY_C8hSu6N91IG03CAEUqaoEMA0YQbYeDTHlt0sdp_CVlQaStNDouvNp8PYCkc-6bjgUAT6Y6mOO8YWnc2exN_UuAtom6XECTX1IY626xA", "html_attributions": [], "results": [{"rating": 2.5, "user_ratings_total": 2, "name": "Superbazaaronline", "reference": "ChIJYYqutGPiDDkRm1bc4b1rfT8", "geometry": {"location": {"lat": 28.5738855, "lng": 77.21001009999999}, "viewport": {"northeast": {"lat": 28.5752645302915, "lng": 77.2110921302915}, "southwest": {"lat": 28.5725665697085, "lng": 77.20839416970848}}}, "opening_hours": {"open_now": true}, "place_id": "ChIJYYqutGPiDDkRm1bc4b1rfT8", "plus_code": {"global_code": "7JWVH6F6+H2", "compound_code": "H6F6+H2 New Delhi, Delhi, India"}, "vicinity": "61, Sri Aurobindo Marg, Aviation Colony, INA Colony, New Delhi", "scope": "GOOGLE", "business_status": "OPERATIONAL", "types": ["supermarket", "grocery_or_supermarket", "food", "point_of_interest", "store", "establishment"], "icon": "https://maps.gstatic.com/mapfiles/place_api/icons/v1/png_71/shopping-71.png"}, {"name": "Global Shield", "reference": "ChIJTcteXnfjDDkRRpan1iHpF14", "geometry": {"location": {"lat": 28.5723795, "lng": 77.21834249999999}, "viewport": {"northeast": {"lat": 28.5737217802915, "lng": 77.21971143029151}, "southwest": {"lat": 28.5710238197085, "lng": 77.2170134697085}}}, "place_id": "ChIJTcteXnfjDDkRRpan1iHpF14", "plus_code": {"global_code": "7JWVH6C9+X8", "compound_code": "H6C9+X8 New Delhi, Delhi, India"}, "vicinity": "F-25, First Floor,South Market, Kidwai Nagar, New Delhi", "scope": "GOOGLE", "business_status": "OPERATIONAL", "types": ["supermarket", "grocery_or_supermarket", "food", "point_of_interest", "store", "establishment"], "icon": "https://maps.gstatic.com/mapfiles/place_api/icons/v1/png_71/shopping-71.png"}, {"name": "Lotus mandir", "reference": "ChIJJQ-WYLLjDDkRpPS13MsffUU", "geometry": {"location": {"lat": 28.5720032, "lng": 77.22235189999999}, "viewport": {"northeast": {"lat": 28.5732764302915, "lng": 77.2235611802915}, "southwest": {"lat": 28.57057846970849, "lng": 77.22086321970849}}}, "place_id": "ChIJJQ-WYLLjDDkRpPS13MsffUU", "plus_code": {"global_code": "7JWVH6CC+RW", "compound_code": "H6CC+RW New Delhi, Delhi, India"}, "vicinity": "1770, Uday Chand Marg, Arya Basti, Zafar Nagar, Kotla Mubarakpur, Near, New Delhi", "scope": "GOOGLE", "business_status": "OPERATIONAL", "types": ["supermarket", "grocery_or_supermarket", "food", "point_of_interest", "store", "establishment"], "icon": "https://maps.gstatic.com/mapfiles/place_api/icons/v1/png_71/shopping-71.png"}, {"name": "KABRA TRADERS", "reference": "ChIJIZbMrqPjDDkRWv2dNKHM0LE", "geometry": {"location": {"lat": 28.5709544, "lng": 77.22464049999999}, "viewport": {"northeast": {"lat": 28.5723319302915, "lng": 77.22593583029149}, "southwest": {"lat": 28.5696339697085, "lng": 77.22323786970848}}}, "place_id": "ChIJIZbMrqPjDDkRWv2dNKHM0LE", "plus_code": {"global_code": "7JWVH6CF+9V", "compound_code": "H6CF+9V New Delhi, Delhi, India"}, "vicinity": "Wazir Nagar, South Extension I, New Delhi", "photos": [{"photo_reference": "ATtYBwL5qnmtU-tt3a41BwyAmsLhu-FWFimUdAk0Glz4k9Nc1gUeyI_f5128-Pg3-CoFxn0dyKn7F2PsxB9WDxBeeJPltNZw10W1h-nnkPt-QIfCM0kjjK_8I0NzLbuk5gTPWdhsaprnqpMqCKYnmJd63KQThjZLQY290hSxD8dHOC2D7sDm", "width": 1024, "html_attributions": ["<a href=\"https://maps.google.com/maps/contrib/116740702842979884460\">subodh kabra</a>"], "height": 1024}], "scope": "GOOGLE", "business_status": "OPERATIONAL", "types": ["supermarket", "grocery_or_supermarket", "food", "point_of_interest", "store", "establishment"], "icon": "https://maps.gstatic.com/mapfiles/place_api/icons/v1/png_71/shopping-71.png"}, {"rating": 4.5, "user_ratings_total": 11, "name": "Subhash Bazar,Kotla Mubarak Pur,New Delhi-110003", "reference": "ChIJH5OpJFniDDkRyQfywGgaNQY", "geometry": {"location": {"lat": 28.5734545, "lng": 77.2235901}, "viewport": {"northeast": {"lat": 28.5753770302915, "lng": 77.2253256802915}, "southwest": {"lat": 28.5726790697085, "lng": 77.2226277197085}}}, "opening_hours": {"open_now": true}, "place_id": "ChIJH5OpJFniDDkRyQfywGgaNQY", "plus_code": {"global_code": "7JWVH6FF+9C", "compound_code": "H6FF+9C New Delhi, Delhi, India"}, "vicinity": "1, Gulzari Gali, Nanak Chand Basti, Sher Singh Bazar, Kotla Mubarakpur, South Extension I, New Delhi", "photos": [{"photo_reference": "ATtYBwImnl06Pr8BjwJIFOl4bBgbLXEatynbgWtZ7_qM_1ZyitnoPAKEHRAj-3O5ePdGuHwIjYb-9nVCITfMBlnSDnthAtrD2yvZOY7XTeiEm9U6VI1bbj-XCCwEqGzaS6ZDUbNW9c9dJqQ-TaVheYwcvQfLIicSGKmGoOXKZLXWmBi8s8bP", "width": 3456, "html_attributions": ["<a href=\"https://maps.google.com/maps/contrib/111430876071522805778\">sunil baisoya</a>"], "height": 4608}], "scope": "GOOGLE", "business_status": "OPERATIONAL", "types": ["supermarket", "grocery_or_supermarket", "food", "point_of_interest", "store", "establishment"], "icon": "https://maps.gstatic.com/mapfiles/place_api/icons/v1/png_71/shopping-71.png"}, {"rating": 4.7, "user_ratings_total": 3, "name": "Subhash Bazar CHOWK", "reference": "ChIJj7RYIFniDDkRuMKwOKGglgY", "geometry": {"location": {"lat": 28.5734545, "lng": 77.2235901}, "viewport": {"northeast": {"lat": 28.5747824302915, "lng": 77.22511613029151}, "southwest": {"lat": 28.5720844697085, "lng": 77.22241816970849}}}, "place_id": "ChIJj7RYIFniDDkRuMKwOKGglgY", "plus_code": {"global_code": "7JWVH6FF+9C", "compound_code": "H6FF+9C New Delhi, Delhi, India"}, "vicinity": "1, Gulzari Gali, Nanak Chand Basti, Kotla Mubarakpur, South Extension I, New Delhi", "scope": "GOOGLE", "business_status": "OPERATIONAL", "types": ["supermarket", "grocery_or_supermarket", "food", "point_of_interest", "store", "establishment"], "icon": "https://maps.gstatic.com/mapfiles/place_api/icons/v1/png_71/shopping-71.png"}, {"name": "A M KITCHEN WING", "reference": "ChIJZwrD4DHjDDkR8mha8mzaaOc", "geometry": {"location": {"lat": 28.5734688, "lng": 77.2240911}, "viewport": {"northeast": {"lat": 28.5748524802915, "lng": 77.22549958029151}, "southwest": {"lat": 28.5721545197085, "lng": 77.22280161970849}}}, "opening_hours": {"open_now": false}, "place_id": "ChIJZwrD4DHjDDkR8mha8mzaaOc", "plus_code": {"global_code": "7JWVH6FF+9J", "compound_code": "H6FF+9J New Delhi, Delhi, India"}, "vicinity": "682 BHOLA NAGAR, opp. MOTHER DAIRY BOOTH, l, South Extension, Bapu Park, Kotla Mubarakpur, I, New Delhi", "photos": [{"photo_reference": "ATtYBwJLGk_MGraum3HQyeo7ATPZ0o6mSXtC_KT4W1Q_NpxG2Gm4O8HauoOZVGBAvvd2FPRsD9VZavviW2Babx606u7plPTfEqn1_sRFqBD2XlUmLuwbJb8_ZgzIXSZ-rNAgE8GP5SJRHYfTcqtp1_t_CX7xm976ZBRLe1vgMY1bINeDIW0S", "width": 3120, "html_attributions": ["<a href=\"https://maps.google.com/maps/contrib/105286095143521318471\">A M KITCHEN WING</a>"], "height": 4160}], "scope": "GOOGLE", "business_status": "OPERATIONAL", "types": ["supermarket", "grocery_or_supermarket", "food", "point_of_interest", "store", "establishment"], "icon": "https://maps.gstatic.com/mapfiles/place_api/icons/v1/png_71/shopping-71.png"}, {"rating": 3, "user_ratings_total": 1, "name": "shreefood southex", "reference": "ChIJ1RusfVniDDkRiJtSHTKaYAc", "geometry": {"location": {"lat": 28.5726922, "lng": 77.2256329}, "viewport": {"northeast": {"lat": 28.5740533802915, "lng": 77.2269479802915}, "southwest": {"lat": 28.5713554197085, "lng": 77.22425001970849}}}, "opening_hours": {"open_now": true}, "place_id": "ChIJ1RusfVniDDkRiJtSHTKaYAc", "plus_code": {"global_code": "7JWVH6FG+37", "compound_code": "H6FG+37 New Delhi, Delhi, India"}, "vicinity": "967, Gurudwara Road, Kotla Mubarakpur, South Extension I, New Delhi", "scope": "GOOGLE", "business_status": "OPERATIONAL", "types": ["supermarket", "grocery_or_supermarket", "food", "point_of_interest", "store", "establishment"], "icon": "https://maps.gstatic.com/mapfiles/place_api/icons/v1/png_71/shopping-71.png"}, {"rating": 5, "user_ratings_total": 1, "name": "Zari Chenna", "reference": "ChIJNzTyq6PjDDkRqYpDBjyl6bs", "geometry": {"location": {"lat": 28.5662293, "lng": 77.22552859999999}, "viewport": {"northeast": {"lat": 28.5675653802915, "lng": 77.2268708302915}, "southwest": {"lat": 28.5648674197085, "lng": 77.2241728697085}}}, "place_id": "ChIJNzTyq6PjDDkRqYpDBjyl6bs", "plus_code": {"global_code": "7JWVH68G+F6", "compound_code": "H68G+F6 New Delhi, Delhi, India"}, "vicinity": "49/60, Andrews Ganj, New Delhi", "scope": "GOOGLE", "business_status": "OPERATIONAL", "types": ["supermarket", "grocery_or_supermarket", "food", "point_of_interest", "store", "establishment"], "icon": "https://maps.gstatic.com/mapfiles/place_api/icons/v1/png_71/shopping-71.png"}, {"rating": 5, "user_ratings_total": 1, "name": "Krishna Dairy", "reference": "ChIJM7AzDFniDDkRRSjyI699S3c", "geometry": {"location": {"lat": 28.5742754, "lng": 77.2256208}, "viewport": {"northeast": {"lat": 28.5756148802915, "lng": 77.2269694302915}, "southwest": {"lat": 28.5729169197085, "lng": 77.22427146970848}}}, "place_id": "ChIJM7AzDFniDDkRRSjyI699S3c", "plus_code": {"global_code": "7JWVH6FG+P6", "compound_code": "H6FG+P6 New Delhi, Delhi, India"}, "vicinity": "Krishana Gali, Shiv Nagar, Kotla Mubarakpur, South Extension I, New Delhi", "scope": "GOOGLE", "business_status": "OPERATIONAL", "types": ["supermarket", "grocery_or_supermarket", "food", "point_of_interest", "store", "establishment"], "icon": "https://maps.gstatic.com/mapfiles/place_api/icons/v1/png_71/shopping-71.png"}, {"rating": 3.7, "user_ratings_total": 68, "name": "Patanjali Store", "reference": "ChIJIaPu_0LiDDkRc1UaTcx5yeU", "geometry": {"location": {"lat": 28.5634861, "lng": 77.2203318}, "viewport": {"northeast": {"lat": 28.5649015302915, "lng": 77.2215571802915}, "southwest": {"lat": 28.56220356970849, "lng": 77.21885921970849}}}, "opening_hours": {"open_now": false}, "place_id": "ChIJIaPu_0LiDDkRc1UaTcx5yeU", "plus_code": {"global_code": "7JWVH67C+94", "compound_code": "H67C+94 New Delhi, Delhi, India"}, "vicinity": "210, Masjid Moth Road, Masjid Moth Village, South Extension II, New Delhi", "photos": [{"photo_reference": "ATtYBwLuw5WoN8_MJgWKe3yI6Tl2ktz3JYba9fta7LopTSx8oVoz2Dm4S-euarPK7WWXEavs2Y0gGxrY1KmlXvbh3QzeSDbwuTIvPxD_g7B42FrBSXX_XUTy4Vy2MBSLr4YypW3UALJp3CPx3mYcRdkKLLPmmtLL0KevQnuwGaBuWGLWtseJ", "width": 1080, "html_attributions": ["<a href=\"https://maps.google.com/maps/contrib/101816777524317822402\">Sonu Google</a>"], "height": 1920}], "scope": "GOOGLE", "business_status": "OPERATIONAL", "types": ["supermarket", "grocery_or_supermarket", "food", "point_of_interest", "store", "establishment"], "icon": "https://maps.gstatic.com/mapfiles/place_api/icons/v1/png_71/shopping-71.png"}, {"name": "Gajay Basoya General Store", "reference": "ChIJV-G6xXHjDDkR7Ga_RICmOyo", "geometry": {"location": {"lat": 28.5764334, "lng": 77.22308679999999}, "viewport": {"northeast": {"lat": 28.5776357302915, "lng": 77.2244421802915}, "southwest": {"lat": 28.5749377697085, "lng": 77.22174421970848}}}, "place_id": "ChIJV-G6xXHjDDkR7Ga_RICmOyo", "plus_code": {"global_code": "7JWVH6GF+H6", "compound_code": "H6GF+H6 New Delhi, Delhi, India"}, "vicinity": "Aliganj House", "scope": "GOOGLE", "business_status": "OPERATIONAL", "types": ["supermarket", "grocery_or_supermarket", "food", "point_of_interest", "store", "establishment"], "icon": "https://maps.gstatic.com/mapfiles/place_api/icons/v1/png_71/shopping-71.png"}, {"rating": 4.8, "user_ratings_total": 6, "name": "MAHARAJA AGERSEN CHOWK", "reference": "ChIJl3-V51jiDDkRcHhyZU2sXhI", "geometry": {"location": {"lat": 28.5759293, "lng": 77.2247862}, "viewport": {"northeast": {"lat": 28.5772717802915, "lng": 77.22616113029149}, "southwest": {"lat": 28.5745738197085, "lng": 77.22346316970848}}}, "opening_hours": {"open_now": false}, "place_id": "ChIJl3-V51jiDDkRcHhyZU2sXhI", "plus_code": {"global_code": "7JWVH6GF+9W", "compound_code": "H6GF+9W New Delhi, Delhi, India"}, "vicinity": "Subhash Bazar Road, Subhash Bazar, Bapu Park, Kotla Mubarakpur, Sewa Nagar, New Delhi", "photos": [{"photo_reference": "ATtYBwLje5APFwfJXs54-cA5jmBYkZB3eSw7Avh_uBC_hUUI2HAE1bc4J2cbFmyNBsPX1l3OL-zGbAOeBUcVTWZQqzhgJmGquT_MqaZXiMP5-_iZfrcevBugZUjtd-cqG9AyZM7EWpVZ88NvSgN-acynq49fbXLclKBP0W_DCWA-i6aKhgEH", "width": 1080, "html_attributions": ["<a href=\"https://maps.google.com/maps/contrib/101649022407911045385\">ADITYA JHA</a>"], "height": 1920}], "scope": "GOOGLE", "business_status": "OPERATIONAL", "types": ["supermarket", "grocery_or_supermarket", "food", "point_of_interest", "store", "establishment"], "icon": "https://maps.gstatic.com/mapfiles/place_api/icons/v1/png_71/shopping-71.png"}, {"rating": 5, "user_ratings_total": 1, "name": "Hari Om Traders", "reference": "ChIJRecqZojjDDkR7IMpnHQmQWs", "geometry": {"location": {"lat": 28.5762208, "lng": 77.2243474}, "viewport": {"northeast": {"lat": 28.5775728802915, "lng": 77.2256989802915}, "southwest": {"lat": 28.5748749197085, "lng": 77.22300101970849}}}, "opening_hours": {"open_now": true}, "place_id": "ChIJRecqZojjDDkR7IMpnHQmQWs", "plus_code": {"global_code": "7JWVH6GF+FP", "compound_code": "H6GF+FP New Delhi, Delhi, India"}, "vicinity": "Subhash Bazar, Aliganj, Kotla Mubarakpur, South Extension I, New Delhi", "scope": "GOOGLE", "business_status": "OPERATIONAL", "types": ["supermarket", "grocery_or_supermarket", "food", "point_of_interest", "store", "establishment"], "icon": "https://maps.gstatic.com/mapfiles/place_api/icons/v1/png_71/shopping-71.png"}, {"rating": 5, "user_ratings_total": 1, "name": "Jmm Men Power", "reference": "ChIJQ-jc8svjDDkR2ejJfpMhQGM", "geometry": {"location": {"lat": 28.5624162, "lng": 77.2192429}, "viewport": {"northeast": {"lat": 28.5637288302915, "lng": 77.22061488029149}, "southwest": {"lat": 28.5610308697085, "lng": 77.21791691970849}}}, "place_id": "ChIJQ-jc8svjDDkR2ejJfpMhQGM", "plus_code": {"global_code": "7JWVH669+XM", "compound_code": "H669+XM New Delhi, Delhi, India"}, "vicinity": "130, Masjid Moth Road, Masjid Moth Village, South Extension II, New Delhi", "scope": "GOOGLE", "business_status": "OPERATIONAL", "types": ["supermarket", "grocery_or_supermarket", "food", "point_of_interest", "store", "establishment"], "icon": "https://maps.gstatic.com/mapfiles/place_api/icons/v1/png_71/shopping-71.png"}, {"name": "New Delhi", "reference": "ChIJS8vnn-njDDkRtm6k6PHS3t8", "geometry": {"location": {"lat": 28.5622447, "lng": 77.2194987}, "viewport": {"northeast": {"lat": 28.5636613802915, "lng": 77.2207755802915}, "southwest": {"lat": 28.5609634197085, "lng": 77.2180776197085}}}, "place_id": "ChIJS8vnn-njDDkRtm6k6PHS3t8", "plus_code": {"global_code": "7JWVH669+VQ", "compound_code": "H669+VQ New Delhi, Delhi, India"}, "vicinity": "209, Masjid Moth Road, Masjid Moth Village, South Extension II, New Delhi", "scope": "GOOGLE", "business_status": "OPERATIONAL", "types": ["supermarket", "grocery_or_supermarket", "food", "point_of_interest", "store", "establishment"], "icon": "https://maps.gstatic.com/mapfiles/place_api/icons/v1/png_71/shopping-71.png"}, {"rating": 4.4, "user_ratings_total": 8, "name": "Shimla general store", "reference": "ChIJ8XwFlFjiDDkRs37eQFOLxNs", "geometry": {"location": {"lat": 28.5770929, "lng": 77.22503139999999}, "viewport": {"northeast": {"lat": 28.5784288802915, "lng": 77.2263791302915}, "southwest": {"lat": 28.57573091970849, "lng": 77.2236811697085}}}, "opening_hours": {"open_now": true}, "place_id": "ChIJ8XwFlFjiDDkRs37eQFOLxNs", "plus_code": {"global_code": "7JWVH6GG+R2", "compound_code": "H6GG+R2 New Delhi, Delhi, India"}, "vicinity": "H-439, Kotla Mubarakpur, Sewa Nagar, New Delhi", "scope": "GOOGLE", "business_status": "OPERATIONAL", "types": ["supermarket", "grocery_or_supermarket", "food", "point_of_interest", "store", "establishment"], "icon": "https://maps.gstatic.com/mapfiles/place_api/icons/v1/png_71/shopping-71.png"}, {"name": "Dinajpur Computer", "reference": "ChIJ1aMkBS7jDDkRqebwshu0N-U", "geometry": {"location": {"lat": 28.5700739, "lng": 77.2297383}, "viewport": {"northeast": {"lat": 28.5714092802915, "lng": 77.23111963029149}, "southwest": {"lat": 28.5687113197085, "lng": 77.22842166970848}}}, "place_id": "ChIJ1aMkBS7jDDkRqebwshu0N-U", "plus_code": {"global_code": "7JWVH6CH+2V", "compound_code": "H6CH+2V New Delhi, Delhi, India"}, "vicinity": "Chakrabarti Vithi Road, Block C, Defence Colony, New Delhi", "photos": [{"photo_reference": "ATtYBwLQvS30szb5Sf5v4RgXf2F3LdSuEWX4Ar7KXAb4gcN-HD64Hxm2b-llnqqbn1ioND0pKwJbyTqmersE6jG4slTfwyDpasAlVd3x17ryQKkN1zudSdyPnVpIv_Uoa03vMOSOIsfXWRrnTkCk9ZsrUIjoyTXQIls-YlMTfcyzl8JRRIcV", "width": 1080, "html_attributions": ["<a href=\"https://maps.google.com/maps/contrib/112581227865873217068\">Channel A</a>"], "height": 1920}], "scope": "GOOGLE", "business_status": "OPERATIONAL", "types": ["supermarket", "grocery_or_supermarket", "food", "point_of_interest", "store", "establishment"], "icon": "https://maps.gstatic.com/mapfiles/place_api/icons/v1/png_71/shopping-71.png"}, {"rating": 5, "user_ratings_total": 1, "name": "Pure Water Purifier", "reference": "ChIJDeEFYcrjDDkR3F9yaqTiJHU", "geometry": {"location": {"lat": 28.5745367, "lng": 77.2284246}, "viewport": {"northeast": {"lat": 28.5758856802915, "lng": 77.2297735802915}, "southwest": {"lat": 28.5731877197085, "lng": 77.22707561970849}}}, "opening_hours": {"open_now": false}, "place_id": "ChIJDeEFYcrjDDkR3F9yaqTiJHU", "plus_code": {"global_code": "7JWVH6FH+R9", "compound_code": "H6FH+R9 New Delhi, Delhi, India"}, "vicinity": "South Extension, Arjun Nagar, Kotla Mubarakpur, South Extension I, New Delhi", "photos": [{"photo_reference": "ATtYBwIm4jt2Sx3VZioHzE6nFvjaB1YgGYJrLnIOXAS0EQla5ZS6FCriTtm_RXpLbaAAYzXgNBowtBA28TbZlKClHsi-WM9yMBW38GOOVbUxu09wx3LwQMqi4d8xBTablNkZObyKICah-CvcKX7U5r28kvKmlU04mFZFCTyQmDubU3O0q6ss", "width": 4160, "html_attributions": ["<a href=\"https://maps.google.com/maps/contrib/110708396910635306772\">Pure Water Purifier</a>"], "height": 3120}], "scope": "GOOGLE", "business_status": "OPERATIONAL", "types": ["supermarket", "grocery_or_supermarket", "food", "point_of_interest", "store", "establishment"], "icon": "https://maps.gstatic.com/mapfiles/place_api/icons/v1/png_71/shopping-71.png"}, {"name": "Super bazar", "reference": "ChIJyc9B3XXjDDkRKv866ca0Tig", "geometry": {"location": {"lat": 28.573794, "lng": 77.2107084}, "viewport": {"northeast": {"lat": 28.5750665302915, "lng": 77.2120562802915}, "southwest": {"lat": 28.57236856970849, "lng": 77.20935831970849}}}, "place_id": "ChIJyc9B3XXjDDkRKv866ca0Tig", "plus_code": {"global_code": "7JWVH6F6+G7", "compound_code": "H6F6+G7 New Delhi, Delhi, India"}, "vicinity": "INA Market, New Delhi", "scope": "GOOGLE", "business_status": "OPERATIONAL", "types": ["supermarket", "grocery_or_supermarket", "food", "point_of_interest", "store", "establishment"], "icon": "https://maps.gstatic.com/mapfiles/place_api/icons/v1/png_71/shopping-71.png"}]}