{"status": "OK", "html_attributions": [], "results": [{"name": "Ebigbazaar", "reference": "ChIJH8jO1bPdDDkRpcxvmHU5jEk", "geometry": {"location": {"lat": 28.4089211, "lng": 77.31778899999999}, "viewport": {"northeast": {"lat": 28.4102699802915, "lng": 77.3191380802915}, "southwest": {"lat": 28.4075720197085, "lng": 77.31644011970849}}}, "opening_hours": {"open_now": true}, "place_id": "ChIJH8jO1bPdDDkRpcxvmHU5jEk", "plus_code": {"global_code": "7JWVC859+H4", "compound_code": "C859+H4 Faridabad, Haryana, India"}, "vicinity": "ADB PWD Colony, Sector 16A, Faridabad", "scope": "GOOGLE", "business_status": "OPERATIONAL", "types": ["supermarket", "grocery_or_supermarket", "food", "point_of_interest", "store", "establishment"], "icon": "https://maps.gstatic.com/mapfiles/place_api/icons/v1/png_71/shopping-71.png"}, {"rating": 5, "user_ratings_total": 2, "name": "Shyam Marble", "reference": "ChIJ1VIbl7fdDDkRASah1bVpeAU", "geometry": {"location": {"lat": 28.4127022, "lng": 77.3115924}, "viewport": {"northeast": {"lat": 28.41411873029151, "lng": 77.3129328302915}, "southwest": {"lat": 28.4114207697085, "lng": 77.3102348697085}}}, "opening_hours": {"open_now": false}, "place_id": "ChIJ1VIbl7fdDDkRASah1bVpeAU", "plus_code": {"global_code": "7JWVC876+3J", "compound_code": "C876+3J Faridabad, Haryana, India"}, "vicinity": "675, Mathura Road, Sector 16A, Faridabad", "photos": [{"photo_reference": "ATtYBwLdbUBeIzodimpakcmsQTdbqMPndeF5O1jBmCWb9AZr1R-7bwZMg4UHLW8y-fEtwroHi2UUXOQ-zr8Cj6yutPwK6nn6odgS6rOZ5KxE5vtl9riLdsyQEVRxz7s9vk0gef6Fd6g_MIuFiJOcjmX5Whch3eKIvMYvCq_gufdFF2i10hVB", "width": 1080, "html_attributions": ["<a href=\"https://maps.google.com/maps/contrib/114796996650061624560\">rahul lakhotia</a>"], "height": 1920}], "scope": "GOOGLE", "business_status": "OPERATIONAL", "types": ["supermarket", "grocery_or_supermarket", "food", "point_of_interest", "store", "establishment"], "icon": "https://maps.gstatic.com/mapfiles/place_api/icons/v1/png_71/shopping-71.png"}, {"name": "Rubber Stump Maker", "reference": "ChIJu5nH-k7dDDkRo1AF7N5_8KU", "geometry": {"location": {"lat": 28.4108882, "lng": 77.31911989999999}, "viewport": {"northeast": {"lat": 28.4122752802915, "lng": 77.32046543029149}, "southwest": {"lat": 28.4095773197085, "lng": 77.31776746970849}}}, "opening_hours": {"open_now": true}, "place_id": "ChIJu5nH-k7dDDkRo1AF7N5_8KU", "plus_code": {"global_code": "7JWVC869+9J", "compound_code": "C869+9J Faridabad, Haryana, India"}, "vicinity": "Shop no 156 Sec 16 main market old faridabad, Near. j & k", "photos": [{"photo_reference": "ATtYBwJXnZXeTD7col-zSU2eDOD7ksCzsDno6BPhOMYOXsP6T9fLpZwoivoSi7Sqf03NbXWXSDSygeIBcNHtyS6EiNgOmA-uCreqhs6Fk6JuMvarvvp5FKgmFAzVfg7CINmREzHLZh2YlInou7TEJuFih9L2crG2UY76bOXPUUy6SKwvbLe0", "width": 4160, "html_attributions": ["<a href=\"https://maps.google.com/maps/contrib/108800352018182205359\">bhupender girdhar`</a>"], "height": 3120}], "scope": "GOOGLE", "business_status": "OPERATIONAL", "types": ["supermarket", "grocery_or_supermarket", "food", "point_of_interest", "store", "establishment"], "icon": "https://maps.gstatic.com/mapfiles/place_api/icons/v1/png_71/shopping-71.png"}, {"rating": 4.8, "user_ratings_total": 4, "name": "Bajaj finsav ..", "reference": "ChIJM4KqaBjdDDkRPvFWEHjOw3I", "geometry": {"location": {"lat": 28.4110357, "lng": 77.31916420000002}, "viewport": {"northeast": {"lat": 28.41235098029151, "lng": 77.3205160802915}, "southwest": {"lat": 28.4096530197085, "lng": 77.31781811970849}}}, "place_id": "ChIJM4KqaBjdDDkRPvFWEHjOw3I", "plus_code": {"global_code": "7JWVC869+CM", "compound_code": "C869+CM Faridabad, Haryana, India"}, "vicinity": "HUDA Staff Colony, Sector 16, Faridabad", "scope": "GOOGLE", "business_status": "OPERATIONAL", "types": ["supermarket", "grocery_or_supermarket", "food", "point_of_interest", "store", "establishment"], "icon": "https://maps.gstatic.com/mapfiles/place_api/icons/v1/png_71/shopping-71.png"}, {"name": "seema", "reference": "ChIJYbkEG6HdDDkRiuOOJ1R8mQ4", "geometry": {"location": {"lat": 28.4089211, "lng": 77.31778899999999}, "viewport": {"northeast": {"lat": 28.4102699802915, "lng": 77.3191380802915}, "southwest": {"lat": 28.4075720197085, "lng": 77.31644011970849}}}, "opening_hours": {"open_now": false}, "place_id": "ChIJYbkEG6HdDDkRiuOOJ1R8mQ4", "plus_code": {"global_code": "7JWVC859+H4", "compound_code": "C859+H4 Faridabad, Haryana, India"}, "vicinity": "Faridabad", "scope": "GOOGLE", "business_status": "OPERATIONAL", "types": ["supermarket", "grocery_or_supermarket", "food", "point_of_interest", "store", "establishment"], "icon": "https://maps.gstatic.com/mapfiles/place_api/icons/v1/png_71/shopping-71.png"}, {"rating": 4.6, "user_ratings_total": 9, "name": "Phone Pe Office", "reference": "ChIJKeVjQhTdDDkROElPhqYDpKk", "geometry": {"location": {"lat": 28.4078549, "lng": 77.3183998}, "viewport": {"northeast": {"lat": 28.4091902802915, "lng": 77.31974628029151}, "southwest": {"lat": 28.40649231970849, "lng": 77.3170483197085}}}, "opening_hours": {"open_now": true}, "place_id": "ChIJKeVjQhTdDDkROElPhqYDpKk", "plus_code": {"global_code": "7JWVC859+49", "compound_code": "C859+49 Faridabad, Haryana, India"}, "vicinity": "Nirman Kunj, ADB PWD Colony, Sector 16A, Faridabad", "scope": "GOOGLE", "business_status": "OPERATIONAL", "types": ["supermarket", "grocery_or_supermarket", "food", "point_of_interest", "store", "establishment"], "icon": "https://maps.gstatic.com/mapfiles/place_api/icons/v1/png_71/shopping-71.png"}, {"rating": 3.9, "user_ratings_total": 1219, "name": "SABZI MANDI SECTOR 16", "reference": "ChIJpTUjbrDdDDkRra5-gC24noY", "geometry": {"location": {"lat": 28.41373299999999, "lng": 77.3188222}, "viewport": {"northeast": {"lat": 28.4150115802915, "lng": 77.32017623029151}, "southwest": {"lat": 28.4123136197085, "lng": 77.31747826970849}}}, "opening_hours": {"open_now": true}, "place_id": "ChIJpTUjbrDdDDkRra5-gC24noY", "plus_code": {"global_code": "7JWVC879+FG", "compound_code": "C879+FG Faridabad, Haryana, India"}, "vicinity": "SABZI MANDI, Sector 16, Faridabad", "photos": [{"photo_reference": "ATtYBwJQ-dcKPLnm6q7jJnSVHEBbLg-HcZyfjZ2WZIuyeYqUaBBR3nMX26BTEVaeBxeG7GP55KnPi31eKm_KXUVSXAccNJihHclYNikwtwd9V1xwVeqtlIXitmQqwUg7_J8xgD7ATWWXaHmWnha4f2gxESkKudUSeSltr0BN6PUDJPBczyPP", "width": 3024, "html_attributions": ["<a href=\"https://maps.google.com/maps/contrib/104794976541468695872\">AADARSH DAIRY</a>"], "height": 4032}], "scope": "GOOGLE", "business_status": "OPERATIONAL", "types": ["supermarket", "grocery_or_supermarket", "food", "point_of_interest", "store", "establishment"], "icon": "https://maps.gstatic.com/mapfiles/place_api/icons/v1/png_71/shopping-71.png"}, {"rating": 3.8, "user_ratings_total": 321, "name": "Annapurna Super Market", "reference": "ChIJq6qqaqrdDDkRtJ1iQqlxIIA", "geometry": {"location": {"lat": 28.41021599999999, "lng": 77.3268981}, "viewport": {"northeast": {"lat": 28.4116553302915, "lng": 77.32823668029151}, "southwest": {"lat": 28.4089573697085, "lng": 77.3255387197085}}}, "opening_hours": {"open_now": false}, "place_id": "ChIJq6qqaqrdDDkRtJ1iQqlxIIA", "plus_code": {"global_code": "7JWVC86G+3Q", "compound_code": "C86G+3Q Faridabad, Haryana, India"}, "vicinity": "S C F 134, Sector 17, Sector 17, Faridabad", "photos": [{"photo_reference": "ATtYBwK4L0Ie4WBtUHW8cmEg3fzUBggD39UGOjKnVGZNMVjzvoyrClgDJsz1_dsCgCqgc3IJNHvUt2_MAAOnaoXfHxfjY-vigqF04N87fFvPSbO3JhH6HfWqIrhxwxQ_hBDknbFefRut6WOhf0XdRSVs5wDFU3c0luHsk3DXLTHOuHYfZ9gE", "width": 4160, "html_attributions": ["<a href=\"https://maps.google.com/maps/contrib/117336672482898009335\">Sumiran Singh</a>"], "height": 3120}], "scope": "GOOGLE", "business_status": "OPERATIONAL", "types": ["supermarket", "grocery_or_supermarket", "food", "point_of_interest", "store", "establishment"], "icon": "https://maps.gstatic.com/mapfiles/place_api/icons/v1/png_71/shopping-71.png"}, {"name": "Chandila genral store", "reference": "ChIJ19RwRz3dDDkRYEKTAQ7gPNQ", "geometry": {"location": {"lat": 28.408765, "lng": 77.32744199999999}, "viewport": {"northeast": {"lat": 28.4101071302915, "lng": 77.3287087802915}, "southwest": {"lat": 28.4074091697085, "lng": 77.32601081970849}}}, "opening_hours": {"open_now": true}, "place_id": "ChIJ19RwRz3dDDkRYEKTAQ7gPNQ", "plus_code": {"global_code": "7JWVC85G+GX", "compound_code": "C85G+GX Faridabad, Haryana, India"}, "vicinity": "Shop no 8 bihari marker sec 85, Neharpar Faridabad, Faridabad", "scope": "GOOGLE", "business_status": "OPERATIONAL", "types": ["supermarket", "grocery_or_supermarket", "food", "point_of_interest", "store", "establishment"], "icon": "https://maps.gstatic.com/mapfiles/place_api/icons/v1/png_71/shopping-71.png"}, {"name": "shri durga mandir", "reference": "ChIJlV4wOZrdDDkRqogUlZRBx5U", "geometry": {"location": {"lat": 28.4204633, "lng": 77.32347519999999}, "viewport": {"northeast": {"lat": 28.4218251302915, "lng": 77.3247735802915}, "southwest": {"lat": 28.4191271697085, "lng": 77.3220756197085}}}, "place_id": "ChIJlV4wOZrdDDkRqogUlZRBx5U", "plus_code": {"global_code": "7JWVC8CF+59", "compound_code": "C8CF+59 Faridabad, Haryana, India"}, "vicinity": "Sector 18, Old Faridabad, Faridabad", "scope": "GOOGLE", "business_status": "OPERATIONAL", "types": ["supermarket", "grocery_or_supermarket", "food", "point_of_interest", "store", "establishment"], "icon": "https://maps.gstatic.com/mapfiles/place_api/icons/v1/png_71/shopping-71.png"}, {"name": "Expert denting penting (sardarji shop)", "reference": "ChIJHwumHdbdDDkRrgg0ZGR3lqc", "geometry": {"location": {"lat": 28.3983988, "lng": 77.3166968}, "viewport": {"northeast": {"lat": 28.39965688029151, "lng": 77.31796513029151}, "southwest": {"lat": 28.3969589197085, "lng": 77.3152671697085}}}, "place_id": "ChIJHwumHdbdDDkRrgg0ZGR3lqc", "plus_code": {"global_code": "7JWV98X8+9M", "compound_code": "98X8+9M Faridabad, Haryana, India"}, "vicinity": "370, Urban Estate, Sector 15A, Faridabad", "photos": [{"photo_reference": "ATtYBwLId1XjwSXOFp1OF6eCbAWt9PbBcWNNhMt5-uyxhSJAHF09Wo7MZlKTWzR6EZBnwguKIJhvqVk1wsSR7EOfY9i7NzyRTpOMLNI6nSidcTibsG65wsZcH-qihWPvcLkjG-g1Di41U2NZyqNNn2Ae0A6NeWJDkMVHuicUo6RRwfGRsmbi", "width": 1080, "html_attributions": ["<a href=\"https://maps.google.com/maps/contrib/106868504918784997356\">Tekchand Kadam</a>"], "height": 1920}], "scope": "GOOGLE", "business_status": "OPERATIONAL", "types": ["supermarket", "grocery_or_supermarket", "food", "point_of_interest", "store", "establishment"], "icon": "https://maps.gstatic.com/mapfiles/place_api/icons/v1/png_71/shopping-71.png"}, {"rating": 4, "user_ratings_total": 1, "name": "SENTIMENT OFFICE FURNITURE", "reference": "ChIJq6qqek7hDDkRgVT5coCPc-Q", "geometry": {"location": {"lat": 28.4189463, "lng": 77.3107464}, "viewport": {"northeast": {"lat": 28.4202885302915, "lng": 77.3119793302915}, "southwest": {"lat": 28.4175905697085, "lng": 77.3092813697085}}}, "opening_hours": {"open_now": false}, "place_id": "ChIJq6qqek7hDDkRgVT5coCPc-Q", "plus_code": {"global_code": "7JWVC896+H7", "compound_code": "C896+H7 Faridabad, Haryana, India"}, "vicinity": "16, 4, Mathura Road, Faridabad", "photos": [{"photo_reference": "ATtYBwJcjQ-czy4KOtnT-T7F9SIuFMnxxQJr4kXudn691fkejEkLqrwA4iaQLqc-qKOD4uNK2YM_E7oI15E6QuO1qw0Wp-mUR1rH7sIANFDUro8_ewXQtMBxCNDoM8jUSkEbL6yM6FGL50MuWlPRgkmalOSoLvUbXSbNeVg4eFoDwvIrYBGX", "width": 4032, "html_attributions": ["<a href=\"https://maps.google.com/maps/contrib/100020947015412505933\">mandeep singh</a>"], "height": 3024}], "scope": "GOOGLE", "business_status": "OPERATIONAL", "types": ["supermarket", "grocery_or_supermarket", "food", "point_of_interest", "store", "establishment"], "icon": "https://maps.gstatic.com/mapfiles/place_api/icons/v1/png_71/shopping-71.png"}]}