{"status": "OK", "html_attributions": [], "results": [{"rating": 5, "user_ratings_total": 1, "name": "maple mart", "reference": "ChIJAQAAAFTkDDkR5ihdVNCGGpg", "geometry": {"location": {"lat": 28.5821195, "lng": 77.3266992}, "viewport": {"northeast": {"lat": 28.58343698029151, "lng": 77.3280794802915}, "southwest": {"lat": 28.5807390197085, "lng": 77.32538151970849}}}, "place_id": "ChIJAQAAAFTkDDkR5ihdVNCGGpg", "vicinity": "C84b, 3rd floor, Sector-8, Noida", "scope": "GOOGLE", "business_status": "OPERATIONAL", "types": ["supermarket", "grocery_or_supermarket", "food", "point_of_interest", "store", "establishment"], "icon": "https://maps.gstatic.com/mapfiles/place_api/icons/v1/png_71/shopping-71.png"}, {"name": "Tambola Bingo", "reference": "ChIJAQAAAFTkDDkRgiHtnCLcOno", "geometry": {"location": {"lat": 28.5821195, "lng": 77.3266992}, "viewport": {"northeast": {"lat": 28.58343698029151, "lng": 77.3280794802915}, "southwest": {"lat": 28.5807390197085, "lng": 77.32538151970849}}}, "opening_hours": {"open_now": false}, "place_id": "ChIJAQAAAFTkDDkRgiHtnCLcOno", "vicinity": "1st Floor, G-47, Sector 6, Noida", "photos": [{"photo_reference": "ATtYBwLfgjSJOgO47sgA-BxwKuR7D1UKFAVnStS9vRRuiQiNy-FOR8xHB0QcdOFn2PsOQbfwso-Q4GELCWm3kPcQYtfNnPP_gxhnTu_2UOI4AZ9Du7v5VDGRblt_jH6OvJpmOGo9cMlGxYoiXq8wW71rhh3UZ3epy59CyvokMuvFXLjul6kn", "width": 5184, "html_attributions": ["<a href=\"https://maps.google.com/maps/contrib/117878966705946903949\">Tambola Bingo</a>"], "height": 3456}], "scope": "GOOGLE", "business_status": "OPERATIONAL", "types": ["supermarket", "grocery_or_supermarket", "food", "point_of_interest", "store", "establishment"], "icon": "https://maps.gstatic.com/mapfiles/place_api/icons/v1/png_71/shopping-71.png"}, {"name": "Gopi Super Store", "reference": "ChIJH4jbuAnlDDkRi4vhqZiyijs", "geometry": {"location": {"lat": 28.593197, "lng": 77.30940629999999}, "viewport": {"northeast": {"lat": 28.5945459802915, "lng": 77.3107552802915}, "southwest": {"lat": 28.5918480197085, "lng": 77.3080573197085}}}, "place_id": "ChIJH4jbuAnlDDkRi4vhqZiyijs", "plus_code": {"global_code": "7JWVH8V5+7Q", "compound_code": "H8V5+7Q New Delhi, Delhi, India"}, "vicinity": "D-167a, Gopi Niwas, Block D, New Ashok Nagar, New Delhi", "scope": "GOOGLE", "business_status": "OPERATIONAL", "types": ["supermarket", "grocery_or_supermarket", "food", "point_of_interest", "store", "establishment"], "icon": "https://maps.gstatic.com/mapfiles/place_api/icons/v1/png_71/shopping-71.png"}, {"name": "Gopi Super Store", "reference": "ChIJ0QbmWMnlDDkRXk6vzfN25Ho", "geometry": {"location": {"lat": 28.5930678, "lng": 77.3091633}, "viewport": {"northeast": {"lat": 28.5944072302915, "lng": 77.3104956802915}, "southwest": {"lat": 28.5917092697085, "lng": 77.30779771970849}}}, "place_id": "ChIJ0QbmWMnlDDkRXk6vzfN25Ho", "plus_code": {"global_code": "7JWVH8V5+6M", "compound_code": "H8V5+6M Delhi, India"}, "vicinity": "D-167a, Block D, New Ashok Nagar, Delhi", "scope": "GOOGLE", "business_status": "OPERATIONAL", "types": ["grocery_or_supermarket", "supermarket", "food", "point_of_interest", "store", "establishment"], "icon": "https://maps.gstatic.com/mapfiles/place_api/icons/v1/png_71/shopping-71.png"}, {"rating": 4.4, "user_ratings_total": 15, "name": "Work For India Enterprises", "reference": "ChIJQbOaJIvkDDkRV0F8UWdjmPI", "geometry": {"location": {"lat": 28.5895813, "lng": 77.3084313}, "viewport": {"northeast": {"lat": 28.5910590302915, "lng": 77.3098480302915}, "southwest": {"lat": 28.58836106970849, "lng": 77.3071500697085}}}, "opening_hours": {"open_now": false}, "place_id": "ChIJQbOaJIvkDDkRV0F8UWdjmPI", "plus_code": {"global_code": "7JWVH8Q5+R9", "compound_code": "H8Q5+R9 New Delhi, Delhi, India"}, "vicinity": "44, Gali Number 1, Block A, New Ashok Nagar, New Delhi", "scope": "GOOGLE", "business_status": "OPERATIONAL", "types": ["supermarket", "grocery_or_supermarket", "food", "point_of_interest", "store", "establishment"], "icon": "https://maps.gstatic.com/mapfiles/place_api/icons/v1/png_71/shopping-71.png"}, {"name": "Aggarwal Sitor", "reference": "ChIJwS24zozkDDkR7maYcw7svQA", "geometry": {"location": {"lat": 28.5937634, "lng": 77.3090288}, "viewport": {"northeast": {"lat": 28.59511238029151, "lng": 77.3103777802915}, "southwest": {"lat": 28.5924144197085, "lng": 77.30767981970848}}}, "opening_hours": {"open_now": true}, "place_id": "ChIJwS24zozkDDkR7maYcw7svQA", "plus_code": {"global_code": "7JWVH8V5+GJ", "compound_code": "H8V5+GJ Noida, Uttar Pradesh, India"}, "vicinity": "B, Block ED, Sector 9, Noida", "photos": [{"photo_reference": "ATtYBwJLCJyUDsDhdmiDbyc7DUir-1cNxUO-qiGZX5msgEYcif0egSGmKQXuOAtQ0lnQK5ipna3CS8YpENZcf2KqMZjoW4EsVVn-A3GJTh61-8PQyFee-hJ9lkMnF-ZAcI4cyBnonoFwDHbVvYWv0jjjgmEaI7zvMlI-POLXYrhp36nxG5u9", "width": 3200, "html_attributions": ["<a href=\"https://maps.google.com/maps/contrib/104503721546426173605\">balkishan agarwal</a>"], "height": 2400}], "scope": "GOOGLE", "business_status": "OPERATIONAL", "types": ["supermarket", "grocery_or_supermarket", "food", "point_of_interest", "store", "establishment"], "icon": "https://maps.gstatic.com/mapfiles/place_api/icons/v1/png_71/shopping-71.png"}, {"rating": 4.3, "user_ratings_total": 3, "permanently_closed": true, "name": "Jai Hair Mens salons", "reference": "ChIJVTDZhV7kDDkR0nYVMMbS02A", "geometry": {"location": {"lat": 28.581512, "lng": 77.312906}, "viewport": {"northeast": {"lat": 28.5828550802915, "lng": 77.31425848029151}, "southwest": {"lat": 28.5801571197085, "lng": 77.3115605197085}}}, "place_id": "ChIJVTDZhV7kDDkR0nYVMMbS02A", "plus_code": {"global_code": "7JWVH8J7+J5", "compound_code": "H8J7+J5 Noida, Uttar Pradesh, India"}, "vicinity": "gali no. 1 naya bans sec 15, Noida", "photos": [{"photo_reference": "ATtYBwJQoZptcgsZzk_m17jFWueO_JQPwRIYwDSwaH8BoRw4RClldBHVrXI0egzdO2lJi_15TbKJG14f8FrtX0zPMmmX9rwni-SdMod0HveerFo0MdnEOjPLhZcg7jfU54VGzdfAJHlp8DWnCKEERE4QXsziBfUNMVoUqpLDf-P0gTwMrzAm", "width": 1080, "html_attributions": ["<a href=\"https://maps.google.com/maps/contrib/106520351576328675967\">AKASH PANDEY</a>"], "height": 1920}], "scope": "GOOGLE", "business_status": "CLOSED_TEMPORARILY", "types": ["supermarket", "grocery_or_supermarket", "food", "health", "point_of_interest", "store", "establishment"], "icon": "https://maps.gstatic.com/mapfiles/place_api/icons/v1/png_71/generic_business-71.png"}, {"name": "Anylawns", "reference": "ChIJVVXBZ-7kDDkRv6wx2Yxo9o4", "geometry": {"location": {"lat": 28.6005891, "lng": 77.3165355}, "viewport": {"northeast": {"lat": 28.6018686302915, "lng": 77.3179777302915}, "southwest": {"lat": 28.5991706697085, "lng": 77.3152797697085}}}, "place_id": "ChIJVVXBZ-7kDDkRv6wx2Yxo9o4", "plus_code": {"global_code": "7JWVJ828+6J", "compound_code": "J828+6J New Delhi, Delhi, India"}, "vicinity": "Shop No. A 54, Budh Vihar, Sabzi Market, New Delhi", "scope": "GOOGLE", "business_status": "OPERATIONAL", "types": ["supermarket", "grocery_or_supermarket", "food", "point_of_interest", "store", "establishment"], "icon": "https://maps.gstatic.com/mapfiles/place_api/icons/v1/png_71/shopping-71.png"}, {"name": "Veg Mart", "reference": "ChIJ80EcHADlDDkRCgKYy3s1Ybs", "geometry": {"location": {"lat": 28.5894594, "lng": 77.33276819999999}, "viewport": {"northeast": {"lat": 28.5908594302915, "lng": 77.3340686302915}, "southwest": {"lat": 28.5881614697085, "lng": 77.33137066970848}}}, "opening_hours": {"open_now": false}, "place_id": "ChIJ80EcHADlDDkRCgKYy3s1Ybs", "plus_code": {"global_code": "7JWVH8QM+Q4", "compound_code": "H8QM+Q4 Noida, Uttar Pradesh, India"}, "vicinity": "C Flash, Sector 10, Noida", "scope": "GOOGLE", "business_status": "OPERATIONAL", "types": ["supermarket", "grocery_or_supermarket", "food", "point_of_interest", "store", "establishment"], "icon": "https://maps.gstatic.com/mapfiles/place_api/icons/v1/png_71/shopping-71.png"}, {"rating": 5, "user_ratings_total": 1, "name": "Msjourno stores", "reference": "ChIJ9csEU_7lDDkRwxQdkPD8bEE", "geometry": {"location": {"lat": 28.5820607, "lng": 77.3109035}, "viewport": {"northeast": {"lat": 28.5834291802915, "lng": 77.3122379802915}, "southwest": {"lat": 28.5807312197085, "lng": 77.30954001970849}}}, "opening_hours": {"open_now": true}, "place_id": "ChIJ9csEU_7lDDkRwxQdkPD8bEE", "plus_code": {"global_code": "7JWVH8J6+R9", "compound_code": "H8J6+R9 Noida, Uttar Pradesh, India"}, "vicinity": "Sector 62, Noida", "scope": "GOOGLE", "business_status": "OPERATIONAL", "types": ["supermarket", "grocery_or_supermarket", "food", "point_of_interest", "store", "establishment"], "icon": "https://maps.gstatic.com/mapfiles/place_api/icons/v1/png_71/shopping-71.png"}, {"name": "arora gen store", "reference": "ChIJK8roA4PlDDkR9li2QxLKr7M", "geometry": {"location": {"lat": 28.58179239999999, "lng": 77.3111843}, "viewport": {"northeast": {"lat": 28.5831471302915, "lng": 77.3125439302915}, "southwest": {"lat": 28.5804491697085, "lng": 77.30984596970849}}}, "place_id": "ChIJK8roA4PlDDkR9li2QxLKr7M", "plus_code": {"global_code": "7JWVH8J6+PF", "compound_code": "H8J6+PF Noida, Uttar Pradesh, India"}, "vicinity": "D Block, Sector 15, Noida", "scope": "GOOGLE", "business_status": "OPERATIONAL", "types": ["supermarket", "grocery_or_supermarket", "food", "point_of_interest", "store", "establishment"], "icon": "https://maps.gstatic.com/mapfiles/place_api/icons/v1/png_71/shopping-71.png"}]}