{"status": "OK", "html_attributions": [], "results": [{"rating": 3, "user_ratings_total": 2, "name": "Jain Super Store", "reference": "ChIJGf2j9F_7DDkRD377y3rOBWs", "geometry": {"location": {"lat": 28.7056343, "lng": 77.324372}, "viewport": {"northeast": {"lat": 28.7069827302915, "lng": 77.3256641802915}, "southwest": {"lat": 28.7042847697085, "lng": 77.32296621970849}}}, "place_id": "ChIJGf2j9F_7DDkRD377y3rOBWs", "plus_code": {"global_code": "7JWVP84F+7P", "compound_code": "P84F+7P Delhi, India"}, "vicinity": "A-2/536 GALI, NO .21, 23 Feet Road, Harsh Vihar, Delhi", "photos": [{"photo_reference": "ATtYBwKwmhflpW6_e96ABFWWSqCrkN9jBCZlOi-_W0izhXaz2txSFI0wFAN1jDENgcsBvMjlUUiC1E1my56aG0ih_Qtz-wtqHCIS4RQ9pReKLUuQCaO6zDKF9UJLxM_fOkiwHQnLHU7aExhgmwWv9ML2SAC7F3c4KnaiEV8fYm4VyF1vMHjd", "width": 1080, "html_attributions": ["<a href=\"https://maps.google.com/maps/contrib/118174089605516357698\">Mannan Games channel</a>"], "height": 1440}], "scope": "GOOGLE", "business_status": "OPERATIONAL", "types": ["supermarket", "grocery_or_supermarket", "food", "point_of_interest", "store", "establishment"], "icon": "https://maps.gstatic.com/mapfiles/place_api/icons/v1/png_71/shopping-71.png"}, {"rating": 5, "user_ratings_total": 3, "name": "Bobby General Store", "reference": "ChIJtzrXVU77DDkRvksdDHHin7c", "geometry": {"location": {"lat": 28.70346109999999, "lng": 77.3224295}, "viewport": {"northeast": {"lat": 28.7047755802915, "lng": 77.3237781802915}, "southwest": {"lat": 28.7020776197085, "lng": 77.32108021970849}}}, "opening_hours": {"open_now": true}, "place_id": "ChIJtzrXVU77DDkRvksdDHHin7c", "plus_code": {"global_code": "7JWVP83C+9X", "compound_code": "P83C+9X Delhi, India"}, "vicinity": "B-2/60, Block, Harsh Vihar, Mandoli, Delhi", "scope": "GOOGLE", "business_status": "OPERATIONAL", "types": ["supermarket", "grocery_or_supermarket", "food", "point_of_interest", "store", "establishment"], "icon": "https://maps.gstatic.com/mapfiles/place_api/icons/v1/png_71/shopping-71.png"}, {"rating": 3.8, "user_ratings_total": 10, "name": "Chauhan Thakur General Store", "reference": "ChIJQS_u4tD7DDkRrRpWkyRLGVE", "geometry": {"location": {"lat": 28.7174643, "lng": 77.3237065}, "viewport": {"northeast": {"lat": 28.7188419302915, "lng": 77.3249833802915}, "southwest": {"lat": 28.7161439697085, "lng": 77.32228541970849}}}, "opening_hours": {"open_now": false}, "place_id": "ChIJQS_u4tD7DDkRrRpWkyRLGVE", "plus_code": {"global_code": "7JWVP88F+XF", "compound_code": "P88F+XF Delhi, India"}, "vicinity": "Unnamed Road, New Delhi,, Krishna Vihar, Mandoli, Delhi", "photos": [{"photo_reference": "ATtYBwK2aESSxGEuu9JLaIdIUeKdsnDunz6Mau1M4exx6qL1b10EZ9YDbdbTJ1jvpsj3Mqx0nZRN4bCR76ZHUyMyQQpcu2Tj12J4JkJe_0BFuALyL-fZWo67pHFRAck52nnVGvngx9z9pwwFgoR4MtLtok4MSgJTPiMSy7sDTeaqBZ43oged", "width": 288, "html_attributions": ["<a href=\"https://maps.google.com/maps/contrib/108384443020906183772\">Jagdish Sharma</a>"], "height": 512}], "scope": "GOOGLE", "business_status": "OPERATIONAL", "types": ["supermarket", "grocery_or_supermarket", "food", "point_of_interest", "store", "establishment"], "icon": "https://maps.gstatic.com/mapfiles/place_api/icons/v1/png_71/shopping-71.png"}, {"rating": 3.9, "user_ratings_total": 29, "name": "Rai Book Store", "reference": "ChIJAQAAwMf7DDkROK8kBpT55Sk", "geometry": {"location": {"lat": 28.701235, "lng": 77.320238}, "viewport": {"northeast": {"lat": 28.7025660802915, "lng": 77.3215864302915}, "southwest": {"lat": 28.6998681197085, "lng": 77.3188884697085}}}, "opening_hours": {"open_now": true}, "place_id": "ChIJAQAAwMf7DDkROK8kBpT55Sk", "plus_code": {"global_code": "7JWVP82C+F3", "compound_code": "P82C+F3 Delhi, India"}, "vicinity": "C 1/179, Block C, Harsh Vihar, Mandoli, Delhi", "photos": [{"photo_reference": "ATtYBwK_A7-5Z77PP7y6E7IogGh9z4IrFJCEcMJ7HpZm8PVYr7snGCovIroHKwO8xoEQSWZEcMBW3u30cQCm387XFoBH1iX1pO6hYbvUoaI6Qw-XmzCRNFKl10bAh1p6C0dcvaroX6Gh6Nr8G_4XW2yPtnb5duL7HPIHg4i8NQE24GhcmdQD", "width": 1024, "html_attributions": ["<a href=\"https://maps.google.com/maps/contrib/110426454303070488693\">Rai Book Store</a>"], "height": 370}], "scope": "GOOGLE", "business_status": "OPERATIONAL", "types": ["supermarket", "grocery_or_supermarket", "food", "point_of_interest", "store", "establishment"], "icon": "https://maps.gstatic.com/mapfiles/place_api/icons/v1/png_71/shopping-71.png"}, {"rating": 4.6, "user_ratings_total": 8, "name": "Singhal Store", "reference": "ChIJ7y4E7cD7DDkR9kJ8jGK5MhA", "geometry": {"location": {"lat": 28.702875, "lng": 77.31320529999999}, "viewport": {"northeast": {"lat": 28.70420928029149, "lng": 77.3145538802915}, "southwest": {"lat": 28.70151131970849, "lng": 77.31185591970849}}}, "opening_hours": {"open_now": true}, "place_id": "ChIJ7y4E7cD7DDkR9kJ8jGK5MhA", "plus_code": {"global_code": "7JWVP837+47", "compound_code": "P837+47 Delhi, India"}, "vicinity": "Pocket A, Bank Colony, Mandoli, Delhi", "scope": "GOOGLE", "business_status": "OPERATIONAL", "types": ["supermarket", "grocery_or_supermarket", "food", "point_of_interest", "store", "establishment"], "icon": "https://maps.gstatic.com/mapfiles/place_api/icons/v1/png_71/shopping-71.png"}, {"name": "Vinod Rai Dairy \ud83d\udc51 General Store", "reference": "ChIJV8DwO_L7DDkRiQpTW33AblY", "geometry": {"location": {"lat": 28.7165, "lng": 77.31224329999999}, "viewport": {"northeast": {"lat": 28.7178876302915, "lng": 77.3136220802915}, "southwest": {"lat": 28.7151896697085, "lng": 77.31092411970849}}}, "place_id": "ChIJV8DwO_L7DDkRiQpTW33AblY", "plus_code": {"global_code": "7JWVP886+HV", "compound_code": "P886+HV Delhi, India"}, "vicinity": "Govind Town, Mandoli, Delhi", "photos": [{"photo_reference": "ATtYBwKAHN-AoVP0wAp-FeQB9rXwxILJaJn1Upm53DSEuMiEi9ATndf4af7bx6oxISywB9jbw21i84OkLvwYq7p5Y2hRcU3J8d7n-FmYHl4wgNU9bl5HgxpiD1m4N9TqIalgGbFVlRyklm45-Q_SFK31HkbeLjcjtH38eNxdMYt4FFqgK0RH", "width": 418, "html_attributions": ["<a href=\"https://maps.google.com/maps/contrib/107061881600491877470\">Chandan indian</a>"], "height": 550}], "scope": "GOOGLE", "business_status": "OPERATIONAL", "types": ["supermarket", "grocery_or_supermarket", "food", "point_of_interest", "store", "establishment"], "icon": "https://maps.gstatic.com/mapfiles/place_api/icons/v1/png_71/shopping-71.png"}, {"name": "Ratan market mandoli", "reference": "ChIJZw7C_l37DDkRp8uNoVpXIqk", "geometry": {"location": {"lat": 28.7024136, "lng": 77.30995690000002}, "viewport": {"northeast": {"lat": 28.7037625802915, "lng": 77.31130588029151}, "southwest": {"lat": 28.7010646197085, "lng": 77.3086079197085}}}, "place_id": "ChIJZw7C_l37DDkRp8uNoVpXIqk", "plus_code": {"global_code": "7JWVP825+XX", "compound_code": "P825+XX Delhi, India"}, "vicinity": "Pani Tanki Road, Mandoli Extension, Mandoli, Delhi", "scope": "GOOGLE", "business_status": "OPERATIONAL", "types": ["supermarket", "grocery_or_supermarket", "food", "point_of_interest", "store", "establishment"], "icon": "https://maps.gstatic.com/mapfiles/place_api/icons/v1/png_71/shopping-71.png"}, {"rating": 4.1, "user_ratings_total": 54, "name": "Shoes Market", "reference": "ChIJB6uXEbf7DDkRiumKtSDuH2g", "geometry": {"location": {"lat": 28.6984896, "lng": 77.3229137}, "viewport": {"northeast": {"lat": 28.6999214802915, "lng": 77.32421778029152}, "southwest": {"lat": 28.6972235197085, "lng": 77.32151981970851}}}, "opening_hours": {"open_now": false}, "place_id": "ChIJB6uXEbf7DDkRiumKtSDuH2g", "plus_code": {"global_code": "7JWVM8XF+95", "compound_code": "M8XF+95 Ghaziabad, Uttar Pradesh, India"}, "vicinity": "3, Wazirabad Road, Block N, Tulasi Niketan, Bhopura, Ghaziabad", "photos": [{"photo_reference": "ATtYBwKYLlUgIPg2059UJ_8VAfCVKDNF5EZmi4ypAdDQPfejQPrO6wHheDR0UdzMTcQP52xWDNSRJF5Rfw_M9_6EY1C13w3bwNpxhLe2nzLR4KHlCAxOyyqf60HNc3QpAGpBgiiM6KG_bWcLmHjmN4Sq6Mn0YNjc8CHw9crmu17eyFpC-3NN", "width": 1920, "html_attributions": ["<a href=\"https://maps.google.com/maps/contrib/109336089460649415586\">Shubham Sharma</a>"], "height": 1080}], "scope": "GOOGLE", "business_status": "OPERATIONAL", "types": ["supermarket", "grocery_or_supermarket", "food", "point_of_interest", "store", "establishment"], "icon": "https://maps.gstatic.com/mapfiles/place_api/icons/v1/png_71/shopping-71.png"}, {"name": "Durga Genral Store", "reference": "ChIJTSQpBcD7DDkROhErF6wQktI", "geometry": {"location": {"lat": 28.7016701, "lng": 77.3100249}, "viewport": {"northeast": {"lat": 28.7030338302915, "lng": 77.3113721302915}, "southwest": {"lat": 28.7003358697085, "lng": 77.3086741697085}}}, "opening_hours": {"open_now": false}, "place_id": "ChIJTSQpBcD7DDkROhErF6wQktI", "plus_code": {"global_code": "7JWVP826+M2", "compound_code": "P826+M2 Delhi, India"}, "vicinity": "Bank Colony Road, Mandoli Extension, Mandoli, Delhi", "scope": "GOOGLE", "business_status": "OPERATIONAL", "types": ["supermarket", "grocery_or_supermarket", "food", "point_of_interest", "store", "establishment"], "icon": "https://maps.gstatic.com/mapfiles/place_api/icons/v1/png_71/shopping-71.png"}, {"name": "Prajapati Water Plant", "reference": "ChIJ36QLzS77DDkR2wtNicZT_iE", "geometry": {"location": {"lat": 28.7006197, "lng": 77.3288529}, "viewport": {"northeast": {"lat": 28.7019609302915, "lng": 77.3302118802915}, "southwest": {"lat": 28.6992629697085, "lng": 77.3275139197085}}}, "opening_hours": {"open_now": true}, "place_id": "ChIJ36QLzS77DDkR2wtNicZT_iE", "plus_code": {"global_code": "7JWVP82H+6G", "compound_code": "P82H+6G Bhopura, Ghaziabad, Uttar Pradesh, India"}, "vicinity": "krishna vihar, Bhopura, kutti", "scope": "GOOGLE", "business_status": "OPERATIONAL", "types": ["supermarket", "grocery_or_supermarket", "food", "point_of_interest", "store", "establishment"], "icon": "https://maps.gstatic.com/mapfiles/place_api/icons/v1/png_71/shopping-71.png"}, {"name": "Ajay communication", "reference": "ChIJxzT1k5f7DDkRoC20yTewPpI", "geometry": {"location": {"lat": 28.6992903, "lng": 77.326876}, "viewport": {"northeast": {"lat": 28.7006114302915, "lng": 77.3282082802915}, "southwest": {"lat": 28.6979134697085, "lng": 77.3255103197085}}}, "place_id": "ChIJxzT1k5f7DDkRoC20yTewPpI", "plus_code": {"global_code": "7JWVM8XG+PQ", "compound_code": "M8XG+PQ Ghaziabad, Uttar Pradesh, India"}, "vicinity": "Som Bazar Road, Tilak Ram Colony, Behta Hajipur, Ghaziabad", "photos": [{"photo_reference": "ATtYBwKMs3LZz-g3mzN8yDVPNA6mW5o1tzeBcob7Jgqupdb-lrnyBJ1iMV2TGuZpFzHK301wz6YVABQi50ps4-DY9OJDgZvDnJVa8-UaTpGFBnIuEIzqoJM6QNeq3i-3afhJ8Qo2HMvN56tIpvc9QKGx4LpDVycr00OJNs1l61yldBQ4cLPu", "width": 4160, "html_attributions": ["<a href=\"https://maps.google.com/maps/contrib/112646533798653177712\">Ajay kashyap</a>"], "height": 1920}], "scope": "GOOGLE", "business_status": "OPERATIONAL", "types": ["supermarket", "grocery_or_supermarket", "food", "point_of_interest", "store", "establishment"], "icon": "https://maps.gstatic.com/mapfiles/place_api/icons/v1/png_71/shopping-71.png"}, {"name": "Prashant sweets", "reference": "ChIJUX6O2_D7DDkRZDYgaU2oQC4", "geometry": {"location": {"lat": 28.71911969999999, "lng": 77.31036720000002}, "viewport": {"northeast": {"lat": 28.7204309802915, "lng": 77.3117035802915}, "southwest": {"lat": 28.7177330197085, "lng": 77.3090056197085}}}, "place_id": "ChIJUX6O2_D7DDkRZDYgaU2oQC4", "plus_code": {"global_code": "7JWVP896+J4", "compound_code": "P896+J4 Ghaziabad, Uttar Pradesh, India"}, "vicinity": "Rahul Garden, Behta Hajipur, Ghaziabad", "photos": [{"photo_reference": "ATtYBwLC_ZnSVkPAk_BUG3KTYCKJAlL4TLZWi43ruJXOFu44NtliLWD_uLA9s2d2062Rjrs63JGcFCHkaiXhZqIHd8XgiQzqW_elAtUMTLBfIeA7_esUoscgK6-hJ0kiN1Z0FYTPdJxDFTGZj0UDoxvGPVCGLkbC_Ic3UwgQ7HZLLzGNv-o9", "width": 1080, "html_attributions": ["<a href=\"https://maps.google.com/maps/contrib/111659652808402760980\">Gaurav Sagar</a>"], "height": 1920}], "scope": "GOOGLE", "business_status": "OPERATIONAL", "types": ["supermarket", "grocery_or_supermarket", "food", "point_of_interest", "store", "establishment"], "icon": "https://maps.gstatic.com/mapfiles/place_api/icons/v1/png_71/shopping-71.png"}]}