{"status": "OK", "html_attributions": [], "results": [{"rating": 4.6, "user_ratings_total": 37, "permanently_closed": true, "name": "Trident International School", "reference": "ChIJyQ75L1mWyzsRCmOYaDtcuPM", "geometry": {"location": {"lat": 17.3738495, "lng": 78.4124599}, "viewport": {"northeast": {"lat": 17.3752544802915, "lng": 78.4138114302915}, "southwest": {"lat": 17.3725565197085, "lng": 78.4111134697085}}}, "place_id": "ChIJyQ75L1mWyzsRCmOYaDtcuPM", "plus_code": {"global_code": "7J9W9CF6+GX", "compound_code": "9CF6+GX Hyderabad, Telangana, India"}, "vicinity": "Bapughat, Bapu Nagar, Langar Houz, Hyderabad", "photos": [{"photo_reference": "ATtYBwIC8y3a56zUlzd5DF8TPnWRum6o6qm8rI1mZHdRXuciMxsWHIaCKgySw8W_vAOmXYLs_pTr0TEMlx-eTNVsf8eNkY0tGRBIXiBsryeDPeAH2lP5MY03GP-nJeJ5YjWOLlOmCXnjnQjXUoh9IlzYEEtmree0AKwS90ax261nUMY19CC9", "width": 2976, "html_attributions": ["<a href=\"https://maps.google.com/maps/contrib/110616895748703955488\">Trident International School</a>"], "height": 1984}], "scope": "GOOGLE", "business_status": "CLOSED_TEMPORARILY", "types": ["primary_school", "school", "point_of_interest", "establishment"], "icon": "https://maps.gstatic.com/mapfiles/place_api/icons/v1/png_71/school-71.png"}, {"rating": 3.3, "user_ratings_total": 3, "name": "Government Boys Primary School Second lancer", "reference": "ChIJK0QuiIyWyzsRr-1z6e5k4oc", "geometry": {"location": {"lat": 17.383333, "lng": 78.4041671}, "viewport": {"northeast": {"lat": 17.3846819802915, "lng": 78.4055160802915}, "southwest": {"lat": 17.3819840197085, "lng": 78.40281811970848}}}, "place_id": "ChIJK0QuiIyWyzsRr-1z6e5k4oc", "plus_code": {"global_code": "7J9W9CM3+8M", "compound_code": "9CM3+8M Hyderabad, Telangana, India"}, "vicinity": "93218, Mohammadi Line, Golconda, Hyderabad", "photos": [{"photo_reference": "ATtYBwIEJbFO-n-czwvtmRDnyHbng4zMpVh20_opxtmrDzRtPMpYjITC-cfxe4Bzv3G3yYwfbS2-NOwNk6i2DyMin0vgJNC7-aLolYhcC7vjARVbn4GcNR1LqLEP3MCPTVvpLPtYkWyItqwtyQUrcOZrFCnWlUhzVIRtuPGbLfvq5YljRp_X", "width": 1872, "html_attributions": ["<a href=\"https://maps.google.com/maps/contrib/112340791002947024964\">chandan panaskar</a>"], "height": 3328}], "scope": "GOOGLE", "business_status": "OPERATIONAL", "types": ["primary_school", "school", "point_of_interest", "establishment"], "icon": "https://maps.gstatic.com/mapfiles/place_api/icons/v1/png_71/school-71.png"}, {"rating": 4, "user_ratings_total": 2, "name": "Govt. Bala Jyothi Primary School Dhanalaxminagar", "reference": "ChIJAQAAGY2WyzsR5qp-Nmvq6AY", "geometry": {"location": {"lat": 17.3859955, "lng": 78.4053764}, "viewport": {"northeast": {"lat": 17.3874105802915, "lng": 78.4067207302915}, "southwest": {"lat": 17.3847126197085, "lng": 78.40402276970849}}}, "place_id": "ChIJAQAAGY2WyzsR5qp-Nmvq6AY", "plus_code": {"global_code": "7J9W9CP4+95", "compound_code": "9CP4+95 Hyderabad, Telangana, India"}, "vicinity": "Moti Mahal, Jinsi Bazar, Golconda Fort, Hyderabad", "scope": "GOOGLE", "business_status": "OPERATIONAL", "types": ["primary_school", "school", "point_of_interest", "establishment"], "icon": "https://maps.gstatic.com/mapfiles/place_api/icons/v1/png_71/school-71.png"}, {"name": "Govt. Primary School Lunger House", "reference": "ChIJ____j16WyzsRZZ3ZtnORe-0", "geometry": {"location": {"lat": 17.3719097, "lng": 78.4105275}, "viewport": {"northeast": {"lat": 17.3736077302915, "lng": 78.4119552802915}, "southwest": {"lat": 17.3709097697085, "lng": 78.40925731970849}}}, "place_id": "ChIJ____j16WyzsRZZ3ZtnORe-0", "plus_code": {"global_code": "7J9W9CC6+Q6", "compound_code": "9CC6+Q6 Hyderabad, Telangana, India"}, "vicinity": "Hashim Nagar, Langar Houz, Hyderabad", "scope": "GOOGLE", "business_status": "OPERATIONAL", "types": ["primary_school", "school", "point_of_interest", "establishment"], "icon": "https://maps.gstatic.com/mapfiles/place_api/icons/v1/png_71/school-71.png"}, {"name": "Govt. Primary School Jagadish Patashala", "reference": "ChIJgRrM1O2WyzsR3Y_ixd-s27s", "geometry": {"location": {"lat": 17.3916498, "lng": 78.4124191}, "viewport": {"northeast": {"lat": 17.3930041802915, "lng": 78.4136917802915}, "southwest": {"lat": 17.3903062197085, "lng": 78.4109938197085}}}, "place_id": "ChIJgRrM1O2WyzsR3Y_ixd-s27s", "vicinity": "Kalidaspura, Community Hall,Hyderabad, Lunger House", "scope": "GOOGLE", "business_status": "OPERATIONAL", "types": ["primary_school", "school", "point_of_interest", "establishment"], "icon": "https://maps.gstatic.com/mapfiles/place_api/icons/v1/png_71/school-71.png"}, {"rating": 1, "user_ratings_total": 1, "name": "Leading Up School", "reference": "ChIJVVVVgfSWyzsRw-v9emKUgaM", "geometry": {"location": {"lat": 17.3823996, "lng": 78.40946129999999}, "viewport": {"northeast": {"lat": 17.3837385302915, "lng": 78.4108354302915}, "southwest": {"lat": 17.3810405697085, "lng": 78.40813746970848}}}, "place_id": "ChIJVVVVgfSWyzsRw-v9emKUgaM", "plus_code": {"global_code": "7J9W9CJ5+XQ", "compound_code": "9CJ5+XQ Hyderabad, Telangana, India"}, "vicinity": "128152a, Chota Bazar, Golconda Fort, Hyderabad", "scope": "GOOGLE", "business_status": "OPERATIONAL", "types": ["primary_school", "school", "point_of_interest", "establishment"], "icon": "https://maps.gstatic.com/mapfiles/place_api/icons/v1/png_71/school-71.png"}, {"rating": 4.3, "user_ratings_total": 3, "name": "Little Paradise Primary School", "reference": "ChIJpy2rnvSWyzsRO7t5F04GdfM", "geometry": {"location": {"lat": 17.382358, "lng": 78.408737}, "viewport": {"northeast": {"lat": 17.3836973302915, "lng": 78.4100811802915}, "southwest": {"lat": 17.3809993697085, "lng": 78.40738321970848}}}, "place_id": "ChIJpy2rnvSWyzsRO7t5F04GdfM", "plus_code": {"global_code": "7J9W9CJ5+WF", "compound_code": "9CJ5+WF Hyderabad, Telangana, India"}, "vicinity": "9-8-110/8/A , Saleh Nagar, Chota bazar, Golconda Fort, Hyderabad", "photos": [{"photo_reference": "ATtYBwLWXDtO0o44XFR342rzZV3NS84FTBlxfLWZCv_WMscAvCqAsPyu9-vnWiukxDReab-xJ_eFxvX4C9fc6XKmS3xGLqlaYzbO43Re4k4Pl6qI8nKL4SCffS45ESHA2fwbEWTnH1_RlQ-8MWi_8pRcIsfSlZr7C4_2ATAW1VRdm-DBTKQe", "width": 1844, "html_attributions": ["<a href=\"https://maps.google.com/maps/contrib/111624172683414894686\">Anonymous Writes</a>"], "height": 4000}], "scope": "GOOGLE", "business_status": "OPERATIONAL", "types": ["primary_school", "school", "point_of_interest", "establishment"], "icon": "https://maps.gstatic.com/mapfiles/place_api/icons/v1/png_71/school-71.png"}, {"name": "Alpha Upper Primary school", "reference": "ChIJK0QuiIyWyzsRN-AaKR7kgxw", "geometry": {"location": {"lat": 17.383333, "lng": 78.4041671}, "viewport": {"northeast": {"lat": 17.3846819802915, "lng": 78.4055160802915}, "southwest": {"lat": 17.3819840197085, "lng": 78.40281811970848}}}, "place_id": "ChIJK0QuiIyWyzsRN-AaKR7kgxw", "plus_code": {"global_code": "7J9W9CM3+8M", "compound_code": "9CM3+8M Hyderabad, Telangana, India"}, "vicinity": "Golconda, Hyderabad", "scope": "GOOGLE", "business_status": "OPERATIONAL", "types": ["primary_school", "school", "point_of_interest", "establishment"], "icon": "https://maps.gstatic.com/mapfiles/place_api/icons/v1/png_71/school-71.png"}, {"rating": 5, "user_ratings_total": 1, "name": "Bapuji Primary School", "reference": "ChIJn7Y-OFmWyzsROKzDicX9gs4", "geometry": {"location": {"lat": 17.37292, "lng": 78.4134421}, "viewport": {"northeast": {"lat": 17.3743085802915, "lng": 78.41478723029151}, "southwest": {"lat": 17.3716106197085, "lng": 78.41208926970849}}}, "place_id": "ChIJn7Y-OFmWyzsROKzDicX9gs4", "plus_code": {"global_code": "7J9W9CF7+59", "compound_code": "9CF7+59 Hyderabad, Telangana, India"}, "vicinity": "Bapu Ghat, Hyderabad", "photos": [{"photo_reference": "ATtYBwISzYzDpl-JsLjW9y5_aNxnC2Nn45mTorqSbpxhl6wARrr96wXRLOkMuyKl-IP7JWQUw7ur9IauW4E_01U1UmXYfjrz3Fo8bBF8Tt2bRFQLYtMN84FxOtxNDQJeuSdSBOV0yYe7o4rL7rLeYrSEvA2Un5Nna0xy_04SqS3k3S-_vV0A", "width": 1536, "html_attributions": ["<a href=\"https://maps.google.com/maps/contrib/104210274137582122367\">Harish</a>"], "height": 2048}], "scope": "GOOGLE", "business_status": "OPERATIONAL", "types": ["primary_school", "school", "point_of_interest", "establishment"], "icon": "https://maps.gstatic.com/mapfiles/place_api/icons/v1/png_71/school-71.png"}, {"name": "Kranthi Primary School", "reference": "ChIJq6qqGliWyzsRFRctURJJ9f4", "geometry": {"location": {"lat": 17.376691, "lng": 78.4176688}, "viewport": {"northeast": {"lat": 17.3780404802915, "lng": 78.41900678029151}, "southwest": {"lat": 17.3753425197085, "lng": 78.41630881970849}}}, "place_id": "ChIJq6qqGliWyzsRFRctURJJ9f4", "plus_code": {"global_code": "7J9W9CG9+M3", "compound_code": "9CG9+M3 Hyderabad, Telangana, India"}, "vicinity": "91413, Prashanth Nagar, Langar Houz, Hyderabad", "scope": "GOOGLE", "business_status": "OPERATIONAL", "types": ["primary_school", "school", "point_of_interest", "establishment"], "icon": "https://maps.gstatic.com/mapfiles/place_api/icons/v1/png_71/school-71.png"}, {"name": "Reven Dale Primary School", "reference": "ChIJgRrM1O2WyzsRJL7oZRPKyf8", "geometry": {"location": {"lat": 17.3916498, "lng": 78.4124191}, "viewport": {"northeast": {"lat": 17.3930041802915, "lng": 78.4136917802915}, "southwest": {"lat": 17.3903062197085, "lng": 78.4109938197085}}}, "place_id": "ChIJgRrM1O2WyzsRJL7oZRPKyf8", "vicinity": "Galaxy Theatre, Tolochowki, Hyderabad", "scope": "GOOGLE", "business_status": "OPERATIONAL", "types": ["primary_school", "school", "point_of_interest", "establishment"], "icon": "https://maps.gstatic.com/mapfiles/place_api/icons/v1/png_71/school-71.png"}, {"name": "Golden Jubilee Primary School", "reference": "ChIJgRrM1O2WyzsRAQT_yKfAcp4", "geometry": {"location": {"lat": 17.3916498, "lng": 78.4124191}, "viewport": {"northeast": {"lat": 17.3930041802915, "lng": 78.4136917802915}, "southwest": {"lat": 17.3903062197085, "lng": 78.4109938197085}}}, "place_id": "ChIJgRrM1O2WyzsRAQT_yKfAcp4", "vicinity": "Chandni Building, Langar Houz, Hyderabad", "scope": "GOOGLE", "business_status": "OPERATIONAL", "types": ["primary_school", "school", "point_of_interest", "establishment"], "icon": "https://maps.gstatic.com/mapfiles/place_api/icons/v1/png_71/school-71.png"}]}