{"status": "OK", "html_attributions": [], "results": [{"rating": 5, "user_ratings_total": 1, "name": "Funschool", "reference": "ChIJ63Z1FxmRyzsRTPfelObBfa4", "geometry": {"location": {"lat": 17.453451, "lng": 78.42262699999999}, "viewport": {"northeast": {"lat": 17.4547971302915, "lng": 78.4239296302915}, "southwest": {"lat": 17.4520991697085, "lng": 78.42123166970849}}}, "opening_hours": {"open_now": false}, "place_id": "ChIJ63Z1FxmRyzsRTPfelObBfa4", "plus_code": {"global_code": "7J9WFC3F+93", "compound_code": "FC3F+93 Hyderabad, Telangana, India"}, "vicinity": "Sriram Nagar Road, Kalyan Nagar, Moti Nagar, Hyderabad", "scope": "GOOGLE", "business_status": "OPERATIONAL", "types": ["primary_school", "school", "point_of_interest", "establishment"], "icon": "https://maps.gstatic.com/mapfiles/place_api/icons/v1/png_71/school-71.png"}, {"rating": 5, "user_ratings_total": 2, "permanently_closed": true, "name": "Sri Amogha School", "reference": "ChIJl9cTz-eQyzsRWDBrGRjPsmA", "geometry": {"location": {"lat": 17.451189, "lng": 78.4393612}, "viewport": {"northeast": {"lat": 17.4525925302915, "lng": 78.44068903029151}, "southwest": {"lat": 17.44989456970849, "lng": 78.4379910697085}}}, "place_id": "ChIJl9cTz-eQyzsRWDBrGRjPsmA", "plus_code": {"global_code": "7J9WFC2Q+FP", "compound_code": "FC2Q+FP Hyderabad, Telangana, India"}, "vicinity": "Plot #38, Sundar Nagar Colony, Sundar Nagar, Sanath Nagar, Hyderabad", "photos": [{"photo_reference": "ATtYBwIFkkViUpXpM6C3LDbRPtl6-3aOdQC315uj8YmWxuD415Pw9F7QAUAYB-xyp_3q-PLBtGSbCG1kiyFJdfqXE5C3iwxNFiCgnK3d_DaIj8OXqGyiezgXmRmt-vOfp68Dq78BozPrdekLBW3FBKAj98ig1FPER2PXfF_yaiVHtUYlHglB", "width": 1040, "html_attributions": ["<a href=\"https://maps.google.com/maps/contrib/105006049585862960730\">Sri Amogha School</a>"], "height": 780}], "scope": "GOOGLE", "business_status": "CLOSED_TEMPORARILY", "types": ["primary_school", "school", "point_of_interest", "establishment"], "icon": "https://maps.gstatic.com/mapfiles/place_api/icons/v1/png_71/school-71.png"}, {"rating": 4.8, "user_ratings_total": 4, "name": "Seven Hills Primary School", "reference": "ChIJ____bxuRyzsRUKzdrt-QQZg", "geometry": {"location": {"lat": 17.4552519, "lng": 78.42414749999999}, "viewport": {"northeast": {"lat": 17.4566547802915, "lng": 78.4254894802915}, "southwest": {"lat": 17.45395681970849, "lng": 78.42279151970848}}}, "opening_hours": {"open_now": false}, "place_id": "ChIJ____bxuRyzsRUKzdrt-QQZg", "plus_code": {"global_code": "7J9WFC4F+4M", "compound_code": "FC4F+4M Hyderabad, Telangana, India"}, "vicinity": "Moti Nagar, Hyderabad", "photos": [{"photo_reference": "ATtYBwLLe2V-etbDq503GF7eA41H5xCBo0WcLT_fNJm0up2b_PhCnTD-5qI2QEgbCEBpTBrSh8tY_AN4rBM4gtloQ2OSbEATCd62ZeABr413Tk0eLTyf0Cp1VfLxbKiy-PxkT9V4yOrlxTTgCfrHVzkP_9EmodPdq6qm6d5yZuVuRX5olVD7", "width": 1280, "html_attributions": ["<a href=\"https://maps.google.com/maps/contrib/115456674788909736708\">Naren Chandra</a>"], "height": 720}], "scope": "GOOGLE", "business_status": "OPERATIONAL", "types": ["primary_school", "school", "point_of_interest", "establishment"], "icon": "https://maps.gstatic.com/mapfiles/place_api/icons/v1/png_71/school-71.png"}, {"name": "Ashok Elementary School", "reference": "ChIJ77rXDBuRyzsRIZzI8_nMQEQ", "geometry": {"location": {"lat": 17.4568568, "lng": 78.4225747}, "viewport": {"northeast": {"lat": 17.45820928029151, "lng": 78.42385858029151}, "southwest": {"lat": 17.4555113197085, "lng": 78.4211606197085}}}, "place_id": "ChIJ77rXDBuRyzsRIZzI8_nMQEQ", "plus_code": {"global_code": "7J9WFC4F+P2", "compound_code": "FC4F+P2 Hyderabad, Telangana, India"}, "vicinity": "Madhavi Estate, Moti Nagar, Erragadda, Hyderabad", "scope": "GOOGLE", "business_status": "OPERATIONAL", "types": ["primary_school", "school", "point_of_interest", "establishment"], "icon": "https://maps.gstatic.com/mapfiles/place_api/icons/v1/png_71/school-71.png"}, {"rating": 4.7, "user_ratings_total": 59, "name": "KIDZ MEDHA SCHOOL", "reference": "ChIJPxImrB6RyzsR_b3MbcBGF-4", "geometry": {"location": {"lat": 17.45290779999999, "lng": 78.4245054}, "viewport": {"northeast": {"lat": 17.4542466302915, "lng": 78.4257667302915}, "southwest": {"lat": 17.45154866970849, "lng": 78.42306876970848}}}, "opening_hours": {"open_now": false}, "place_id": "ChIJPxImrB6RyzsR_b3MbcBGF-4", "plus_code": {"global_code": "7J9WFC3F+5R", "compound_code": "FC3F+5R Hyderabad, Telangana, India"}, "vicinity": "beside Royal Functional Hall, #13-1-201, Plot No.3, beside Royal Functional Hall, BSP Colony, Moti Nagar, Hyderabad", "photos": [{"photo_reference": "ATtYBwKFlity6eRFvFs5bqgy0jinHRUFP6DPxIx5PCZ6EeLyFw-njuPtmkTtxkBejIP7DJ_t1dNDO2QKV0h2EHasXRIR_5oiPW3b3VkEIJFONYF3IDM2vN7n4RgrJjI_UcYPs7zve4Abv7FW0tPSPlbr0KbEG7B_HIbHGHyJAUL3o-3GcJna", "width": 4608, "html_attributions": ["<a href=\"https://maps.google.com/maps/contrib/116692538768676845348\">Venkatesh Jangala</a>"], "height": 3456}], "scope": "GOOGLE", "business_status": "OPERATIONAL", "types": ["primary_school", "school", "point_of_interest", "establishment"], "icon": "https://maps.gstatic.com/mapfiles/place_api/icons/v1/png_71/school-71.png"}, {"name": "Glory Foundation Primary School", "reference": "ChIJealUZRmRyzsRpgOYPINxC4A", "geometry": {"location": {"lat": 17.4526719, "lng": 78.4219016}, "viewport": {"northeast": {"lat": 17.4540184302915, "lng": 78.42319453029151}, "southwest": {"lat": 17.4513204697085, "lng": 78.42049656970849}}}, "place_id": "ChIJealUZRmRyzsRpgOYPINxC4A", "plus_code": {"global_code": "7J9WFC3C+3Q", "compound_code": "FC3C+3Q Kalyan Nagar, Erragadda, Hyderabad, Telangana, India"}, "vicinity": "198 Opp. MCH Park, Siddarthanagar, Community Hall, Hyderabad, Kalyan Nagar", "scope": "GOOGLE", "business_status": "OPERATIONAL", "types": ["primary_school", "school", "point_of_interest", "establishment"], "icon": "https://maps.gstatic.com/mapfiles/place_api/icons/v1/png_71/school-71.png"}]}