{"status": "OK", "html_attributions": [], "results": [{"rating": 4.4, "user_ratings_total": 5, "name": "Braim Model Primary School", "reference": "ChIJAd6BOpOXyzsRsqJ0kQn74R4", "geometry": {"location": {"lat": 17.3578339, "lng": 78.460473}, "viewport": {"northeast": {"lat": 17.3592068802915, "lng": 78.46182693029151}, "southwest": {"lat": 17.3565089197085, "lng": 78.4591289697085}}}, "place_id": "ChIJAd6BOpOXyzsRsqJ0kQn74R4", "plus_code": {"global_code": "7J9W9F56+45", "compound_code": "9F56+45 Hyderabad, Telangana, India"}, "vicinity": "19-1-436/A/89, Osman Bagh, kamathipura, Bahadurpura, Hyderabad", "photos": [{"photo_reference": "ATtYBwKDrDd-PYNP9PwcyvQvCjRQxKJSyWBKsnF0gu2ifBW1c-Pdckd6MRlIuNi0EOfOu1mudrodnDbG5vdEQJ21CwEPQnyTBhrb1fAyWOgTjLS_cxbNplc3icxABFLiuUYlIu0D6I7KdjLuYvcg-CzDwPpR9AOmsc6tcUtcZ3PGeu-IdHnW", "width": 3096, "html_attributions": ["<a href=\"https://maps.google.com/maps/contrib/110968983957414380012\">Mahmood Ahmed siddiqui</a>"], "height": 4128}], "scope": "GOOGLE", "business_status": "OPERATIONAL", "types": ["secondary_school", "primary_school", "school", "point_of_interest", "establishment"], "icon": "https://maps.gstatic.com/mapfiles/place_api/icons/v1/png_71/school-71.png"}, {"rating": 4.5, "user_ratings_total": 2, "name": "Modern Upper Primary School", "reference": "ChIJ9YwonZGXyzsR8GYgjbKVcZs", "geometry": {"location": {"lat": 17.363257, "lng": 78.46115019999999}, "viewport": {"northeast": {"lat": 17.3645433302915, "lng": 78.4625011802915}, "southwest": {"lat": 17.3618453697085, "lng": 78.45980321970848}}}, "place_id": "ChIJ9YwonZGXyzsR8GYgjbKVcZs", "plus_code": {"global_code": "7J9W9F76+8F", "compound_code": "9F76+8F Hyderabad, Telangana, India"}, "vicinity": "Kokatat Colony, Puranapool, Hyderabad", "scope": "GOOGLE", "business_status": "OPERATIONAL", "types": ["primary_school", "school", "point_of_interest", "establishment"], "icon": "https://maps.gstatic.com/mapfiles/place_api/icons/v1/png_71/school-71.png"}, {"name": "Madina Mission Primary School", "reference": "ChIJAQAA0JKXyzsRzwT2cpOFBRg", "geometry": {"location": {"lat": 17.357415, "lng": 78.4616997}, "viewport": {"northeast": {"lat": 17.3589093802915, "lng": 78.4630561302915}, "southwest": {"lat": 17.3562114197085, "lng": 78.46035816970848}}}, "place_id": "ChIJAQAA0JKXyzsRzwT2cpOFBRg", "plus_code": {"global_code": "7J9W9F46+XM", "compound_code": "9F46+XM Hyderabad, Telangana, India"}, "vicinity": "near Rama Talkies, 19-2-270/4, Shareef Complex, Bahadurpura, near Rama Talkies, Hyderabad", "scope": "GOOGLE", "business_status": "OPERATIONAL", "types": ["primary_school", "school", "point_of_interest", "establishment"], "icon": "https://maps.gstatic.com/mapfiles/place_api/icons/v1/png_71/school-71.png"}, {"name": "St. Swamy Vidya Nikethan High School", "reference": "ChIJBXADHJqXyzsRTNPWPn1--rU", "geometry": {"location": {"lat": 17.3692268, "lng": 78.4584627}, "viewport": {"northeast": {"lat": 17.3705656302915, "lng": 78.45981698029149}, "southwest": {"lat": 17.3678676697085, "lng": 78.45711901970849}}}, "place_id": "ChIJBXADHJqXyzsRTNPWPn1--rU", "plus_code": {"global_code": "7J9W9F95+M9", "compound_code": "9F95+M9 Hyderabad, Telangana, India"}, "vicinity": "Gandhi Statue, Purana Pool, Hyderabad", "scope": "GOOGLE", "business_status": "OPERATIONAL", "types": ["primary_school", "school", "point_of_interest", "establishment"], "icon": "https://maps.gstatic.com/mapfiles/place_api/icons/v1/png_71/school-71.png"}, {"name": "Mani Jeeramaiah Primary School", "reference": "ChIJU1VVUZCXyzsRZ9oUG2Gqpvs", "geometry": {"location": {"lat": 17.3657753, "lng": 78.4613744}, "viewport": {"northeast": {"lat": 17.3672187802915, "lng": 78.4627583802915}, "southwest": {"lat": 17.3645208197085, "lng": 78.46006041970848}}}, "place_id": "ChIJU1VVUZCXyzsRZ9oUG2Gqpvs", "plus_code": {"global_code": "7J9W9F86+8G", "compound_code": "9F86+8G Hyderabad, Telangana, India"}, "vicinity": "Bowli Gulab Singh, Hyderabad", "scope": "GOOGLE", "business_status": "OPERATIONAL", "types": ["primary_school", "school", "point_of_interest", "establishment"], "icon": "https://maps.gstatic.com/mapfiles/place_api/icons/v1/png_71/school-71.png"}, {"rating": 3, "user_ratings_total": 1, "name": "Govt. Primary School , Mustaidpura Karwan", "reference": "ChIJhQ4Rn5iXyzsR5Xev9dQpBC4", "geometry": {"location": {"lat": 17.372065, "lng": 78.4526942}, "viewport": {"northeast": {"lat": 17.3733679802915, "lng": 78.45403738029151}, "southwest": {"lat": 17.37067001970849, "lng": 78.4513394197085}}}, "place_id": "ChIJhQ4Rn5iXyzsR5Xev9dQpBC4", "plus_code": {"global_code": "7J9W9FC3+R3", "compound_code": "9FC3+R3 Hyderabad, Telangana, India"}, "vicinity": "13-6-690, Mustaidpura, Karwan, Hyderabad", "scope": "GOOGLE", "business_status": "OPERATIONAL", "types": ["primary_school", "school", "point_of_interest", "establishment"], "icon": "https://maps.gstatic.com/mapfiles/place_api/icons/v1/png_71/school-71.png"}]}