{"status": "OK", "html_attributions": [], "results": [{"rating": 4, "user_ratings_total": 4, "name": "Andhra Bank", "reference": "ChIJBfbb3uBmUjoRmIDEZheBlxg", "geometry": {"location": {"lat": 13.0394496, "lng": 80.2125409}, "viewport": {"northeast": {"lat": 13.0407971802915, "lng": 80.2138126802915}, "southwest": {"lat": 13.0380992197085, "lng": 80.21111471970849}}}, "place_id": "ChIJBfbb3uBmUjoRmIDEZheBlxg", "plus_code": {"global_code": "7M5226Q7+Q2", "compound_code": "26Q7+Q2 Chennai, Tamil Nadu, India"}, "vicinity": "Sarvamangala Colony, Krupa Colony, Ashok Nagar, Chennai", "photos": [{"photo_reference": "ATtYBwJyQgKd6KPGGVdPg1dnzbxgo1-a-leyA5VrnQrSwNvv45w3UHDVitsoLxNLiqtgL_wS4XAY752O-6JMou5nHAJ4gfOsz0QjOCnK6jksSsEuouhFEEkltmK2jtOUsn6O4QQRyhzs2U_vFsd7Jg2gZTmnWWhRQO5bzmXcx7OKea_FmpFI", "width": 1563, "html_attributions": ["<a href=\"https://maps.google.com/maps/contrib/118070305515646382567\">Kannan Esakki</a>"], "height": 2048}], "scope": "GOOGLE", "business_status": "OPERATIONAL", "types": ["bank", "finance", "point_of_interest", "establishment"], "icon": "https://maps.gstatic.com/mapfiles/place_api/icons/v1/png_71/bank-71.png"}, {"rating": 4, "user_ratings_total": 1, "name": "Muthoot fincorp Gurukul", "reference": "ChIJK2R_Ix1nUjoRpKZk0VT-qCc", "geometry": {"location": {"lat": 13.0324112, "lng": 80.2198666}, "viewport": {"northeast": {"lat": 13.0337678802915, "lng": 80.22126993029151}, "southwest": {"lat": 13.0310699197085, "lng": 80.21857196970849}}}, "opening_hours": {"open_now": false}, "place_id": "ChIJK2R_Ix1nUjoRpKZk0VT-qCc", "plus_code": {"global_code": "7M5226J9+XW", "compound_code": "26J9+XW Chennai, Tamil Nadu, India"}, "vicinity": "202/93, Kavarai Street, Naga Thammal, West Mambalam, Chennai", "photos": [{"photo_reference": "ATtYBwJLr9RrefdS5u0HrbEW8-1q0yEZHGVJE0pU2yAp9Lr3VmpctELRYzEOnObHHG6VhxuzVIQa7T_XGYxo7MJp-i_IL_0nJ5oDcXfpu4RIVIClUOG6rYQ3cIgKJrMmcHAakWPZS6DSy3PulyqNKgOXd7tlFZjEBToOPPEGa3gescgamFfR", "width": 1536, "html_attributions": ["<a href=\"https://maps.google.com/maps/contrib/118070305515646382567\">Kannan Esakki</a>"], "height": 2048}], "scope": "GOOGLE", "business_status": "OPERATIONAL", "types": ["bank", "finance", "point_of_interest", "establishment"], "icon": "https://maps.gstatic.com/mapfiles/place_api/icons/v1/png_71/bank-71.png"}, {"rating": 5, "user_ratings_total": 3, "name": "\u0ba4\u0bae\u0bbf\u0bb4\u0bcd\u0ba8\u0bbe\u0b9f\u0bc1 \u0bae\u0bc6\u0bb0\u0bcd\u0b95\u0ba3\u0bcd\u0b9f\u0bc8\u0bb2\u0bcd \u0bb5\u0b99\u0bcd\u0b95\u0bbf", "reference": "ChIJ3bp9uu9mUjoR0AV_KhNeEmA", "geometry": {"location": {"lat": 13.0476741, "lng": 80.2189148}, "viewport": {"northeast": {"lat": 13.0490129302915, "lng": 80.2203039802915}, "southwest": {"lat": 13.0463149697085, "lng": 80.2176060197085}}}, "place_id": "ChIJ3bp9uu9mUjoR0AV_KhNeEmA", "plus_code": {"global_code": "7M5226X9+3H", "compound_code": "26X9+3H Chennai, Tamil Nadu, India"}, "vicinity": "31, Doctor Ambedkar Road, Dr.Subbaraya Nagar, Kodambakkam, Chennai", "photos": [{"photo_reference": "ATtYBwKwzWtfYWIE3kd-09fsuCG7eyPX-9hFI-hsVzzDuRzOy4CVkn1pSox3SkGAS9R5vzOdj2Gssy41_A6WeHCCVCWtGMeLFQGyUiQDzfh2_AsNTDO9D-etVrbUULHeNZIiltPKdLTdF6Z0VTJFPWTK44jv7TeUvSnK937bJVJo716OeQg0", "width": 4128, "html_attributions": ["<a href=\"https://maps.google.com/maps/contrib/116038925447963429323\">ramalingam india</a>"], "height": 3096}], "scope": "GOOGLE", "business_status": "OPERATIONAL", "types": ["bank", "finance", "point_of_interest", "establishment"], "icon": "https://maps.gstatic.com/mapfiles/place_api/icons/v1/png_71/bank-71.png"}, {"rating": 4.5, "user_ratings_total": 2, "name": "Dhanalakshmi Bank", "reference": "ChIJwW8k_f1mUjoR6a-gZu92PVE", "geometry": {"location": {"lat": 13.0355666, "lng": 80.22663179999999}, "viewport": {"northeast": {"lat": 13.0368894802915, "lng": 80.2279732302915}, "southwest": {"lat": 13.0341915197085, "lng": 80.22527526970848}}}, "opening_hours": {"open_now": false}, "place_id": "ChIJwW8k_f1mUjoR6a-gZu92PVE", "plus_code": {"global_code": "7M5226PG+6M", "compound_code": "26PG+6M Chennai, Tamil Nadu, India"}, "vicinity": "S.N.Mission School, 2/64, Easwaran Koil Street, Vellai Thottam, West Mambalam, Chennai", "photos": [{"photo_reference": "ATtYBwLMNd_gdp8KtQjbFTAYSNPOKtzR71HzFZ66z_15RKe77-q1h3JAxDlLIfQiTcw4pPYvfldsEtItp5kr_DlEtxtLYCMep30pqA7xiDhCtaG-jZ4gIeedLmpjFzILh4T3WVPagNILkd8jV4Hktw2jEqbB1jJ934rhyJmXk6oCVq-trkva", "width": 3120, "html_attributions": ["<a href=\"https://maps.google.com/maps/contrib/110393189483170059938\">Ananthram E.L</a>"], "height": 3549}], "scope": "GOOGLE", "business_status": "OPERATIONAL", "types": ["bank", "finance", "point_of_interest", "establishment"], "icon": "https://maps.gstatic.com/mapfiles/place_api/icons/v1/png_71/bank-71.png"}, {"name": "Projects Bank", "reference": "ChIJM5Gw0BxnUjoR6-3ntboS1o8", "geometry": {"location": {"lat": 13.0314327, "lng": 80.2203387}, "viewport": {"northeast": {"lat": 13.0327796802915, "lng": 80.2216305802915}, "southwest": {"lat": 13.0300817197085, "lng": 80.2189326197085}}}, "opening_hours": {"open_now": false}, "place_id": "ChIJM5Gw0BxnUjoR6-3ntboS1o8", "plus_code": {"global_code": "7M5226JC+H4", "compound_code": "26JC+H4 Chennai, Tamil Nadu, India"}, "vicinity": "90, Kodambakkam Road, Mettupalayam, Panneerselvam Nagar, West Mambalam, Chennai", "scope": "GOOGLE", "business_status": "OPERATIONAL", "types": ["bank", "finance", "point_of_interest", "establishment"], "icon": "https://maps.gstatic.com/mapfiles/place_api/icons/v1/png_71/bank-71.png"}, {"rating": 5, "user_ratings_total": 1, "name": "BRK photography", "reference": "ChIJo4ZOwAJnUjoREg6V-DdtOB4", "geometry": {"location": {"lat": 13.0490031, "lng": 80.21919079999999}, "viewport": {"northeast": {"lat": 13.0503584802915, "lng": 80.2204823302915}, "southwest": {"lat": 13.0476605197085, "lng": 80.2177843697085}}}, "opening_hours": {"open_now": false}, "place_id": "ChIJo4ZOwAJnUjoREg6V-DdtOB4", "plus_code": {"global_code": "7M5226X9+JM", "compound_code": "26X9+JM Chennai, Tamil Nadu, India"}, "vicinity": "India", "photos": [{"photo_reference": "ATtYBwJC1ACmlsnZnNa4XPFK_KfVkqIoRVztxUjEoUW4GGJEsj5c2JLu77R6qWhfKEiKzyWqBFK5vLzBVJ16cuj4nr23VVT5MWF44CriKuHY71usAa03dyHN2u1Qb82G5sg-yeF_318vMtblOR9O_PF9w3N1BVLM9pCLkBR17IP9FWKKEOuW", "width": 576, "html_attributions": ["<a href=\"https://maps.google.com/maps/contrib/101591828519692647479\">BRK photography</a>"], "height": 447}], "scope": "GOOGLE", "business_status": "OPERATIONAL", "types": ["bank", "finance", "point_of_interest", "establishment"], "icon": "https://maps.gstatic.com/mapfiles/place_api/icons/v1/png_71/bank-71.png"}, {"rating": 3.7, "user_ratings_total": 10, "name": "State Bank of India - H.N.I Branch", "reference": "ChIJre65B-dmUjoRlitjI6n0gzM", "geometry": {"location": {"lat": 13.0428089, "lng": 80.2120186}, "viewport": {"northeast": {"lat": 13.0441594302915, "lng": 80.21346923029151}, "southwest": {"lat": 13.0414614697085, "lng": 80.2107712697085}}}, "opening_hours": {"open_now": false}, "place_id": "ChIJre65B-dmUjoRlitjI6n0gzM", "plus_code": {"global_code": "7M5226V6+4R", "compound_code": "26V6+4R Chennai, Tamil Nadu, India"}, "vicinity": "Jawaharlal Nehru Road, Sector 10, Sector 13, Ashok Nagar, Chennai", "photos": [{"photo_reference": "ATtYBwKrYjbiW5aGuU6jfHimSkDST7RkEXQ6-yyf_ANnAOIn-IsPT73cuQjC8RaMHb44MY3RX14BCsdguPSMFGx3w7oQhaRnGMZQp0o_5diUDtKifXcr16kWJo_Q291owOqKNjzkhymnPRUmDebkqyZd_MJKZIso8nrusG4VjlXYNTgPPEnV", "width": 4128, "html_attributions": ["<a href=\"https://maps.google.com/maps/contrib/116038925447963429323\">ramalingam india</a>"], "height": 3096}], "scope": "GOOGLE", "business_status": "OPERATIONAL", "types": ["bank", "atm", "finance", "point_of_interest", "establishment"], "icon": "https://maps.gstatic.com/mapfiles/place_api/icons/v1/png_71/bank-71.png"}, {"rating": 4, "user_ratings_total": 1, "name": "Axis Bank ATM", "reference": "ChIJL1NsAuRmUjoRNkr-yXfmhts", "geometry": {"location": {"lat": 13.0433348, "lng": 80.2122132}, "viewport": {"northeast": {"lat": 13.0446842802915, "lng": 80.2135946802915}, "southwest": {"lat": 13.0419863197085, "lng": 80.21089671970849}}}, "opening_hours": {"open_now": true}, "place_id": "ChIJL1NsAuRmUjoRNkr-yXfmhts", "plus_code": {"global_code": "7M5226V6+8V", "compound_code": "26V6+8V Chennai, Tamil Nadu, India"}, "vicinity": "Old No 49, New No 55, Ashok Nagar, Chennai", "photos": [{"photo_reference": "ATtYBwLhref130rb5sjDmyk4k_7nLcKaZn9wNsEM54a3vDMIhS5SLYIkTPQmn9zCzwmddqpzV6YqvyxSevZrlGsu3lv0wyA9AmH-58T6aLAbVsTQzZKtpDv1c28GvcnqL2cuRk35GGFNWs_xCcIah7Mo7-jz6AXKzTFUm94Mc10UY_r944-w", "width": 4608, "html_attributions": ["<a href=\"https://maps.google.com/maps/contrib/114965361683477121205\">kingsly m</a>"], "height": 3456}], "scope": "GOOGLE", "business_status": "OPERATIONAL", "types": ["atm", "bank", "finance", "point_of_interest", "establishment"], "icon": "https://maps.gstatic.com/mapfiles/place_api/icons/v1/png_71/atm-71.png"}, {"rating": 2.7, "user_ratings_total": 11, "name": "State Bank of India", "reference": "ChIJWamu0-FmUjoRonjK_uct-5g", "geometry": {"location": {"lat": 13.030944, "lng": 80.21702379999999}, "viewport": {"northeast": {"lat": 13.0322929302915, "lng": 80.21835133029151}, "southwest": {"lat": 13.0295949697085, "lng": 80.2156533697085}}}, "opening_hours": {"open_now": false}, "place_id": "ChIJWamu0-FmUjoRonjK_uct-5g", "plus_code": {"global_code": "7M5226J8+9R", "compound_code": "26J8+9R Chennai, Tamil Nadu, India"}, "vicinity": "Flat no. 6B & 6C, 12th Avenue, Ashok Nagar, Chennai", "photos": [{"photo_reference": "ATtYBwIWSTZgwz10Hcra-icdYELHoVjjSiUOJlUNEsrB8dkuuJl3H3iqbRX8vU5YTsmNJxbUvkQgLuOwtTXb1Pq8gqyr-PZBXfIMJvMvskYRZQ-SBfjKoqPQ_iXOb9Fq_N5F6X73QzLU8roFLIGnvt340iLKFt56W59j2lNOVkad9OYTy69n", "width": 1280, "html_attributions": ["<a href=\"https://maps.google.com/maps/contrib/108013914158612247718\">\u0ba4\u0bae\u0bbf\u0bb4\u0bcd</a>"], "height": 720}], "scope": "GOOGLE", "business_status": "OPERATIONAL", "types": ["atm", "bank", "finance", "point_of_interest", "establishment"], "icon": "https://maps.gstatic.com/mapfiles/place_api/icons/v1/png_71/bank-71.png"}, {"rating": 3.7, "user_ratings_total": 3, "name": "YES Bank ATM", "reference": "ChIJ57fBFdRmUjoR3XaUruqzoRc", "geometry": {"location": {"lat": 13.0441305, "lng": 80.21255}, "viewport": {"northeast": {"lat": 13.0454823802915, "lng": 80.2138180802915}, "southwest": {"lat": 13.0427844197085, "lng": 80.2111201197085}}}, "opening_hours": {"open_now": true}, "place_id": "ChIJ57fBFdRmUjoR3XaUruqzoRc", "plus_code": {"global_code": "7M5226V7+M2", "compound_code": "26V7+M2 Chennai, Tamil Nadu, India"}, "vicinity": "34, Ground Floor, Nu Tech Arcade, 1st Street, Ashok Nagar, Chennai", "photos": [{"photo_reference": "ATtYBwLvmP98sgRTJQRGPoOjhkzxruAgUNzRp1CKg8PVSzm2rICLDn2YugTY1wdm0Pf4np9Uu_wp93o4Q65OPiXoLmFwc3hbFY15_i6i3y8VnWbWH0WvxVHzQZ8vK-Dlzyg62iZ2jJYEK3MzSiTDRHQzeVnrDRYUBmcf8dH5_zmlpV0qG0-R", "width": 1080, "html_attributions": ["<a href=\"https://maps.google.com/maps/contrib/103564887040273236688\">Lalith Kumar</a>"], "height": 1920}], "scope": "GOOGLE", "business_status": "OPERATIONAL", "types": ["atm", "bank", "finance", "point_of_interest", "establishment"], "icon": "https://maps.gstatic.com/mapfiles/place_api/icons/v1/png_71/atm-71.png"}, {"rating": 2.4, "user_ratings_total": 10, "name": "ICICI Bank Govindan Road, Chennai - Branch & ATM", "reference": "ChIJlQq_IANnUjoRenm4p0SM_w0", "geometry": {"location": {"lat": 13.031813, "lng": 80.222099}, "viewport": {"northeast": {"lat": 13.0330999302915, "lng": 80.22341763029151}, "southwest": {"lat": 13.0304019697085, "lng": 80.2207196697085}}}, "opening_hours": {"open_now": false}, "place_id": "ChIJlQq_IANnUjoRenm4p0SM_w0", "plus_code": {"global_code": "7M5226JC+PR", "compound_code": "26JC+PR Chennai, Tamil Nadu, India"}, "vicinity": "39, Govindan Road, Panneerselvam Nagar, West Mambalam, Chennai", "photos": [{"photo_reference": "ATtYBwIcOkCIhCHUJI3UwibNvC-jCnMz7kAFzXJowpdxXcOTQSGXqM7lDokZ8h4fCooWa8j0y04QEuV8mR_RoXsVN3efWOx9c7D9hQoyc8tF7H9iW1sDOwXCmKxeGcCg8J0cZtdzgw_5-Y3ZnyJ56Lv26AMiZAFmR8EcWJYCu-Dd1_gC8sk8", "width": 3120, "html_attributions": ["<a href=\"https://maps.google.com/maps/contrib/118070305515646382567\">Kannan Esakki</a>"], "height": 4160}], "scope": "GOOGLE", "business_status": "OPERATIONAL", "types": ["bank", "atm", "finance", "point_of_interest", "establishment"], "icon": "https://maps.gstatic.com/mapfiles/place_api/icons/v1/png_71/bank-71.png"}, {"rating": 2.5, "user_ratings_total": 2, "name": "Oriental Bank of Commerce", "reference": "ChIJ1-UzWf5mUjoRVYda15I7qDw", "geometry": {"location": {"lat": 13.0375852, "lng": 80.2283169}, "viewport": {"northeast": {"lat": 13.0389177802915, "lng": 80.22972953029151}, "southwest": {"lat": 13.0362198197085, "lng": 80.2270315697085}}}, "place_id": "ChIJ1-UzWf5mUjoRVYda15I7qDw", "plus_code": {"global_code": "7M5226QH+28", "compound_code": "26QH+28 Chennai, Tamil Nadu, India"}, "vicinity": "Rameswaram Street, Postal Colony, T. Nagar, Chennai", "scope": "GOOGLE", "business_status": "OPERATIONAL", "types": ["bank", "finance", "point_of_interest", "establishment"], "icon": "https://maps.gstatic.com/mapfiles/place_api/icons/v1/png_71/bank-71.png"}, {"rating": 3.6, "user_ratings_total": 8, "name": "State Bank Of India", "reference": "ChIJd43huu9mUjoRj4zgctaYByg", "geometry": {"location": {"lat": 13.0484258, "lng": 80.2191352}, "viewport": {"northeast": {"lat": 13.0497518302915, "lng": 80.2205205802915}, "southwest": {"lat": 13.0470538697085, "lng": 80.2178226197085}}}, "opening_hours": {"open_now": true}, "place_id": "ChIJd43huu9mUjoRj4zgctaYByg", "plus_code": {"global_code": "7M5226X9+9M", "compound_code": "26X9+9M Chennai, Tamil Nadu, India"}, "vicinity": "No.24, Doctor Ambedkar Road, Kodambakkam, Chennai", "photos": [{"photo_reference": "ATtYBwKRMxPbsgKPoLkt60GkT6v3JavrlNAs2oZ4XhZB8Fp2oDMl8UsWLuZLy35w93mk7sxHtD5c7CMHIULfT7yEZYI97kUelPLb-qPN6KOb3eb_ystkQzE8ikcZxQrFApXiSNAlska5X3jXRUfHXCAtC-m1M6D98nX0JFFzi-sIEyPOtBHz", "width": 2190, "html_attributions": ["<a href=\"https://maps.google.com/maps/contrib/115577400992792924400\">ravindran krishnan</a>"], "height": 3213}], "scope": "GOOGLE", "business_status": "OPERATIONAL", "types": ["bank", "finance", "point_of_interest", "establishment"], "icon": "https://maps.gstatic.com/mapfiles/place_api/icons/v1/png_71/bank-71.png"}, {"rating": 3.8, "user_ratings_total": 9, "name": "Tamilnad Mercantile Bank Ltd", "reference": "ChIJmQe43f5mUjoRL62a9v06Dxs", "geometry": {"location": {"lat": 13.0384475, "lng": 80.22870890000002}, "viewport": {"northeast": {"lat": 13.0397979802915, "lng": 80.23005168029151}, "southwest": {"lat": 13.03710001970849, "lng": 80.2273537197085}}}, "opening_hours": {"open_now": false}, "place_id": "ChIJmQe43f5mUjoRL62a9v06Dxs", "plus_code": {"global_code": "7M5226QH+9F", "compound_code": "26QH+9F Chennai, Tamil Nadu, India"}, "vicinity": "New No.32, Rameswaram Street, T.Nagar, Chennai", "photos": [{"photo_reference": "ATtYBwJFt7HZYT7e1nQKszheno55iXw5zfpg6FnWV1NZLFNUSFSpXhX77emgblVjQZ_O0MdDkMkX51iTn2p0axt8uSsdHc_mbuZ2lp47sbfZCubs1zrQo-zzghCVC0kA9A9hd_RKlNpcx-cT2SfCQNnOhKirUGukLJqmVcOXUfzFTjEoW-SX", "width": 3024, "html_attributions": ["<a href=\"https://maps.google.com/maps/contrib/101480196928976222128\">Pradeep P</a>"], "height": 4032}], "scope": "GOOGLE", "business_status": "OPERATIONAL", "types": ["bank", "finance", "point_of_interest", "establishment"], "icon": "https://maps.gstatic.com/mapfiles/place_api/icons/v1/png_71/bank-71.png"}, {"rating": 3, "user_ratings_total": 7, "name": "ICICI Bank Ashok Pillar, Chennai - Branch & ATM", "reference": "ChIJhzjYMuBmUjoRrYFc9VPGqB8", "geometry": {"location": {"lat": 13.035264, "lng": 80.21256199999999}, "viewport": {"northeast": {"lat": 13.0365975302915, "lng": 80.21390893029151}, "southwest": {"lat": 13.0338995697085, "lng": 80.2112109697085}}}, "opening_hours": {"open_now": false}, "place_id": "ChIJhzjYMuBmUjoRrYFc9VPGqB8", "plus_code": {"global_code": "7M5226P7+42", "compound_code": "26P7+42 Chennai, Tamil Nadu, India"}, "vicinity": "18 A, Ashok enclave, First Avenue, Ashok Nagar, Chennai", "photos": [{"photo_reference": "ATtYBwK0Ey87Kc2Q1X88yPH1qbB3g_awrpxgA_Fxx1PjJ1bHfhXjDJ3hudXejSgWTZrVgsI-jt1eV0WKURkGpjWLw4zmu5sFkrDzCdFbQeeO82aLTZkQWOI9yhE9Ao3Nds4pjtGjoRTyiJJM6o-f1IxfGw-An74d2eykripYRw_vkl22YSj6", "width": 4032, "html_attributions": ["<a href=\"https://maps.google.com/maps/contrib/107843325674941822045\">Tamilarasu</a>"], "height": 1872}], "scope": "GOOGLE", "business_status": "OPERATIONAL", "types": ["bank", "finance", "point_of_interest", "establishment"], "icon": "https://maps.gstatic.com/mapfiles/place_api/icons/v1/png_71/bank-71.png"}, {"rating": 3.1, "user_ratings_total": 14, "name": "Axis Bank", "reference": "ChIJNdd0VhxnUjoRrJRdfuKKgu0", "geometry": {"location": {"lat": 13.0313017, "lng": 80.217976}, "viewport": {"northeast": {"lat": 13.0327527802915, "lng": 80.2193154802915}, "southwest": {"lat": 13.0300548197085, "lng": 80.21661751970849}}}, "opening_hours": {"open_now": false}, "place_id": "ChIJNdd0VhxnUjoRrJRdfuKKgu0", "plus_code": {"global_code": "7M5226J9+G5", "compound_code": "26J9+G5 Chennai, Tamil Nadu, India"}, "vicinity": "New No 20, 11th Avenue, LIC Colony, Ashok Nagar, Chennai", "photos": [{"photo_reference": "ATtYBwL_R2glLW1bT6Ulb7YjFEhfGxlOebJXFOafz83wwdVpa4aASxiGy3dJZpxsKZhasSMF4wsiorFjGw2HKhIiFuomjIH0wfXw74M5VwJTfK6iFn3F5uAtuCuib9mOFuWRKq39Y5jMlvoEOEVTh2FwfCgFhuKRjX926-yv7trep14RXksR", "width": 3120, "html_attributions": ["<a href=\"https://maps.google.com/maps/contrib/118070305515646382567\">Kannan Esakki</a>"], "height": 4160}], "scope": "GOOGLE", "business_status": "OPERATIONAL", "types": ["bank", "finance", "point_of_interest", "establishment"], "icon": "https://maps.gstatic.com/mapfiles/place_api/icons/v1/png_71/bank-71.png"}, {"name": "Axis Bank ATM", "reference": "ChIJycHNpB9nUjoRcpksKxWHzkk", "geometry": {"location": {"lat": 13.0353735, "lng": 80.21216210000001}, "viewport": {"northeast": {"lat": 13.0367226302915, "lng": 80.2135095302915}, "southwest": {"lat": 13.0340246697085, "lng": 80.2108115697085}}}, "opening_hours": {"open_now": true}, "place_id": "ChIJycHNpB9nUjoRcpksKxWHzkk", "plus_code": {"global_code": "7M5226P6+4V", "compound_code": "26P6+4V Chennai, Tamil Nadu, India"}, "vicinity": "New No 20, Ashok Nagar, Chennai", "scope": "GOOGLE", "business_status": "OPERATIONAL", "types": ["atm", "bank", "finance", "point_of_interest", "establishment"], "icon": "https://maps.gstatic.com/mapfiles/place_api/icons/v1/png_71/atm-71.png"}, {"rating": 4, "user_ratings_total": 1, "name": "Axis Bank ATM", "reference": "ChIJFUuW3mJnUjoRhy6M9Xd9IiU", "geometry": {"location": {"lat": 13.0352941, "lng": 80.2121864}, "viewport": {"northeast": {"lat": 13.0366455302915, "lng": 80.2135033302915}, "southwest": {"lat": 13.0339475697085, "lng": 80.2108053697085}}}, "opening_hours": {"open_now": true}, "place_id": "ChIJFUuW3mJnUjoRhy6M9Xd9IiU", "plus_code": {"global_code": "7M5226P6+4V", "compound_code": "26P6+4V Chennai, Tamil Nadu, India"}, "vicinity": "No 72, Ashok Nagar, Chennai", "photos": [{"photo_reference": "ATtYBwJWy99krj8IfRB2Wd8EFR1e4tWob5lk676F2gkM0Y4x7URQu3RAmu_dkE0uq8qEP0kbtj0IaOa5pXvNd2jHTYusft-qFbHWJbBhLnvlebbaZqRA4IicIT0Acb9thLdjFDmGAAILIzDXkpw6qJU_1QgOVpukmu_l5sEElL9jfUcoihpJ", "width": 3595, "html_attributions": ["<a href=\"https://maps.google.com/maps/contrib/113180473818431555027\">Kamalakar Anthati</a>"], "height": 4450}], "scope": "GOOGLE", "business_status": "OPERATIONAL", "types": ["atm", "bank", "finance", "point_of_interest", "establishment"], "icon": "https://maps.gstatic.com/mapfiles/place_api/icons/v1/png_71/atm-71.png"}, {"rating": 4, "user_ratings_total": 10, "name": "State Bank of India - Rangarajapuram Branch", "reference": "ChIJXUKbrvBmUjoR7DioIaSzb90", "geometry": {"location": {"lat": 13.046821, "lng": 80.226072}, "viewport": {"northeast": {"lat": 13.0481340802915, "lng": 80.2274137302915}, "southwest": {"lat": 13.0454361197085, "lng": 80.2247157697085}}}, "opening_hours": {"open_now": false}, "place_id": "ChIJXUKbrvBmUjoR7DioIaSzb90", "plus_code": {"global_code": "7M5226WG+PC", "compound_code": "26WG+PC Chennai, Tamil Nadu, India"}, "vicinity": "52, Rangarajapuram Main Road, Viswanatha Puram, Kodambakkam, Chennai", "photos": [{"photo_reference": "ATtYBwJAk-BskYXpqNOBUNS7BDfqH0gSW1iFENG3SJoEN3z5oKrbGdsfSDtULGcTFtpCKTmLe_Bwts-WS9AWVTsiouV4L16PvzE1cZ5NlZwIawMxiTRejAUeHvSpZa8N2fPjOwb8hpCsgqXBGcwmb72E1CIrrPXdLTvj-_4qHD3J_wZWcZ4H", "width": 2592, "html_attributions": ["<a href=\"https://maps.google.com/maps/contrib/111260393688873002110\">Suresh Jetlee</a>"], "height": 4608}], "scope": "GOOGLE", "business_status": "OPERATIONAL", "types": ["bank", "atm", "finance", "point_of_interest", "establishment"], "icon": "https://maps.gstatic.com/mapfiles/place_api/icons/v1/png_71/bank-71.png"}, {"name": "State Bank of India", "reference": "ChIJFeeuuOhmUjoRDHV15h-NfCA", "geometry": {"location": {"lat": 13.0472354, "lng": 80.2143849}, "viewport": {"northeast": {"lat": 13.0485992802915, "lng": 80.2157326302915}, "southwest": {"lat": 13.0459013197085, "lng": 80.21303466970849}}}, "opening_hours": {"open_now": true}, "place_id": "ChIJFeeuuOhmUjoRDHV15h-NfCA", "plus_code": {"global_code": "7M5226W7+VQ", "compound_code": "26W7+VQ Chennai, Tamil Nadu, India"}, "vicinity": "88, Vadapalani Flyover, Duraisamy Saalai, Chennai", "photos": [{"photo_reference": "ATtYBwIx6JJagrmWV4ioyxxznuiqzWjkEtWi8QNbhoJrtg31Hv3gdTNYluYt96OxUKc4Dkw-i5JLjPVJntDvfOlkjDmGjR8Alzwze2xZ5Plzogm1EKLLdRWDtFF7-zOTzg2iQDLEBSltAr48HWKSLvxjJ_NuCFUKiAGDNWpDD1r6Io4aOTKz", "width": 1536, "html_attributions": ["<a href=\"https://maps.google.com/maps/contrib/118070305515646382567\">Kannan Esakki</a>"], "height": 2048}], "scope": "GOOGLE", "business_status": "OPERATIONAL", "types": ["bank", "finance", "point_of_interest", "establishment"], "icon": "https://maps.gstatic.com/mapfiles/place_api/icons/v1/png_71/bank-71.png"}]}