{"status": "OK", "next_page_token": "ATtYBwLugKK0f9LpJsd6-ZTEWcOwxgoznpH7qQb4pfNkzf6r4R9VlW-R3TWoV1VA44ndFUNMO2tdjDzI_2eUkcBdFz4vgK4ZwVVmwPSKfN6XkqPR_cfB8HB1_M8oKuFby3HLwugW7elWd8cukPjvP5s8I2QHok7GuUwo2unu5eiZ0tsrtV93hSKekGodwD2-sV3TYXWTLQ7hTNkMMXcLagBHzOaN8zpJsz3qeAMYBXRtIIzMtkcYngyFCZ4sxbFVrAQoS6nzWOKDA-9HeW52qwpDfLCvaFyUPk8ixHfesqRuWmiXZSgFXiD8mIoxpFqkeTTheUltIDVzAoZzzeatXtFk5RygB87O4wP8z6Yhk0Q28ACpm-1DY_uDd2Bd_LKpxX4203i_p2P7ufVkOcN1_qHzcVpMwAP2o0anPF-KdVZBFF3JyT7H", "html_attributions": [], "results": [{"rating": 5, "user_ratings_total": 1, "name": "Tamilnad Mercantile Bank", "reference": "ChIJzVqS7sxlUjoRAGyhORe23Yk", "geometry": {"location": {"lat": 13.0959556, "lng": 80.2339394}, "viewport": {"northeast": {"lat": 13.0973272302915, "lng": 80.23529053029151}, "southwest": {"lat": 13.0946292697085, "lng": 80.2325925697085}}}, "opening_hours": {"open_now": false}, "place_id": "ChIJzVqS7sxlUjoRAGyhORe23Yk", "plus_code": {"global_code": "7M5236WM+9H", "compound_code": "36WM+9H Chennai, Tamil Nadu, India"}, "vicinity": "Park Centre, 25 venkata Narayana road, Chennai", "scope": "GOOGLE", "business_status": "OPERATIONAL", "types": ["bank", "finance", "point_of_interest", "establishment"], "icon": "https://maps.gstatic.com/mapfiles/place_api/icons/v1/png_71/bank-71.png"}, {"rating": 5, "user_ratings_total": 1, "name": "HDFC Bank ATM", "reference": "ChIJOQfQP89lUjoRD9nZdA8QeG8", "geometry": {"location": {"lat": 13.096174, "lng": 80.24153799999999}, "viewport": {"northeast": {"lat": 13.0975007302915, "lng": 80.2429540302915}, "southwest": {"lat": 13.0948027697085, "lng": 80.2402560697085}}}, "opening_hours": {"open_now": true}, "place_id": "ChIJOQfQP89lUjoRD9nZdA8QeG8", "plus_code": {"global_code": "7M5236WR+FJ", "compound_code": "36WR+FJ Chennai, Tamil Nadu, India"}, "vicinity": "6/119B, Medavakkam Tank Road, ICF South Colony, Venkatesapuram Colony, Ayanavaram, Chennai", "scope": "GOOGLE", "business_status": "OPERATIONAL", "types": ["atm", "bank", "finance", "point_of_interest", "establishment"], "icon": "https://maps.gstatic.com/mapfiles/place_api/icons/v1/png_71/atm-71.png"}, {"name": "Tamilnad Mercantile Bank Limited ATM", "reference": "ChIJXwy9c8hlUjoRxWcjWSjF-sk", "geometry": {"location": {"lat": 13.1020927, "lng": 80.242933}, "viewport": {"northeast": {"lat": 13.1034659802915, "lng": 80.2443025302915}, "southwest": {"lat": 13.1007680197085, "lng": 80.24160456970849}}}, "opening_hours": {"open_now": false}, "place_id": "ChIJXwy9c8hlUjoRxWcjWSjF-sk", "plus_code": {"global_code": "7M52462V+R5", "compound_code": "462V+R5 Chennai, Tamil Nadu, India"}, "vicinity": "1, Anderson Rd, Chinna Chembarambakkam, Ayanavaram, Chennai", "scope": "GOOGLE", "business_status": "OPERATIONAL", "types": ["bank", "finance", "point_of_interest", "establishment"], "icon": "https://maps.gstatic.com/mapfiles/place_api/icons/v1/png_71/bank-71.png"}, {"rating": 3, "user_ratings_total": 1, "name": "Axis Bank ATM", "reference": "ChIJC49M88tlUjoR2gY106tuRCQ", "geometry": {"location": {"lat": 13.1016783, "lng": 80.23974439999999}, "viewport": {"northeast": {"lat": 13.1029758302915, "lng": 80.24133163029151}, "southwest": {"lat": 13.1002778697085, "lng": 80.23863366970849}}}, "opening_hours": {"open_now": true}, "place_id": "ChIJC49M88tlUjoR2gY106tuRCQ", "plus_code": {"global_code": "7M52462Q+MV", "compound_code": "462Q+MV Chennai, Tamil Nadu, India"}, "vicinity": "No 328, Ground Floor, Adarsh Towers, Ayanavaram, Chennai", "scope": "GOOGLE", "business_status": "OPERATIONAL", "types": ["atm", "bank", "finance", "point_of_interest", "establishment"], "icon": "https://maps.gstatic.com/mapfiles/place_api/icons/v1/png_71/atm-71.png"}, {"rating": 2.1, "user_ratings_total": 16, "name": "Indian Bank Ayanavaram", "reference": "ChIJGfwQK89lUjoRnINNULrciEc", "geometry": {"location": {"lat": 13.0979841, "lng": 80.2407235}, "viewport": {"northeast": {"lat": 13.0992512302915, "lng": 80.2420659302915}, "southwest": {"lat": 13.0965532697085, "lng": 80.2393679697085}}}, "opening_hours": {"open_now": false}, "place_id": "ChIJGfwQK89lUjoRnINNULrciEc", "plus_code": {"global_code": "7M5236XR+57", "compound_code": "36XR+57 Chennai, Tamil Nadu, India"}, "vicinity": "KV Kovil Agraharam Street, Vasantha nagar, Chinna Chembarambakkam, Ayanavaram, Chennai", "photos": [{"photo_reference": "ATtYBwI_7M5gPMGoKzXdYFWYSius3HeIGP66vL3c_k07W1wF0FC_PbadGw_L8om4vqk96gIasRXH5injBsszyUa1y_Us_6-XTZgYx4Ne1deOWk91RlDT0FTbKGhOWH2f_MTCIaudCFIDJMFG_JTZ5GW_vZwtenPZFnMj8d_tTKuWlNS_Vaiy", "width": 1536, "html_attributions": ["<a href=\"https://maps.google.com/maps/contrib/118070305515646382567\">Kannan Esakki</a>"], "height": 2048}], "scope": "GOOGLE", "business_status": "OPERATIONAL", "types": ["bank", "finance", "point_of_interest", "establishment"], "icon": "https://maps.gstatic.com/mapfiles/place_api/icons/v1/png_71/bank-71.png"}, {"rating": 2.8, "user_ratings_total": 9, "name": "HDFC Bank", "reference": "ChIJu63NE89lUjoRCkTtXA9Qz54", "geometry": {"location": {"lat": 13.096193, "lng": 80.24159499999999}, "viewport": {"northeast": {"lat": 13.0975272302915, "lng": 80.24298843029149}, "southwest": {"lat": 13.0948292697085, "lng": 80.24029046970848}}}, "opening_hours": {"open_now": false}, "place_id": "ChIJu63NE89lUjoRCkTtXA9Qz54", "plus_code": {"global_code": "7M5236WR+FJ", "compound_code": "36WR+FJ Chennai, Tamil Nadu, India"}, "vicinity": "CG 123, Varalakshmi Villa, Konnur High Rd, Chennai", "photos": [{"photo_reference": "ATtYBwKKeelg56zdnJPeCxERno6R-wnFsIJoUt9HqxRi-myUebY91GHz0gZzyRsh8_F5t3B1Owa6USHMaUwVHywjQVEkrIO35DlckfprGAehMzBhMVBruEkmjoamFf1RdizmvDaVPG8Sz-pPJUZ4Zgmug4pEMNeaeH06XA3dm-lPdRvPAqgo", "width": 4000, "html_attributions": ["<a href=\"https://maps.google.com/maps/contrib/115299416233631999154\">john peter</a>"], "height": 3000}], "scope": "GOOGLE", "business_status": "OPERATIONAL", "types": ["bank", "finance", "point_of_interest", "establishment"], "icon": "https://maps.gstatic.com/mapfiles/place_api/icons/v1/png_71/bank-71.png"}, {"name": "ICICI Bank ATM", "reference": "ChIJCfEQi8tlUjoRdZkJRwmi6TU", "geometry": {"location": {"lat": 13.0983, "lng": 80.2361}, "viewport": {"northeast": {"lat": 13.0996368802915, "lng": 80.2374467802915}, "southwest": {"lat": 13.0969389197085, "lng": 80.2347488197085}}}, "opening_hours": {"open_now": true}, "place_id": "ChIJCfEQi8tlUjoRdZkJRwmi6TU", "plus_code": {"global_code": "7M5236XP+8C", "compound_code": "36XP+8C Chennai, Tamil Nadu, India"}, "vicinity": "Ayanavaram Road, Vasantha nagar, Chinna Chembarambakkam, Ayanavaram, Chennai", "scope": "GOOGLE", "business_status": "OPERATIONAL", "types": ["atm", "bank", "finance", "point_of_interest", "establishment"], "icon": "https://maps.gstatic.com/mapfiles/place_api/icons/v1/png_71/atm-71.png"}, {"rating": 3.8, "user_ratings_total": 17, "name": "Axis Bank", "reference": "ChIJ8TuNjstlUjoRPIToh6TELLo", "geometry": {"location": {"lat": 13.0984529, "lng": 80.2359038}, "viewport": {"northeast": {"lat": 13.0997525802915, "lng": 80.2372431302915}, "southwest": {"lat": 13.0970546197085, "lng": 80.2345451697085}}}, "opening_hours": {"open_now": false}, "place_id": "ChIJ8TuNjstlUjoRPIToh6TELLo", "plus_code": {"global_code": "7M5236XP+99", "compound_code": "36XP+99 Chennai, Tamil Nadu, India"}, "vicinity": "No 328, Adarsh Towers, Ayanavaram, Chennai", "photos": [{"photo_reference": "ATtYBwKiLJ-ThzzdDYOhNp4L4Lf1eJhcMxRMw0V6YmEc5DVSKPncfZIjHSbcKVBqWBG8gznmT71ETKG3AwFWPhuoOUJivNQEMlP41LOiX1FftORpZJ10sXlqX8Y1JvPR_S9jRjuzLjRzqiw2wT5blYRTf7Vs48EwjqI1fUwa03pf7HpYFwN5", "width": 3463, "html_attributions": ["<a href=\"https://maps.google.com/maps/contrib/118070305515646382567\">Kannan Esakki</a>"], "height": 4618}], "scope": "GOOGLE", "business_status": "OPERATIONAL", "types": ["bank", "finance", "point_of_interest", "establishment"], "icon": "https://maps.gstatic.com/mapfiles/place_api/icons/v1/png_71/bank-71.png"}, {"rating": 2.5, "user_ratings_total": 2, "name": "Bank Of Baroda", "reference": "ChIJ6cIjp89lUjoReZWEHt9OYd8", "geometry": {"location": {"lat": 13.095132, "lng": 80.24146999999999}, "viewport": {"northeast": {"lat": 13.0964819302915, "lng": 80.24281493029152}, "southwest": {"lat": 13.0937839697085, "lng": 80.2401169697085}}}, "opening_hours": {"open_now": false}, "place_id": "ChIJ6cIjp89lUjoReZWEHt9OYd8", "plus_code": {"global_code": "7M5236WR+3H", "compound_code": "36WR+3H Chennai, Tamil Nadu, India"}, "vicinity": "Thiruvalluvar Nagar, Nammalwarpet, Ayanavaram, Chennai", "photos": [{"photo_reference": "ATtYBwJUEQrJlipKac-StN54LMoDCJlRQTzclrJL_oD10Of9TTsDAJ1EhVUv-tJl9cdkEEYwm96Zi2oW5mgEHpa8tykyhRZ1_IfP-MjYFBMSP76o_Umz4RBKIbImMXUaswM3a5LYAtKqBHQrES6Ar6kXl6N4BMzWdKyIx_NL-n4YOl1nOygw", "width": 512, "html_attributions": ["<a href=\"https://maps.google.com/maps/contrib/114743351449442209124\">Bank Of Baroda</a>"], "height": 288}], "scope": "GOOGLE", "business_status": "OPERATIONAL", "types": ["bank", "finance", "point_of_interest", "establishment"], "icon": "https://maps.gstatic.com/mapfiles/place_api/icons/v1/png_71/bank-71.png"}, {"rating": 4, "user_ratings_total": 1, "name": "HDFC Bank ATM", "reference": "ChIJmUGdAYZnUjoR1P9pgCMdqMY", "geometry": {"location": {"lat": 13.0955882, "lng": 80.2435907}, "viewport": {"northeast": {"lat": 13.0969591302915, "lng": 80.24488928029152}, "southwest": {"lat": 13.0942611697085, "lng": 80.2421913197085}}}, "opening_hours": {"open_now": true}, "place_id": "ChIJmUGdAYZnUjoR1P9pgCMdqMY", "plus_code": {"global_code": "7M5236WV+6C", "compound_code": "36WV+6C Chennai, Tamil Nadu, India"}, "vicinity": "27/13, Baraka Main Rd, Nammalwarpet, Chennai", "photos": [{"photo_reference": "ATtYBwIx0s-qFIHR6eIXuof-hoL9pkJnfEtPBblZl5XzQc80L2sWoL7MTdfNrM_d9yjYNfjR40CLOO1sdq-0cloP3MMTznZ_WW9jHNZzDBL4nRdbs8QqxIWMy4zDg_-edmjrMHS7uVA3CNUExlqM_YEG61v2uthU31KCNfznI2tNRdaOb68K", "width": 1080, "html_attributions": ["<a href=\"https://maps.google.com/maps/contrib/101383701201261699545\">Siddharth Sinha</a>"], "height": 1920}], "scope": "GOOGLE", "business_status": "OPERATIONAL", "types": ["atm", "bank", "finance", "point_of_interest", "establishment"], "icon": "https://maps.gstatic.com/mapfiles/place_api/icons/v1/png_71/atm-71.png"}, {"rating": 4.1, "user_ratings_total": 7, "name": "Bank Of Baroda", "reference": "ChIJiQdARctlUjoRc_Kd_Zlp9x4", "geometry": {"location": {"lat": 13.098733, "lng": 80.232964}, "viewport": {"northeast": {"lat": 13.1000511302915, "lng": 80.2343070802915}, "southwest": {"lat": 13.0973531697085, "lng": 80.2316091197085}}}, "opening_hours": {"open_now": false}, "place_id": "ChIJiQdARctlUjoRc_Kd_Zlp9x4", "plus_code": {"global_code": "7M5236XM+F5", "compound_code": "36XM+F5 Chennai, Tamil Nadu, India"}, "vicinity": "No. 93, Ayanavaram Road, KK Nagar, Ayanavaram, Chennai", "photos": [{"photo_reference": "ATtYBwI0YT1cXZeTJcJEwgbeEhDaGnbXEVWr6nJGge2ACeg7kHPllfxSOc0G9yrdoA5xLs7wy2VNGdYFmFf8YD3YXU_sgPKZZKH4ThaV1grXuB1BheybskeHmz8yvC6l6Aoz3NsutpGbQIgaeGkM8rZmi9aMU6GUTLQs4xyvxT3TImqS-HZ1", "width": 512, "html_attributions": ["<a href=\"https://maps.google.com/maps/contrib/109490432798838100014\">Bank Of Baroda</a>"], "height": 288}], "scope": "GOOGLE", "business_status": "OPERATIONAL", "types": ["atm", "bank", "finance", "point_of_interest", "establishment"], "icon": "https://maps.gstatic.com/mapfiles/place_api/icons/v1/png_71/bank-71.png"}, {"name": "Axis Bank ATM", "reference": "ChIJzS5alVpvUjoRdPkVwnluWQI", "geometry": {"location": {"lat": 13.0971715, "lng": 80.23224479999999}, "viewport": {"northeast": {"lat": 13.0985248802915, "lng": 80.2335942802915}, "southwest": {"lat": 13.0958269197085, "lng": 80.23089631970849}}}, "opening_hours": {"open_now": true}, "place_id": "ChIJzS5alVpvUjoRdPkVwnluWQI", "plus_code": {"global_code": "7M5236WJ+VV", "compound_code": "36WJ+VV Chennai, Tamil Nadu, India"}, "vicinity": "No 31, 1/75, Ayanavaram, Chennai", "scope": "GOOGLE", "business_status": "OPERATIONAL", "types": ["atm", "bank", "finance", "point_of_interest", "establishment"], "icon": "https://maps.gstatic.com/mapfiles/place_api/icons/v1/png_71/atm-71.png"}, {"rating": 4, "user_ratings_total": 4, "name": "State Bank Of India", "reference": "ChIJ94d8wLZlUjoRP5TaUA-rw3s", "geometry": {"location": {"lat": 13.1081856, "lng": 80.2374932}, "viewport": {"northeast": {"lat": 13.1094510302915, "lng": 80.2388509302915}, "southwest": {"lat": 13.1067530697085, "lng": 80.2361529697085}}}, "place_id": "ChIJ94d8wLZlUjoRP5TaUA-rw3s", "plus_code": {"global_code": "7M52465P+7X", "compound_code": "465P+7X Chennai, Tamil Nadu, India"}, "vicinity": "Siruvallur High Road, Jagannathan Colony, Perambur, Chennai", "photos": [{"photo_reference": "ATtYBwKNTm4cRpYVGA5bY_iTxWIzRCQi0JYp8jYF9UotjRH-UKJaSiCMtm22Vm4KACpj11SFgdgIkHeeeb7k62SYCX7DXY1ZkKcieDAdmPZId635rtFyIuTY0wGKWjz8Ry-Bip-K1k7yp1VFJiC6_XWJamoSKFzSlpmmCwTgr2SWp-0TS1FR", "width": 2592, "html_attributions": ["<a href=\"https://maps.google.com/maps/contrib/105181129827432605340\">Pragadeesh Sridhar</a>"], "height": 1944}], "scope": "GOOGLE", "business_status": "OPERATIONAL", "types": ["bank", "atm", "finance", "point_of_interest", "establishment"], "icon": "https://maps.gstatic.com/mapfiles/place_api/icons/v1/png_71/bank-71.png"}, {"rating": 3.4, "user_ratings_total": 16, "name": "Axis Bank", "reference": "ChIJFw0Yd7plUjoRfp5BhNplBck", "geometry": {"location": {"lat": 13.1090668, "lng": 80.24450809999999}, "viewport": {"northeast": {"lat": 13.1104245802915, "lng": 80.24573603029151}, "southwest": {"lat": 13.1077266197085, "lng": 80.24303806970849}}}, "opening_hours": {"open_now": false}, "place_id": "ChIJFw0Yd7plUjoRfp5BhNplBck", "plus_code": {"global_code": "7M52465V+JR", "compound_code": "465V+JR Chennai, Tamil Nadu, India"}, "vicinity": "Chakravarthy Towers, No 76, Madhavaram High Road, Chennai", "photos": [{"photo_reference": "ATtYBwJWkE_QIr7h5pknWTW69lrFQ56aamlioCzPT0682Y6CY42ClawsxybS4oO-kZNwMrlOq4LBghDSJeVSEsSxSmc54nEEw_-WWy5Y0_dTIAIZwDSgfrhDCERxBDWPVAj78mZR7DYRPSkqJmmQebdTwzptAIjEihSRtFOWZeSNhUF8tCm-", "width": 3120, "html_attributions": ["<a href=\"https://maps.google.com/maps/contrib/118070305515646382567\">Kannan Esakki</a>"], "height": 4160}], "scope": "GOOGLE", "business_status": "OPERATIONAL", "types": ["bank", "finance", "point_of_interest", "establishment"], "icon": "https://maps.gstatic.com/mapfiles/place_api/icons/v1/png_71/bank-71.png"}, {"rating": 4.5, "user_ratings_total": 11, "name": "Central Bank of India - Periamet Branch", "reference": "ChIJtcRK-DRkUjoRzW6uUQ44hU4", "geometry": {"location": {"lat": 13.099915, "lng": 80.2295001}, "viewport": {"northeast": {"lat": 13.1012142802915, "lng": 80.23084083029151}, "southwest": {"lat": 13.0985163197085, "lng": 80.22814286970849}}}, "opening_hours": {"open_now": false}, "place_id": "ChIJtcRK-DRkUjoRzW6uUQ44hU4", "plus_code": {"global_code": "7M5236XH+XR", "compound_code": "36XH+XR Chennai, Tamil Nadu, India"}, "vicinity": "266/1And 266/2, Konnur High Road, Ayanavaram, Chennai", "photos": [{"photo_reference": "ATtYBwK0rTbicMJLOAOijEd7SncqX_5TA5pkYAP_Iba8uPxOswhzIn6xGcJwvBd6otCeH4VmKZG45YIjZzgQR4Px42O7Wd-qJyykePnIaEjdk3QnNy9dfEvMQCt0UjjxcmZqdxcW8oFdph1MS3MP18tl9TrcdQ1UlkTWuWcPd7s8uz1YxsWA", "width": 3463, "html_attributions": ["<a href=\"https://maps.google.com/maps/contrib/118070305515646382567\">Kannan Esakki</a>"], "height": 4618}], "scope": "GOOGLE", "business_status": "OPERATIONAL", "types": ["bank", "finance", "point_of_interest", "establishment"], "icon": "https://maps.gstatic.com/mapfiles/place_api/icons/v1/png_71/bank-71.png"}, {"rating": 3.8, "user_ratings_total": 4, "name": "ICICI Bank Ayanavaram, Chennai - Branch & ATM", "reference": "ChIJeQAAADVkUjoREasTQOW0yI8", "geometry": {"location": {"lat": 13.100522, "lng": 80.229343}, "viewport": {"northeast": {"lat": 13.1018946302915, "lng": 80.2307225302915}, "southwest": {"lat": 13.0991966697085, "lng": 80.2280245697085}}}, "opening_hours": {"open_now": false}, "place_id": "ChIJeQAAADVkUjoREasTQOW0yI8", "plus_code": {"global_code": "7M52462H+6P", "compound_code": "462H+6P Chennai, Tamil Nadu, India"}, "vicinity": "K.h.road,ayanavaram, Chennai", "photos": [{"photo_reference": "ATtYBwLUMYivwAbwBLxr9Vw1J6qNPayVNEhHmlA2EXgCpgRA07J6RHN3h5g0ruF3kqA7j9u5NaPKFatkJv2x-AffXh9V04FV1FtEoAUTRreLfPGlJ9v1H9aQQNh0HqPsBQZSQFZovTyJuzvLt7CeFkkGqL89TT9aipiqDr87a_IdkhMLICQe", "width": 4160, "html_attributions": ["<a href=\"https://maps.google.com/maps/contrib/105277920356620564709\">sundaravadivelu govindaswamy</a>"], "height": 3120}], "scope": "GOOGLE", "business_status": "OPERATIONAL", "types": ["bank", "atm", "finance", "point_of_interest", "establishment"], "icon": "https://maps.gstatic.com/mapfiles/place_api/icons/v1/png_71/bank-71.png"}, {"rating": 1, "user_ratings_total": 1, "name": "Fedbank Fast Gold Loans - Perambur Branch", "reference": "ChIJYc8O9rllUjoRqGzBTp8IFw8", "geometry": {"location": {"lat": 13.1095774, "lng": 80.24430490000002}, "viewport": {"northeast": {"lat": 13.1108972302915, "lng": 80.24561023029152}, "southwest": {"lat": 13.1081992697085, "lng": 80.2429122697085}}}, "opening_hours": {"open_now": false}, "place_id": "ChIJYc8O9rllUjoRqGzBTp8IFw8", "plus_code": {"global_code": "7M52465V+RP", "compound_code": "465V+RP Chennai, Tamil Nadu, India"}, "vicinity": "Opposite To Perambur Railway Station, M.H. Road, Perambur, Chennai", "photos": [{"photo_reference": "ATtYBwK9Vt3mvnM_dg_kp6-nB3ktiDV_lfjKuwM5xeCOH73IHHWT5IZUqM8gCUHQYB0x0V_L0FbezpxQxsFioCXVbiyoBbMcOzv_GVWWZVRlwZDLMN6lhho10g7NVhML63ni_JIpxK9qWj6Hi_j3DoVmhIscB_sZeNdDgyqK6QM5f3EboPn8", "width": 2304, "html_attributions": ["<a href=\"https://maps.google.com/maps/contrib/114456889915609006090\">Santosh V</a>"], "height": 4096}], "scope": "GOOGLE", "business_status": "OPERATIONAL", "types": ["bank", "finance", "point_of_interest", "establishment"], "icon": "https://maps.gstatic.com/mapfiles/place_api/icons/v1/png_71/bank-71.png"}, {"rating": 3.6, "user_ratings_total": 20, "name": "State Bank of India", "reference": "ChIJZTjeLb9lUjoRgbdAHuXsqGE", "geometry": {"location": {"lat": 13.1063467, "lng": 80.2491917}, "viewport": {"northeast": {"lat": 13.1077351802915, "lng": 80.2505496302915}, "southwest": {"lat": 13.1050372197085, "lng": 80.2478516697085}}}, "opening_hours": {"open_now": false}, "place_id": "ChIJZTjeLb9lUjoRgbdAHuXsqGE", "plus_code": {"global_code": "7M52464X+GM", "compound_code": "464X+GM Chennai, Tamil Nadu, India"}, "vicinity": "No. 29, Perambur High Road, Desia Colony, Jamalia, Chennai", "photos": [{"photo_reference": "ATtYBwJSP95aQE_9ugyPKTHrGtNtDBFCF07_OPljZp45IPsbZzvuMwH6K21iU0sOr95VgYH3aDRZk2O_Zin21X4XvHE0aejs5BtS7DYDXS4EuTdR8OB-1tgk7Fv5FMcmdb-PZVRiBqex4VmwCr_lX9FvDBBAMHCfMIApuJyAQ-yBZyJOtH9P", "width": 1536, "html_attributions": ["<a href=\"https://maps.google.com/maps/contrib/118070305515646382567\">Kannan Esakki</a>"], "height": 2048}], "scope": "GOOGLE", "business_status": "OPERATIONAL", "types": ["bank", "atm", "finance", "point_of_interest", "establishment"], "icon": "https://maps.gstatic.com/mapfiles/place_api/icons/v1/png_71/bank-71.png"}, {"rating": 4.8, "user_ratings_total": 4, "name": "TNSC Bank", "reference": "ChIJg_KR9tllUjoR4DABgsHYqvU", "geometry": {"location": {"lat": 13.0893489, "lng": 80.2414415}, "viewport": {"northeast": {"lat": 13.0906676802915, "lng": 80.2427452802915}, "southwest": {"lat": 13.0879697197085, "lng": 80.2400473197085}}}, "place_id": "ChIJg_KR9tllUjoR4DABgsHYqvU", "plus_code": {"global_code": "7M5236QR+PH", "compound_code": "36QR+PH Chennai, Tamil Nadu, India"}, "vicinity": "Near Vijaya Physiotherapy, New No. 129, Old No. 55, Near Vijaya Physiotherapy, Medavakkam Tank Road, Kellys, Chennai", "photos": [{"photo_reference": "ATtYBwJzLIHlq-L7Rqv-Ts99JqfkH7VJsT5TrSFfEdTgNVPi8ZXrbz5zajvCn0Fn9VKWkqzTKLOnQkJC4a1TNf6ZiQk2SJA58MtSWTCkvclHMa3lDRGW0lHn03YEMBTpHzq9VoK2H3PdEeHPByD0tAxJveSkX0TmKElDSkzmVFcPxxQM5NVw", "width": 3120, "html_attributions": ["<a href=\"https://maps.google.com/maps/contrib/117187843480825696873\">Rasslin Justin</a>"], "height": 4160}], "scope": "GOOGLE", "business_status": "OPERATIONAL", "types": ["bank", "finance", "point_of_interest", "establishment"], "icon": "https://maps.gstatic.com/mapfiles/place_api/icons/v1/png_71/bank-71.png"}, {"rating": 3.8, "user_ratings_total": 4, "name": "Canara Bank", "reference": "ChIJgcjWBLplUjoRwpSRJ1kUTNM", "geometry": {"location": {"lat": 13.1100894, "lng": 80.24391550000001}, "viewport": {"northeast": {"lat": 13.1113966302915, "lng": 80.2452162802915}, "southwest": {"lat": 13.1086986697085, "lng": 80.2425183197085}}}, "opening_hours": {"open_now": false}, "place_id": "ChIJgcjWBLplUjoRwpSRJ1kUTNM", "plus_code": {"global_code": "7M52466V+2H", "compound_code": "466V+2H Chennai, Tamil Nadu, India"}, "vicinity": "Madhavaram High Road, Perambur, Chennai", "photos": [{"photo_reference": "ATtYBwK_9pjDvGiBAteaFH_HleN5BVm-ABA5i4uzwiw1FmutXmR6VG9nNyTPYd-8X1I9igL8SYBoixPm_H4PeFtM85BV9Q1bIf_HzHiCUm1LJ6OavlYqAMHQOHtT0riHzExfrO69pjH-yxHRbt6fpWjzZICXK4S-o1fvYXXiRVnKxPXJ1rtE", "width": 3000, "html_attributions": ["<a href=\"https://maps.google.com/maps/contrib/100168160817473622018\">Haridanvantre Physiotherapy clinic</a>"], "height": 4000}], "scope": "GOOGLE", "business_status": "OPERATIONAL", "types": ["bank", "finance", "point_of_interest", "establishment"], "icon": "https://maps.gstatic.com/mapfiles/place_api/icons/v1/png_71/bank-71.png"}]}