{"status": "OK", "next_page_token": "AcnaJv0tdPBWqUoFyLokFoQI4tT6F87j__F2lSHfrV0PSXfC3axUaRlfB12a9QK2Ns4dvAFanvaPv24emzFaMNedi2IqVayQV8oJ40fC-saq1lb1My13hK_GD0FBlO0g0iz9MeCKXn0eYKZ7xk74RfEKPZg-Bh2bDLGrhvDygS7_JQQ_9RL551unwfZ-5B6R2hpf68q11QIgfmqMML4Gm_05O3BavZIbUTBmt3OA0Ddx8mDgmNaLpNjz7HXzHDw-OxuoA0rGBVsm6knp8yZsZ36kpS4VjcKKDl5Wn4aDQNzpisY10TBQ9HR9T2cJw-rinSZj9Ax7JL-G_t0VhhAByWG3-yHR63cORU5FVA730pKAO-f5PBPyLHdxRKketYLX09lQZqlWWFsAf7RYx1Paa6ZJJRI1Holl2C4xFF3dMslzCgV-wAhOI_JbKFY2X8nFWRdc164-0I6a6nmg6Nc9_L_1OX3O3Y9LSeYJJvjhqJEZYVdD6KfPFShF8eDHd75PsKCt4o9Txij-oiU95xc__QddclnldjSvOYO2-4oGKZ9pMEs9-G9vWuJ3fd7fWJv1R73V-lZgcEF75qFz2r8Ttowqlnio9vBAgIjhyqIO23aoH7zzqrOxi2mhluF2ZeCLQ_Z6nvXTTRtin_CWirsr", "html_attributions": [], "results": [{"name": "Fashion point", "reference": "ChIJOQg4oJICDTkRQDFzDjLLO5k", "geometry": {"location": {"lat": 28.653381, "lng": 77.172871}, "viewport": {"northeast": {"lat": 28.6547299802915, "lng": 77.17421998029151}, "southwest": {"lat": 28.6520320197085, "lng": 77.17152201970849}}}, "opening_hours": {"open_now": true}, "place_id": "ChIJOQg4oJICDTkRQDFzDjLLO5k", "plus_code": {"global_code": "7JWVM53F+94", "compound_code": "M53F+94 New Delhi, Delhi, India"}, "vicinity": "V55, West Patel Nagar, New Delhi", "scope": "GOOGLE", "business_status": "OPERATIONAL", "types": ["department_store", "point_of_interest", "clothing_store", "store", "establishment"], "icon": "https://maps.gstatic.com/mapfiles/place_api/icons/v1/png_71/shopping-71.png"}, {"name": "Pooja Store", "reference": "ChIJB6vUV_ACDTkRwGhjImeh9-I", "geometry": {"location": {"lat": 28.655349, "lng": 77.162356}, "viewport": {"northeast": {"lat": 28.6567154802915, "lng": 77.1637274302915}, "southwest": {"lat": 28.6540175197085, "lng": 77.1610294697085}}}, "opening_hours": {"open_now": true}, "place_id": "ChIJB6vUV_ACDTkRwGhjImeh9-I", "plus_code": {"global_code": "7JWVM546+4W", "compound_code": "M546+4W New Delhi, Delhi, India"}, "vicinity": "Block B, Baljit Nagar, Patel Nagar, New Delhi", "scope": "GOOGLE", "business_status": "OPERATIONAL", "types": ["department_store", "point_of_interest", "store", "establishment"], "icon": "https://maps.gstatic.com/mapfiles/place_api/icons/v1/png_71/shopping-71.png"}, {"rating": 3.7, "user_ratings_total": 63, "name": "Pandey Store", "reference": "ChIJmxsgf_oCDTkRDEXr6hiif-A", "geometry": {"location": {"lat": 28.6554365, "lng": 77.1597565}, "viewport": {"northeast": {"lat": 28.6567628302915, "lng": 77.1611236802915}, "southwest": {"lat": 28.6540648697085, "lng": 77.15842571970849}}}, "opening_hours": {"open_now": true}, "place_id": "ChIJmxsgf_oCDTkRDEXr6hiif-A", "plus_code": {"global_code": "7JWVM545+5W", "compound_code": "M545+5W Delhi, India"}, "vicinity": "T-517, D-31, Hill Marg, Baljit Nagar, Patel Nagar, Delhi", "photos": [{"photo_reference": "CmRaAAAAWv2ttkbfCx0ST5putw8GB5vdh5WcFVXhEHftTJZsfPsfgtvHuDTsXD186mEWZ4FxF3-aXYhKgI6fMr02_33RzGdo3XK5-KZk69rZiiTkH6gb2MLUkJwGV0pNDUMxnLnEEhBGaR99RMDjU4mj_k8kJTq0GhTYbn-pz6SKtiexOAcK8jdj7aTUVQ", "width": 2048, "html_attributions": ["<a href=\"https://maps.google.com/maps/contrib/111449572068999783817\">Pandey Store</a>"], "height": 1152}], "scope": "GOOGLE", "business_status": "OPERATIONAL", "types": ["department_store", "grocery_or_supermarket", "food", "point_of_interest", "store", "establishment"], "icon": "https://maps.gstatic.com/mapfiles/place_api/icons/v1/png_71/shopping-71.png"}, {"rating": 3.2, "user_ratings_total": 5, "name": "Guru Kirpa Patanjali Store", "reference": "ChIJkYEjgvoCDTkRz1KHTD_aW4g", "geometry": {"location": {"lat": 28.6547445, "lng": 77.159909}, "viewport": {"northeast": {"lat": 28.6561070302915, "lng": 77.1612507802915}, "southwest": {"lat": 28.6534090697085, "lng": 77.15855281970849}}}, "place_id": "ChIJkYEjgvoCDTkRz1KHTD_aW4g", "plus_code": {"global_code": "7JWVM535+VX", "compound_code": "M535+VX New Delhi, Delhi, India"}, "vicinity": "T516, Mandir Marg, Baljit Nagar, Patel Nagar, New Delhi", "scope": "GOOGLE", "business_status": "OPERATIONAL", "types": ["department_store", "point_of_interest", "store", "establishment"], "icon": "https://maps.gstatic.com/mapfiles/place_api/icons/v1/png_71/shopping-71.png"}, {"name": "RK Property Builder", "reference": "ChIJjzGkd48CDTkRytd4aldC0Ws", "geometry": {"location": {"lat": 28.6574239, "lng": 77.1821835}, "viewport": {"northeast": {"lat": 28.6587711802915, "lng": 77.18353123029149}, "southwest": {"lat": 28.6560732197085, "lng": 77.18083326970849}}}, "place_id": "ChIJjzGkd48CDTkRytd4aldC0Ws", "plus_code": {"global_code": "7JWVM54J+XV", "compound_code": "M54J+XV New Delhi, Delhi, India"}, "vicinity": "Bapa Nagar, Karol Bagh, New Delhi", "scope": "GOOGLE", "business_status": "OPERATIONAL", "types": ["department_store", "point_of_interest", "store", "establishment"], "icon": "https://maps.gstatic.com/mapfiles/place_api/icons/v1/png_71/shopping-71.png"}, {"rating": 4.5, "user_ratings_total": 2, "name": "7C2 SUPER MART", "reference": "ChIJOfhGhGgDDTkRhoyhwQXD3Qs", "geometry": {"location": {"lat": 28.6494823, "lng": 77.1656886}, "viewport": {"northeast": {"lat": 28.6508424802915, "lng": 77.1670463802915}, "southwest": {"lat": 28.6481445197085, "lng": 77.16434841970849}}}, "opening_hours": {"open_now": true}, "place_id": "ChIJOfhGhGgDDTkRhoyhwQXD3Qs", "plus_code": {"global_code": "7JWVJ5X8+Q7", "compound_code": "J5X8+Q7 New Delhi, Delhi, India"}, "vicinity": "West Patel Nagar Road, Block 7, West Patel Nagar, Patel Nagar, New Delhi", "scope": "GOOGLE", "business_status": "OPERATIONAL", "types": ["department_store", "point_of_interest", "store", "establishment"], "icon": "https://maps.gstatic.com/mapfiles/place_api/icons/v1/png_71/shopping-71.png"}, {"rating": 1, "user_ratings_total": 1, "name": "Shri Kalki Traders - Patanjali Store", "reference": "ChIJafkrVo8CDTkRAdVv3q-fryE", "geometry": {"location": {"lat": 28.659703, "lng": 77.18299600000002}, "viewport": {"northeast": {"lat": 28.66110018029149, "lng": 77.18436423029151}, "southwest": {"lat": 28.6584022197085, "lng": 77.1816662697085}}}, "opening_hours": {"open_now": false}, "place_id": "ChIJafkrVo8CDTkRAdVv3q-fryE", "plus_code": {"global_code": "7JWVM55M+V5", "compound_code": "M55M+V5 New Delhi, Delhi, India"}, "vicinity": "280/3, Anand Parbat Road, Ram Swaroop Vidyarthi Marg, Than Singh Nagar, Anand Parbat, New Delhi", "scope": "GOOGLE", "business_status": "OPERATIONAL", "types": ["department_store", "point_of_interest", "store", "establishment"], "icon": "https://maps.gstatic.com/mapfiles/place_api/icons/v1/png_71/shopping-71.png"}, {"rating": 3.6, "user_ratings_total": 25, "name": "R.S PATANJALI STORE", "reference": "ChIJUY7Aq_oCDTkRt7Y9Ggb6nuY", "geometry": {"location": {"lat": 28.652528, "lng": 77.159764}, "viewport": {"northeast": {"lat": 28.6539173302915, "lng": 77.16108778029151}, "southwest": {"lat": 28.6512193697085, "lng": 77.15838981970849}}}, "opening_hours": {"open_now": false}, "place_id": "ChIJUY7Aq_oCDTkRt7Y9Ggb6nuY", "plus_code": {"global_code": "7JWVM535+2W", "compound_code": "M535+2W New Delhi, Delhi, India"}, "vicinity": "Shop no.22, Khanna Market, West Patel Nagar, New Delhi", "photos": [{"photo_reference": "CmRaAAAAu8YzqENeKBbS3H1hkBJelaG78jhuOUo8eXrurlOpCwm023p8id6vC_CNAkLzGfZ1sfdeuB5R8bJ_lP_kV2p9DUUhyoaEcu7u3cOjO-2X_I-NJTQD04AYUu8whoVQ-UToEhAhhXAfZe_C8v4IGbozCUhIGhQimAPpw47XbfweokbW3fXm0qI0RA", "width": 2048, "html_attributions": ["<a href=\"https://maps.google.com/maps/contrib/115927729541811816618\">R.S PATANJALI STORE</a>"], "height": 1152}], "scope": "GOOGLE", "business_status": "OPERATIONAL", "types": ["department_store", "point_of_interest", "store", "establishment"], "icon": "https://maps.gstatic.com/mapfiles/place_api/icons/v1/png_71/shopping-71.png"}, {"rating": 2.8, "user_ratings_total": 4, "name": "Sangam Store", "reference": "ChIJY7Fj2qgDDTkRK27F2K1IA_0", "geometry": {"location": {"lat": 28.6514378, "lng": 77.1791462}, "viewport": {"northeast": {"lat": 28.6528197302915, "lng": 77.18048538029151}, "southwest": {"lat": 28.6501217697085, "lng": 77.1777874197085}}}, "place_id": "ChIJY7Fj2qgDDTkRK27F2K1IA_0", "plus_code": {"global_code": "7JWVM52H+HM", "compound_code": "M52H+HM New Delhi, Delhi, India"}, "vicinity": "Mata Rameshwari Nehru Nagar, Karol Bagh, New Delhi", "scope": "GOOGLE", "business_status": "OPERATIONAL", "types": ["department_store", "point_of_interest", "store", "establishment"], "icon": "https://maps.gstatic.com/mapfiles/place_api/icons/v1/png_71/shopping-71.png"}, {"rating": 5, "user_ratings_total": 1, "name": "Sanjay's Pick N Pay", "reference": "ChIJz9bYFOwCDTkRXIkGNrmEqgg", "geometry": {"location": {"lat": 28.64845769999999, "lng": 77.16709709999999}, "viewport": {"northeast": {"lat": 28.6497531802915, "lng": 77.1684030802915}, "southwest": {"lat": 28.6470552197085, "lng": 77.16570511970849}}}, "opening_hours": {"open_now": true}, "place_id": "ChIJz9bYFOwCDTkRXIkGNrmEqgg", "plus_code": {"global_code": "7JWVJ5X8+9R", "compound_code": "J5X8+9R Delhi, India"}, "vicinity": "C-85-87, West Patel Nagar", "photos": [{"photo_reference": "CmRaAAAA2o5teKmgGwntq87QdegQcp6CAWg1wdCl2Hh91c_rFPilPKMhZmmzWRQSBOF-V2TYK2hw7FTLzvz93-3zeFpMGY9RcjC1ycwUeGRBgzZxIg8GY5jSvdPtB7BPwjOfrS5bEhCR-gNO-nrMdp6Z4Oy1FmKtGhST-ATFwO6CNUbDesbk-ecHu4EVVQ", "width": 2048, "html_attributions": ["<a href=\"https://maps.google.com/maps/contrib/108934633461324120428\">Sanjay&#39;s Pick N Pay</a>"], "height": 1536}], "scope": "GOOGLE", "business_status": "OPERATIONAL", "types": ["department_store", "grocery_or_supermarket", "food", "point_of_interest", "store", "establishment"], "icon": "https://maps.gstatic.com/mapfiles/place_api/icons/v1/png_71/shopping-71.png"}, {"name": "Shushila Patanjali Store", "reference": "ChIJPQvebuwCDTkRvyLEXez_FEM", "geometry": {"location": {"lat": 28.648304, "lng": 77.1677485}, "viewport": {"northeast": {"lat": 28.6496329802915, "lng": 77.1690816802915}, "southwest": {"lat": 28.6469350197085, "lng": 77.16638371970849}}}, "opening_hours": {"open_now": true}, "place_id": "ChIJPQvebuwCDTkRvyLEXez_FEM", "plus_code": {"global_code": "7JWVJ5X9+83", "compound_code": "J5X9+83 New Delhi, Delhi, India"}, "vicinity": "B-, 125, West Patel Nagar Road, Block 12, West Patel Nagar, Patel Nagar, New Delhi", "scope": "GOOGLE", "business_status": "OPERATIONAL", "types": ["department_store", "point_of_interest", "store", "establishment"], "icon": "https://maps.gstatic.com/mapfiles/place_api/icons/v1/png_71/shopping-71.png"}, {"name": "Singh Diary & Departmental Store", "reference": "ChIJadLbGOwCDTkRwlTpVlFEjqU", "geometry": {"location": {"lat": 28.64841779999999, "lng": 77.1661881}, "viewport": {"northeast": {"lat": 28.6495709302915, "lng": 77.1673832302915}, "southwest": {"lat": 28.6468729697085, "lng": 77.16468526970849}}}, "opening_hours": {"open_now": true}, "place_id": "ChIJadLbGOwCDTkRwlTpVlFEjqU", "plus_code": {"global_code": "7JWVJ5X8+9F", "compound_code": "J5X8+9F New Delhi, Delhi, India"}, "vicinity": "C/1, Balraj Khanna Marg, Block 6, West Patel Nagar, Patel Nagar, New Delhi", "photos": [{"photo_reference": "CmRaAAAAGCLBp83pRebJybj2BsHrrc87Mxcp_oyAgE_hNW-Bx8fngKkhKIVuETu69KKq_SVPkz2Bel4TFBjlAGRA2wBBbYbCpK1KjRBbj7baFB6R1Z5uvLXUfWSOXIxQZ-QkVwzTEhB8OntifrmPHhl3TuHIeh_QGhRAoloVoU4NNNjDTY1t_qXjL4uZFw", "width": 1490, "html_attributions": ["<a href=\"https://maps.google.com/maps/contrib/110661775753793784307\">Ravi Singh</a>"], "height": 1423}], "scope": "GOOGLE", "business_status": "OPERATIONAL", "types": ["department_store", "point_of_interest", "store", "establishment"], "icon": "https://maps.gstatic.com/mapfiles/place_api/icons/v1/png_71/shopping-71.png"}, {"rating": 3, "user_ratings_total": 2, "name": "Faizan Store", "reference": "ChIJx6YWalwCDTkRPIJkh25eGpk", "geometry": {"location": {"lat": 28.6718713, "lng": 77.1671705}, "viewport": {"northeast": {"lat": 28.6732400302915, "lng": 77.16847398029151}, "southwest": {"lat": 28.6705420697085, "lng": 77.1657760197085}}}, "place_id": "ChIJx6YWalwCDTkRPIJkh25eGpk", "plus_code": {"global_code": "7JWVM5C8+PV", "compound_code": "M5C8+PV New Delhi, Delhi, India"}, "vicinity": "A-15/113, DDA Flat, Inderlok, New Delhi", "scope": "GOOGLE", "business_status": "OPERATIONAL", "types": ["department_store", "point_of_interest", "store", "establishment"], "icon": "https://maps.gstatic.com/mapfiles/place_api/icons/v1/png_71/shopping-71.png"}, {"name": "WHSmith Store", "reference": "ChIJP7bmdF0CDTkRHH0pO4EY7N8", "geometry": {"location": {"lat": 28.673522, "lng": 77.170192}, "viewport": {"northeast": {"lat": 28.6748049802915, "lng": 77.1718123302915}, "southwest": {"lat": 28.6721070197085, "lng": 77.1691143697085}}}, "opening_hours": {"open_now": true}, "place_id": "ChIJP7bmdF0CDTkRHH0pO4EY7N8", "plus_code": {"global_code": "7JWVM5FC+C3", "compound_code": "M5FC+C3 Delhi, India"}, "vicinity": "Metro Station, ILOK/K-11, Paid Area Inderlok, Inderlok, Delhi", "photos": [{"photo_reference": "CmRaAAAAB9F0BTnDg6nlFVNOvf5yJWdHSlzVl1JNYxKSCIPPldakg04nbDYoBwhwYj3H46DGHGkIS0UVNpfSYRWGlqY_EoMqfH9HsSH0Damzt9p2sCDx51g-bEdulPAkkXXtDHCzEhDK6U1KfKo5IKRjrffxXGVLGhTuRmIJh1QkKQ5bRlQFh1y5ROgztw", "width": 250, "html_attributions": ["<a href=\"https://maps.google.com/maps/contrib/104604501630107553475\">WHSmith Store</a>"], "height": 250}], "scope": "GOOGLE", "business_status": "OPERATIONAL", "types": ["department_store", "point_of_interest", "store", "establishment"], "icon": "https://maps.gstatic.com/mapfiles/place_api/icons/v1/png_71/shopping-71.png"}, {"rating": 3.3, "user_ratings_total": 3, "name": "Lucky Dairy and Departmental Store", "reference": "ChIJWwmHC6YDDTkR3y9x9J9L85E", "geometry": {"location": {"lat": 28.64932289999999, "lng": 77.1605987}, "viewport": {"northeast": {"lat": 28.65066183029149, "lng": 77.1619790302915}, "southwest": {"lat": 28.6479638697085, "lng": 77.15928106970848}}}, "place_id": "ChIJWwmHC6YDDTkR3y9x9J9L85E", "plus_code": {"global_code": "7JWVJ5X6+P6", "compound_code": "J5X6+P6 New Delhi, Delhi, India"}, "vicinity": "wz-6, West Patel Nagar, Ranjeet Nagar, New Delhi", "photos": [{"photo_reference": "CmRaAAAAUfVox8ErHHnIkmZTBaKTNyeBnKDKNIpQvOS_9_po1qcBh8ImFTCPnTaf0eSJumN8cn33CQS7bMshyH3MRzy6LS3FjCu64tlWho8nPOGOX8j0YB2emAqAp0rs6DUFwSX1EhDx9x5LVOWCazJEzsOSz4uCGhSSJqjrH6sBuK2QX9khT7NDFeu21g", "width": 960, "html_attributions": ["<a href=\"https://maps.google.com/maps/contrib/108004257254383091558\">shashikant poonia</a>"], "height": 1280}], "scope": "GOOGLE", "business_status": "OPERATIONAL", "types": ["department_store", "point_of_interest", "store", "establishment"], "icon": "https://maps.gstatic.com/mapfiles/place_api/icons/v1/png_71/shopping-71.png"}, {"rating": 4, "user_ratings_total": 2, "name": "Food Mart", "reference": "ChIJh1XknesCDTkRrkHJThOeIcU", "geometry": {"location": {"lat": 28.646327, "lng": 77.16859099999999}, "viewport": {"northeast": {"lat": 28.6476996802915, "lng": 77.16995868029151}, "southwest": {"lat": 28.6450017197085, "lng": 77.1672607197085}}}, "opening_hours": {"open_now": true}, "place_id": "ChIJh1XknesCDTkRrkHJThOeIcU", "plus_code": {"global_code": "7JWVJ5W9+GC", "compound_code": "J5W9+GC New Delhi, Delhi, India"}, "vicinity": "3283, South Patel Nagar, Ranjeet Nagar, New Delhi", "photos": [{"photo_reference": "CmRaAAAAJCGW0rf7LqyuiA5ctc5RN3JCi7gAiMFQCTcYDFbVCWwu3PmFugXwFxZ0s53-9yeJg2oQZDCsMtdoZU7el8zBs2db0YbrV4jzDbvcP9QIUPjcdrX_tSahyCDhU4AZB9xAEhAP7j6opA2HwBRMw5Wvp6gdGhT1Uhadf3y5NkCrHBCqLrBqYuF2Jg", "width": 1200, "html_attributions": ["<a href=\"https://maps.google.com/maps/contrib/110403455827137348720\">Food Mart</a>"], "height": 1600}], "scope": "GOOGLE", "business_status": "OPERATIONAL", "types": ["department_store", "point_of_interest", "store", "establishment"], "icon": "https://maps.gstatic.com/mapfiles/place_api/icons/v1/png_71/shopping-71.png"}, {"rating": 3.7, "user_ratings_total": 6, "name": "Amitabh Departmental Store", "reference": "ChIJqwzvP2MCDTkRgtWyfYaKUWc", "geometry": {"location": {"lat": 28.6700589, "lng": 77.1816373}, "viewport": {"northeast": {"lat": 28.6712646802915, "lng": 77.18307968029151}, "southwest": {"lat": 28.6685667197085, "lng": 77.18038171970849}}}, "opening_hours": {"open_now": true}, "place_id": "ChIJqwzvP2MCDTkRgtWyfYaKUWc", "vicinity": "B-1245, Shastri Nagar, Shastri Nagar, New Delhi", "scope": "GOOGLE", "business_status": "OPERATIONAL", "types": ["department_store", "point_of_interest", "store", "establishment"], "icon": "https://maps.gstatic.com/mapfiles/place_api/icons/v1/png_71/shopping-71.png"}, {"rating": 2.8, "user_ratings_total": 5, "name": "Manoj Departmental Store", "reference": "ChIJU5ZeKe8CDTkR8fZ4UvkUQcI", "geometry": {"location": {"lat": 28.647173, "lng": 77.16261}, "viewport": {"northeast": {"lat": 28.6485217302915, "lng": 77.16395923029151}, "southwest": {"lat": 28.6458237697085, "lng": 77.1612612697085}}}, "place_id": "ChIJU5ZeKe8CDTkR8fZ4UvkUQcI", "plus_code": {"global_code": "7JWVJ5W7+V2", "compound_code": "J5W7+V2 New Delhi, Delhi, India"}, "vicinity": "Shop No.2659 Patel Road Shadipur, Ranjeet Nagar, New Delhi", "scope": "GOOGLE", "business_status": "OPERATIONAL", "types": ["department_store", "point_of_interest", "store", "establishment"], "icon": "https://maps.gstatic.com/mapfiles/place_api/icons/v1/png_71/shopping-71.png"}, {"rating": 3.8, "user_ratings_total": 4, "name": "WHSmith Store", "reference": "ChIJfUGSBesCDTkRxQRSIWBcFXM", "geometry": {"location": {"lat": 28.645218, "lng": 77.169112}, "viewport": {"northeast": {"lat": 28.6465589302915, "lng": 77.1704546302915}, "southwest": {"lat": 28.6438609697085, "lng": 77.16775666970848}}}, "opening_hours": {"open_now": true}, "place_id": "ChIJfUGSBesCDTkRxQRSIWBcFXM", "plus_code": {"global_code": "7JWVJ5W9+3J", "compound_code": "J5W9+3J New Delhi, Delhi, India"}, "vicinity": "Patel Nagar Metro Station, Shop Number: PN 1 C, PN, Block 2, West Patel Nagar, Patel Nagar, New Delhi", "photos": [{"photo_reference": "CmRaAAAADGPCF3zen5HEUqjP8rWwWXSHv24mF6Bwq9Wvk3uuNE9gYdF7L6wNrWfw-AqrmB-w1ji6GPnTeYE2QYQ35L5kW6UNkWr9yA98OuaQXh5saT9xDEMiRpiVhuM26X_p-UeLEhCiyI5k71sIGY80VwEXYDqAGhQha2-E27SjLxeennhcRVWvJ6yD3g", "width": 1567, "html_attributions": ["<a href=\"https://maps.google.com/maps/contrib/110930026691618328752\">Rohit Kumar Birla</a>"], "height": 650}], "scope": "GOOGLE", "business_status": "OPERATIONAL", "types": ["department_store", "point_of_interest", "store", "establishment"], "icon": "https://maps.gstatic.com/mapfiles/place_api/icons/v1/png_71/shopping-71.png"}, {"rating": 3, "user_ratings_total": 3, "name": "Garg Store - Mittal", "reference": "ChIJ36P_1egCDTkRjFhjVYXTjf0", "geometry": {"location": {"lat": 28.6464741, "lng": 77.1628893}, "viewport": {"northeast": {"lat": 28.6478359802915, "lng": 77.1642466302915}, "southwest": {"lat": 28.6451380197085, "lng": 77.1615486697085}}}, "opening_hours": {"open_now": true}, "place_id": "ChIJ36P_1egCDTkRjFhjVYXTjf0", "plus_code": {"global_code": "7JWVJ5W7+H5", "compound_code": "J5W7+H5 New Delhi, Delhi, India"}, "vicinity": "2967, 1, Street Number 12, Ranjeet Nagar, New Delhi", "scope": "GOOGLE", "business_status": "OPERATIONAL", "types": ["department_store", "point_of_interest", "store", "establishment"], "icon": "https://maps.gstatic.com/mapfiles/place_api/icons/v1/png_71/shopping-71.png"}]}