{"status": "OK", "next_page_token": "AcnaJv31_TL-durX8WNhyOwcluyLErwO9-nzjNc73bFlHvcXAcPYTqMSWJxBorjyfrOo0ndA-IV8RgZJicvM8DdOvDRz7gN5e-86FlfRXTBcfliBKUoYa3rEU0BnGzNpp2EauetctfU1gxU2REn_hJqeQkoe1eE4-sSY1p5rInboW4krf1KqO1wZOaAAAAdaGm5e-HjazLfgU0GNw8SftfWHfR7ddCO-MwQRU555GlDJz948MALNcE8McymtDxSU_GnK_mCUFSWjxe-ZFoO6EwP1_5_TnnzYD6_fX6kuxK7aAyjM49Hd_I9Id8MY6i_Ui0mhbzzGBmsWtPYeO0f_TxP_ctwEoX8KPwiL7FiBIBHLrGk-KfaAEenqMPPVPbk9onFvzHZes5GIGH76QvFrl5sL8Pj1cWBn1mQjCz0EMJmNZCn5DhXcbb8y9StSxdkPHVF7lGVXnb-AGgvwIHYcSKTn5aJqvgA9FMpc37p2ErMizqxDOl4vW7FSb3D1gnkZn2Mm8WQjD7E-kHUH2m4gcXWuMDujzWXNxlSRylmfApxS1dD1_6rt-hsVhYK_xVVgGWk7J1O7oQyH4cVElaZegVKWKU1omubkZAoh3CnhpaRy4KTVpZVmiZ2D5ss3Cepr8CNgLwpQq2n7YX_SPsjg", "html_attributions": [], "results": [{"rating": 3.4, "user_ratings_total": 5, "name": "Guru Nanak Departmental Store", "reference": "ChIJiZikYQbiDDkR2mNmlUCUdZA", "geometry": {"location": {"lat": 28.5378, "lng": 77.21670000000002}, "viewport": {"northeast": {"lat": 28.5391348302915, "lng": 77.2180204302915}, "southwest": {"lat": 28.5364368697085, "lng": 77.2153224697085}}}, "opening_hours": {"open_now": true}, "place_id": "ChIJiZikYQbiDDkR2mNmlUCUdZA", "plus_code": {"global_code": "7JWVG6Q8+4M", "compound_code": "G6Q8+4M New Delhi, Delhi, India"}, "vicinity": "Shop No. 5, Stc/Mmtc Market, Malviya Nagar, New Delhi", "scope": "GOOGLE", "business_status": "OPERATIONAL", "types": ["department_store", "point_of_interest", "store", "establishment"], "icon": "https://maps.gstatic.com/mapfiles/place_api/icons/v1/png_71/shopping-71.png"}, {"rating": 3.7, "user_ratings_total": 23, "name": "Bhutani Store", "reference": "ChIJj90hAB3iDDkRmQAs1jcsZag", "geometry": {"location": {"lat": 28.5336512, "lng": 77.2087732}, "viewport": {"northeast": {"lat": 28.5350038302915, "lng": 77.2101178302915}, "southwest": {"lat": 28.5323058697085, "lng": 77.20741986970849}}}, "opening_hours": {"open_now": true}, "place_id": "ChIJj90hAB3iDDkRmQAs1jcsZag", "plus_code": {"global_code": "7JWVG6M5+FG", "compound_code": "G6M5+FG New Delhi, Delhi, India"}, "vicinity": "E-3/, 12, Guru Gobind Singh Marg, Block B, Block E, Malviya Nagar, New Delhi", "photos": [{"photo_reference": "CmRaAAAAVk37MRUHuMMerDwzhM8LNnCIMGAVJP7rvlG6tHLDLHOjt-0io7BiGF2g5g86eHK-9BszBesJdWXEkz9oYNRrRPbKN-eOcGZsQiSsmS_GocBshVnn0sjoNA4OKIFFhak2EhDBlRzTdYC21JBxDtskC5RYGhTVSVzwb0aLb5sbAZ1UC0uTfO_8HA", "width": 2048, "html_attributions": ["<a href=\"https://maps.google.com/maps/contrib/114142763953249687163\">Bhutani Store</a>"], "height": 1152}], "scope": "GOOGLE", "business_status": "OPERATIONAL", "types": ["department_store", "food", "point_of_interest", "store", "establishment"], "icon": "https://maps.gstatic.com/mapfiles/place_api/icons/v1/png_71/shopping-71.png"}, {"name": "New Shagun Store", "reference": "ChIJ____vB3iDDkRqwDTgPPEu20", "geometry": {"location": {"lat": 28.5349867, "lng": 77.21492769999999}, "viewport": {"northeast": {"lat": 28.5361091802915, "lng": 77.2160114302915}, "southwest": {"lat": 28.53341121970849, "lng": 77.2133134697085}}}, "place_id": "ChIJ____vB3iDDkRqwDTgPPEu20", "plus_code": {"global_code": "7JWVG6M7+XX", "compound_code": "G6M7+XX New Delhi, Delhi, India"}, "vicinity": "C-79, Malviya Nagar Road, Khirki Extension, Block M, Malviya Nagar, New Delhi", "scope": "GOOGLE", "business_status": "OPERATIONAL", "types": ["department_store", "point_of_interest", "store", "establishment"], "icon": "https://maps.gstatic.com/mapfiles/place_api/icons/v1/png_71/shopping-71.png"}, {"rating": 5, "user_ratings_total": 2, "name": "Ishwar Dass Madan Lal", "reference": "ChIJW0lifiLiDDkR5PsaSkproJw", "geometry": {"location": {"lat": 28.5400634, "lng": 77.21782449999999}, "viewport": {"northeast": {"lat": 28.5414440302915, "lng": 77.2191407302915}, "southwest": {"lat": 28.5387460697085, "lng": 77.2164427697085}}}, "opening_hours": {"open_now": false}, "place_id": "ChIJW0lifiLiDDkR5PsaSkproJw", "plus_code": {"global_code": "7JWVG6R9+24", "compound_code": "G6R9+24 New Delhi, Delhi, India"}, "vicinity": "193-A-1, Maharishi Dayanand Marg, Savitri Nagar, Savitri Nagar Village, Sheikh Sarai, New Delhi", "scope": "GOOGLE", "business_status": "OPERATIONAL", "types": ["department_store", "point_of_interest", "store", "establishment"], "icon": "https://maps.gstatic.com/mapfiles/place_api/icons/v1/png_71/shopping-71.png"}, {"rating": 4, "user_ratings_total": 4, "name": "Real Departmental Store", "reference": "ChIJ5RzthyLiDDkR37YNIVG3z10", "geometry": {"location": {"lat": 28.540324, "lng": 77.218159}, "viewport": {"northeast": {"lat": 28.5417010302915, "lng": 77.21947763029151}, "southwest": {"lat": 28.5390030697085, "lng": 77.2167796697085}}}, "place_id": "ChIJ5RzthyLiDDkR37YNIVG3z10", "plus_code": {"global_code": "7JWVG6R9+47", "compound_code": "G6R9+47 New Delhi, Delhi, India"}, "vicinity": "Maharishi Dayanand Marg, Savitri Nagar, Savitri Nagar Village, Sheikh Sarai, New Delhi", "scope": "GOOGLE", "business_status": "OPERATIONAL", "types": ["department_store", "point_of_interest", "store", "establishment"], "icon": "https://maps.gstatic.com/mapfiles/place_api/icons/v1/png_71/shopping-71.png"}, {"rating": 5, "user_ratings_total": 1, "name": "Jai Maa Kalka Store \u091c\u092f \u092e\u093e\u0901 \u0915\u093e\u0932\u0915\u093e \u0938\u094d\u091f\u094b\u0930", "reference": "ChIJaRVach_iDDkRgaIQeApXmMY", "geometry": {"location": {"lat": 28.5348854, "lng": 77.2164094}, "viewport": {"northeast": {"lat": 28.5361894802915, "lng": 77.21776063029151}, "southwest": {"lat": 28.5334915197085, "lng": 77.21506266970849}}}, "opening_hours": {"open_now": true}, "place_id": "ChIJaRVach_iDDkRgaIQeApXmMY", "plus_code": {"global_code": "7JWVG6M8+XH", "compound_code": "G6M8+XH New Delhi, Delhi, India"}, "vicinity": "J E 17A, Khirki Extension, Panchsheel Extension, Malviya Nagar, New Delhi", "scope": "GOOGLE", "business_status": "OPERATIONAL", "types": ["department_store", "point_of_interest", "store", "establishment"], "icon": "https://maps.gstatic.com/mapfiles/place_api/icons/v1/png_71/shopping-71.png"}, {"name": "Arora store", "reference": "ChIJ4yplKkzjDDkRhB2J8lOxxhU", "geometry": {"location": {"lat": 28.5321385, "lng": 77.2128596}, "viewport": {"northeast": {"lat": 28.53345653029151, "lng": 77.2142472302915}, "southwest": {"lat": 28.5307585697085, "lng": 77.21154926970848}}}, "place_id": "ChIJ4yplKkzjDDkRhB2J8lOxxhU", "plus_code": {"global_code": "7JWVG6J7+V4", "compound_code": "G6J7+V4 New Delhi, Delhi, India"}, "vicinity": "G5/15, Malviya Nagar Road, Block 80, Block G 5, Malviya Nagar, New Delhi", "scope": "GOOGLE", "business_status": "OPERATIONAL", "types": ["department_store", "point_of_interest", "store", "establishment"], "icon": "https://maps.gstatic.com/mapfiles/place_api/icons/v1/png_71/shopping-71.png"}, {"rating": 3.9, "user_ratings_total": 47, "name": "PARAMAMJEET PROVISIONAL STORE", "reference": "ChIJa7n6RCLiDDkRSxJEnOQvH4c", "geometry": {"location": {"lat": 28.538974, "lng": 77.2193605}, "viewport": {"northeast": {"lat": 28.5403495802915, "lng": 77.22069853029151}, "southwest": {"lat": 28.5376516197085, "lng": 77.2180005697085}}}, "opening_hours": {"open_now": true}, "place_id": "ChIJa7n6RCLiDDkRSxJEnOQvH4c", "plus_code": {"global_code": "7JWVG6Q9+HP", "compound_code": "G6Q9+HP New Delhi, Delhi, India"}, "vicinity": "near BHARAM CHONK, 127 A, Savitri Nagar, Sheikh Sarai, New Delhi", "photos": [{"photo_reference": "CmRaAAAARpu-Gja76HQasBqcRb3-dOzZB-WenrShckqDSM57qKTMMhp5FM19eWpLJOm46RqcjgwM5nhX-meTdEXRKWHSADHsbkmicckkNMWzOCwYayKWz6_RLYvKAUtYrrz-Zb6cEhCIGYdMKIEd41qVdaFPuHDAGhSFt3AxUEq-8O0_9NAX5OzzljIE5w", "width": 2352, "html_attributions": ["<a href=\"https://maps.google.com/maps/contrib/118325174719803716871\">Sangram Mohanty</a>"], "height": 4160}], "scope": "GOOGLE", "business_status": "OPERATIONAL", "types": ["department_store", "point_of_interest", "store", "establishment"], "icon": "https://maps.gstatic.com/mapfiles/place_api/icons/v1/png_71/shopping-71.png"}, {"rating": 4.3, "user_ratings_total": 3, "name": "Oberoi Departmental Store", "reference": "ChIJj4jcMx7iDDkR_OkVGxUF_a8", "geometry": {"location": {"lat": 28.532264, "lng": 77.21432300000001}, "viewport": {"northeast": {"lat": 28.5336156302915, "lng": 77.21568418029152}, "southwest": {"lat": 28.5309176697085, "lng": 77.2129862197085}}}, "opening_hours": {"open_now": true}, "place_id": "ChIJj4jcMx7iDDkR_OkVGxUF_a8", "plus_code": {"global_code": "7JWVG6J7+WP", "compound_code": "G6J7+WP New Delhi, Delhi, India"}, "vicinity": "Shop No. - 4, K-13-A, Khirki Extension, Malviya Nagar, New Delhi", "scope": "GOOGLE", "business_status": "OPERATIONAL", "types": ["department_store", "point_of_interest", "store", "establishment"], "icon": "https://maps.gstatic.com/mapfiles/place_api/icons/v1/png_71/shopping-71.png"}, {"rating": 4.3, "user_ratings_total": 3, "name": "Shri Krishna Departmental Store", "reference": "ChIJFcAMLB7iDDkRTsF__CWx4LA", "geometry": {"location": {"lat": 28.5316437, "lng": 77.2143268}, "viewport": {"northeast": {"lat": 28.5329991802915, "lng": 77.2157253802915}, "southwest": {"lat": 28.5303012197085, "lng": 77.2130274197085}}}, "opening_hours": {"open_now": true}, "place_id": "ChIJFcAMLB7iDDkRTsF__CWx4LA", "plus_code": {"global_code": "7JWVG6J7+MP", "compound_code": "G6J7+MP New Delhi, Delhi, India"}, "vicinity": "K - 33/2, Khirki Extension, Malviya Nagar, New Delhi", "scope": "GOOGLE", "business_status": "OPERATIONAL", "types": ["department_store", "grocery_or_supermarket", "food", "point_of_interest", "store", "establishment"], "icon": "https://maps.gstatic.com/mapfiles/place_api/icons/v1/png_71/shopping-71.png"}, {"name": "Siemens Store Malviya Nagar", "reference": "ChIJDVrImQvjDDkRA_00BD7vl4A", "geometry": {"location": {"lat": 28.5404761, "lng": 77.22331410000001}, "viewport": {"northeast": {"lat": 28.5418643302915, "lng": 77.2247013802915}, "southwest": {"lat": 28.5391663697085, "lng": 77.2220034197085}}}, "place_id": "ChIJDVrImQvjDDkRA_00BD7vl4A", "plus_code": {"global_code": "7JWVG6RF+58", "compound_code": "G6RF+58 New Delhi, Delhi, India"}, "vicinity": "District Park, Sheikh Sarai Phase 1, Sheikh Sarai, New Delhi", "scope": "GOOGLE", "business_status": "OPERATIONAL", "types": ["department_store", "point_of_interest", "store", "establishment"], "icon": "https://maps.gstatic.com/mapfiles/place_api/icons/v1/png_71/shopping-71.png"}, {"rating": 2.9, "user_ratings_total": 8, "name": "Jain Departmental Store", "reference": "ChIJSQJphgHiDDkR3b7tn2kmPuc", "geometry": {"location": {"lat": 28.532206, "lng": 77.199992}, "viewport": {"northeast": {"lat": 28.5335939302915, "lng": 77.20141483029151}, "southwest": {"lat": 28.5308959697085, "lng": 77.1987168697085}}}, "opening_hours": {"open_now": true}, "place_id": "ChIJSQJphgHiDDkR3b7tn2kmPuc", "plus_code": {"global_code": "7JWVG5JX+VX", "compound_code": "G5JX+VX New Delhi, Delhi, India"}, "vicinity": "Shop No. 1, DDA Shopping Centre, Navjeevan Vihar, New Delhi", "scope": "GOOGLE", "business_status": "OPERATIONAL", "types": ["department_store", "point_of_interest", "store", "establishment"], "icon": "https://maps.gstatic.com/mapfiles/place_api/icons/v1/png_71/shopping-71.png"}, {"rating": 4, "user_ratings_total": 6, "name": "Shri Sant Lal Ramji Dass", "reference": "ChIJQ03ZkRLiDDkR7ecKKD8ZI1I", "geometry": {"location": {"lat": 28.5516307, "lng": 77.2070878}, "viewport": {"northeast": {"lat": 28.5529626802915, "lng": 77.2084742802915}, "southwest": {"lat": 28.55026471970849, "lng": 77.20577631970849}}}, "opening_hours": {"open_now": true}, "place_id": "ChIJQ03ZkRLiDDkR7ecKKD8ZI1I", "plus_code": {"global_code": "7JWVH624+MR", "compound_code": "H624+MR New Delhi, Delhi, India"}, "vicinity": "E - 44 A, Hauz Khas Road, Main Market, Hauz Khas, New Delhi", "photos": [{"photo_reference": "CmRZAAAAE1oRJe_LmSlrqjg56OE1zFPTFfTEzqV--3556ECpEQigKzb8TE08IF8f4X5GilNuVm-8CoaVA-O8_01FCUseg9Ep1CXbX-hlZCD0DsfCuFdwV5PYvY2tFAQNIRdMgDcuEhCLkNwwY3t0npiejq7qKuPBGhRrszGl6LSeuofpilFk7H3fPbt0jA", "width": 2250, "html_attributions": ["<a href=\"https://maps.google.com/maps/contrib/100807198539804531114\">Sumit Kumar</a>"], "height": 4000}], "scope": "GOOGLE", "business_status": "OPERATIONAL", "types": ["department_store", "point_of_interest", "store", "establishment"], "icon": "https://maps.gstatic.com/mapfiles/place_api/icons/v1/png_71/shopping-71.png"}, {"rating": 5, "user_ratings_total": 2, "name": "Humara Shop", "reference": "ChIJAQAAAPfhDDkRXBDstLaGwIY", "geometry": {"location": {"lat": 28.52791179999999, "lng": 77.20889869999999}, "viewport": {"northeast": {"lat": 28.52923678029151, "lng": 77.2102525302915}, "southwest": {"lat": 28.5265388197085, "lng": 77.20755456970849}}}, "opening_hours": {"open_now": true}, "place_id": "ChIJAQAAAPfhDDkRXBDstLaGwIY", "vicinity": "opp. Aurabindo Collage, Shop No-5, Stc/ Mmtc Market, opp. Aurabindo Collage, New Delhi", "scope": "GOOGLE", "business_status": "OPERATIONAL", "types": ["department_store", "point_of_interest", "store", "establishment"], "icon": "https://maps.gstatic.com/mapfiles/place_api/icons/v1/png_71/shopping-71.png"}, {"rating": 4, "user_ratings_total": 36, "name": "Kamal's", "reference": "ChIJ____7z3iDDkR-v45ubbdDr8", "geometry": {"location": {"lat": 28.5505931, "lng": 77.2170285}, "viewport": {"northeast": {"lat": 28.5519370802915, "lng": 77.2183741802915}, "southwest": {"lat": 28.5492391197085, "lng": 77.2156762197085}}}, "opening_hours": {"open_now": true}, "place_id": "ChIJ____7z3iDDkR-v45ubbdDr8", "plus_code": {"global_code": "7JWVH628+6R", "compound_code": "H628+6R New Delhi, Delhi, India"}, "vicinity": "E 4, Nikka Singh Block, Asian Games Village Complex, New Delhi", "photos": [{"photo_reference": "CmRaAAAArjtYk80D0JmLhIrzPcBbbbT17PJZUlirfdCs8GZ6dAsVwzBEF9q7M6pgSmo5RNdI1nHNzSfPyAC5wC4j2gyPf8xx_A3179wxUMX-RCsbLIJEyCAm0mEryzwihB3qiROmEhDU4faGhtVs6JxyW-LIS4AGGhTpKpP--t-0EKbEh7IQCu1C1qgJXQ", "width": 3984, "html_attributions": ["<a href=\"https://maps.google.com/maps/contrib/117500034087994035640\">Kamal&#39;s</a>"], "height": 2656}], "scope": "GOOGLE", "business_status": "OPERATIONAL", "types": ["department_store", "point_of_interest", "store", "establishment"], "icon": "https://maps.gstatic.com/mapfiles/place_api/icons/v1/png_71/shopping-71.png"}, {"rating": 4, "user_ratings_total": 2, "name": "WHSmith Store", "reference": "ChIJVcOZKPjhDDkRZ7v578tSn2Q", "geometry": {"location": {"lat": 28.528223, "lng": 77.205719}, "viewport": {"northeast": {"lat": 28.5295133802915, "lng": 77.2070853302915}, "southwest": {"lat": 28.5268154197085, "lng": 77.20438736970848}}}, "opening_hours": {"open_now": true}, "place_id": "ChIJVcOZKPjhDDkRZ7v578tSn2Q", "plus_code": {"global_code": "7JWVG6H4+77", "compound_code": "G6H4+77 New Delhi, Delhi, India"}, "vicinity": "Malviya Nagar Metro Station, Concourse Level, Paid Area MVNR/K-, 3, Chirag Dilli, New Delhi", "photos": [{"photo_reference": "CmRaAAAAqwqkLjYPeLfo7IvMRM6WS74hgTH6o-oGaAsrbFeXjysk9f9ZxLINsgaloQirD-GkfS_VJjEqceaNG4Mm6_wnTbFemvAe_FTG2qMjR2nAy_eseJpnv491vFE9izCMJF33EhCBsJcDBT4zge5EH1qoPgyIGhR_HCpqTo4eSjPwoNZRGSQkSd_lPw", "width": 250, "html_attributions": ["<a href=\"https://maps.google.com/maps/contrib/110301003267567120471\">WHSmith Store</a>"], "height": 250}], "scope": "GOOGLE", "business_status": "OPERATIONAL", "types": ["department_store", "point_of_interest", "store", "establishment"], "icon": "https://maps.gstatic.com/mapfiles/place_api/icons/v1/png_71/shopping-71.png"}, {"rating": 4.7, "user_ratings_total": 17, "name": "JAI MATA DI STORE", "reference": "ChIJuxs3JTziDDkRaqmMP5DuFPA", "geometry": {"location": {"lat": 28.5485214, "lng": 77.2212534}, "viewport": {"northeast": {"lat": 28.5499350302915, "lng": 77.22250138029149}, "southwest": {"lat": 28.5472370697085, "lng": 77.21980341970848}}}, "opening_hours": {"open_now": false}, "place_id": "ChIJuxs3JTziDDkRaqmMP5DuFPA", "plus_code": {"global_code": "7JWVG6XC+CG", "compound_code": "G6XC+CG New Delhi, Delhi, India"}, "vicinity": "Shop No. 4, New, Asian Games Village Complex, Siri Fort, New Delhi", "photos": [{"photo_reference": "CmRaAAAA4Hco0tA-x1iRw92ShDiQeFCe0wRgVz_t-R7N3jxG5_VQ8rwc9RbyWWXrqA2Cldi8nvEzS7DJcRS8fDtLaL1C_ujb1D_h0I1GfQ1wYE9yjrrd4zIrPc8HUMnsXPhdg8TBEhBcHVRr5xuAAUMwbEYaJPo9GhQ5zD0DorRt3tCAIz0FMZN2V1Aclw", "width": 794, "html_attributions": ["<a href=\"https://maps.google.com/maps/contrib/103736584332195145296\">JAI MATA DI STORE</a>"], "height": 1123}], "scope": "GOOGLE", "business_status": "OPERATIONAL", "types": ["department_store", "grocery_or_supermarket", "food", "point_of_interest", "store", "establishment"], "icon": "https://maps.gstatic.com/mapfiles/place_api/icons/v1/png_71/shopping-71.png"}, {"name": "Gupta Departmental Store", "reference": "ChIJkaqqqg7iDDkRqlN60ReUfaE", "geometry": {"location": {"lat": 28.5462376, "lng": 77.1966389}, "viewport": {"northeast": {"lat": 28.5475290802915, "lng": 77.1979676302915}, "southwest": {"lat": 28.5448311197085, "lng": 77.19526966970848}}}, "opening_hours": {"open_now": true}, "place_id": "ChIJkaqqqg7iDDkRqlN60ReUfaE", "plus_code": {"global_code": "7JWVG5WW+FM", "compound_code": "G5WW+FM New Delhi, Delhi, India"}, "vicinity": "Shop No C-20 S D A Market , Infront Of I I T Main Gate, New Delhi", "photos": [{"photo_reference": "CmRaAAAAnVygdnV0FKtqvUdl2TeHuzzOcm9BQ9eP61_0Xtx3mTm0SHuV07AhcKGzuBUzXcdhxBMy8u9j66vBuSsqP0-PyrIbgdS_xNRZVSSB2UILBFsOP9w9Tb3sTSfIIo-pqd7rEhDnhqam-zmYeOGjXvs_Yz01GhSl3pP2JgGdMqzZjVkqlNBNwzSPRQ", "width": 4032, "html_attributions": ["<a href=\"https://maps.google.com/maps/contrib/103474359860628953092\">Gupta Departmental Store</a>"], "height": 2269}], "scope": "GOOGLE", "business_status": "OPERATIONAL", "types": ["department_store", "point_of_interest", "store", "establishment"], "icon": "https://maps.gstatic.com/mapfiles/place_api/icons/v1/png_71/shopping-71.png"}, {"rating": 4.3, "user_ratings_total": 785, "name": "MUJI Select CITYWALK", "reference": "ChIJp8TKHYvhDDkRjGuhABvumbI", "geometry": {"location": {"lat": 28.5281094, "lng": 77.2194487}, "viewport": {"northeast": {"lat": 28.5294583802915, "lng": 77.2207976802915}, "southwest": {"lat": 28.5267604197085, "lng": 77.21809971970849}}}, "opening_hours": {"open_now": true}, "place_id": "ChIJp8TKHYvhDDkRjGuhABvumbI", "plus_code": {"global_code": "7JWVG6H9+6Q", "compound_code": "G6H9+6Q New Delhi, Delhi, India"}, "vicinity": "Muji, Ryohin-Keikaku Reliance India Pvt Ltd, 02A & 02B Select City Walk Ground Floor,Multiplex, Delhi, Saket, New Delhi", "photos": [{"photo_reference": "CmRaAAAAAJKBn2x4dhPbwymzSwyPd2XCY0UsHzsbX83cBnDC6bddgzL_6twogQFbHzlkXb2piN_uBXhfj-QshmQfJE_LpjDiM0gz9mAvFkbu6YWnRxv6gLygEcmhgamLQgzZgXmCEhBeIC03C7UcB78HjLAsBAYfGhQnYv1vmDAi_Hnx3h01ifShB4o8dQ", "width": 4032, "html_attributions": ["<a href=\"https://maps.google.com/maps/contrib/100484985264276460595\">Takeshi M</a>"], "height": 3024}], "scope": "GOOGLE", "business_status": "OPERATIONAL", "types": ["department_store", "home_goods_store", "point_of_interest", "clothing_store", "store", "establishment"], "icon": "https://maps.gstatic.com/mapfiles/place_api/icons/v1/png_71/shopping-71.png"}, {"rating": 3.3, "user_ratings_total": 12, "name": "24SEVEN", "reference": "ChIJ6UiN3vTjDDkRKydDRw5dsyE", "geometry": {"location": {"lat": 28.5556519, "lng": 77.2159054}, "viewport": {"northeast": {"lat": 28.5572464802915, "lng": 77.21701458029149}, "southwest": {"lat": 28.5545485197085, "lng": 77.21431661970848}}}, "opening_hours": {"open_now": true}, "place_id": "ChIJ6UiN3vTjDDkRKydDRw5dsyE", "plus_code": {"global_code": "7JWVH648+79", "compound_code": "H648+79 New Delhi, Delhi, India"}, "vicinity": "Ground, No 89 B, Kalkaji, New Delhi", "photos": [{"photo_reference": "CmRaAAAAnlBiSBDKKHIPHDac2d4chbZOZpbGVQ89Q58cF_nLKxYpiDDXIgrbaT7tNb8x3sBWsGfJbLgHAnB47x6-F04jmpYFi0hW0f428UBavdfg-MfPDXOBZed7_89j6-Wk82MHEhBIyYoPZWsUtprS1vXsJ2CcGhR5LNokc0lXOz-0bxplhWL8ttehcg", "width": 2560, "html_attributions": ["<a href=\"https://maps.google.com/maps/contrib/103633905555473287168\">Sayed Hasanujjaman</a>"], "height": 1440}], "scope": "GOOGLE", "business_status": "OPERATIONAL", "types": ["convenience_store", "department_store", "bakery", "grocery_or_supermarket", "meal_takeaway", "restaurant", "food", "point_of_interest", "store", "establishment"], "icon": "https://maps.gstatic.com/mapfiles/place_api/icons/v1/png_71/shopping-71.png"}]}