{"status": "OK", "next_page_token": "AcnaJv3dLKLWw_vKfhvFHTjePzE5e8YNxWCK7ESzAz4xDtwsuwG-ghiODOOejEvHDDPYcI1G4LZ8bkjWInGnKxqb4fvO55pSkgGchd6hWyhIGxPeVC5RwUCSN1vADnpSxb0dKr9AuM8X_b_GP6HUWBi4yu5uCx7DoU7hYkdFYAqa-RWptIkOF_w2ZNl6vfAcoKUurglHRXMpPSiviVLD7PlLsFlHM3b-Uyr3OIeE3tEzLiTEeT8AIleJYQisI81Ft5d3U-Dn6KGzQwsW2Kq0wCBeWQT8LfzdKeVg1lsajg5zZlCU41JpACXxK2w4_98nsbenSW1LicAKIKHwx4HxFdesBgqWqIu3YubnukhOXcvcv5qMYpwT2RPnbOwVNugD51h1WLXUT4l_5zKAcHZ6iiImbA1l3Gyaa0cPOql-U2OPo2-cGL50wk5ww2_v250", "html_attributions": [], "results": [{"rating": 5, "user_ratings_total": 1, "name": "89 Store", "reference": "ChIJm6qqqlbkDDkRhj-VxkBObsQ", "geometry": {"location": {"lat": 28.58212, "lng": 77.32669899999999}, "viewport": {"northeast": {"lat": 28.5834372802915, "lng": 77.3280794802915}, "southwest": {"lat": 28.5807393197085, "lng": 77.32538151970849}}}, "opening_hours": {"open_now": true}, "place_id": "ChIJm6qqqlbkDDkRhj-VxkBObsQ", "vicinity": "Choudhary Deshraj Complex, Village Chaura, Noida", "scope": "GOOGLE", "business_status": "OPERATIONAL", "types": ["department_store", "point_of_interest", "store", "establishment"], "icon": "https://maps.gstatic.com/mapfiles/place_api/icons/v1/png_71/shopping-71.png"}, {"rating": 2, "user_ratings_total": 1, "name": "Bop Store", "reference": "ChIJPwAAjP_kDDkRf6UP-d3lpFI", "geometry": {"location": {"lat": 28.588589, "lng": 77.33064800000001}, "viewport": {"northeast": {"lat": 28.5899799302915, "lng": 77.3319586802915}, "southwest": {"lat": 28.5872819697085, "lng": 77.3292607197085}}}, "opening_hours": {"open_now": true}, "place_id": "ChIJPwAAjP_kDDkRf6UP-d3lpFI", "plus_code": {"global_code": "7JWVH8QJ+C7", "compound_code": "H8QJ+C7 Noida, Uttar Pradesh, India"}, "vicinity": "Flat No 001, A-3, Gardina Glory, B Block, Gardenia Glory, Sector 46, Noida", "photos": [{"photo_reference": "CmRaAAAAwifv_0bBJjPMlNLb7-oHGRQ9MyJE5ynWwLzWinKFDomzR6D8rlK-c33C1qyk6mzZHoBAtvEiOq77Fv9ozxG5K803Xr-p2Kb427KCe9zwe8I3wl3F3CbbIgdy9I4oHsDoEhB408x2V8EB6EoIr0C5t5r0GhSbr1T_Zd6LRjv9J2fG8vAcBYdNuQ", "width": 3456, "html_attributions": ["<a href=\"https://maps.google.com/maps/contrib/111834763439316748879\">Dharmendar Chaudhary</a>"], "height": 4608}], "scope": "GOOGLE", "business_status": "OPERATIONAL", "types": ["department_store", "point_of_interest", "store", "establishment"], "icon": "https://maps.gstatic.com/mapfiles/place_api/icons/v1/png_71/shopping-71.png"}, {"rating": 5, "user_ratings_total": 2, "name": "Green Grofer", "reference": "ChIJP5rj11nkDDkRgriUFB_mPM0", "geometry": {"location": {"lat": 28.58378500000001, "lng": 77.320937}, "viewport": {"northeast": {"lat": 28.5851673802915, "lng": 77.3222554302915}, "southwest": {"lat": 28.5824694197085, "lng": 77.31955746970849}}}, "opening_hours": {"open_now": true}, "place_id": "ChIJP5rj11nkDDkRgriUFB_mPM0", "plus_code": {"global_code": "7JWVH8MC+G9", "compound_code": "H8MC+G9 Noida, Uttar Pradesh, India"}, "vicinity": "noida, A-87, Sector 4, Noida", "photos": [{"photo_reference": "CmRaAAAAfCdNEuvQog2mNYd01LpQOAeVo6B68FljdMWOgIBNSkJr9f4Y9nTnwEodcBmfzfEqIY4eZdfTbOmmxDD9N5X2wWsfIDu4p99G0EfmO9OgFyBGold0KJ-F-2HtHyuuhaLIEhBt7fyqlKorWv1OIwBagqIUGhTa9TdZUlQi-4X3WAeonwklbKlvoA", "width": 2346, "html_attributions": ["<a href=\"https://maps.google.com/maps/contrib/108632270624131690087\">Green Grofer</a>"], "height": 1663}], "scope": "GOOGLE", "business_status": "OPERATIONAL", "types": ["department_store", "point_of_interest", "store", "establishment"], "icon": "https://maps.gstatic.com/mapfiles/place_api/icons/v1/png_71/shopping-71.png"}, {"rating": 4, "user_ratings_total": 5, "permanently_closed": true, "name": "NewU", "reference": "ChIJ3SD_MIvlDDkRqePPprYUOxw", "geometry": {"location": {"lat": 28.5861232, "lng": 77.34085499999999}, "viewport": {"northeast": {"lat": 28.5874600302915, "lng": 77.3421875302915}, "southwest": {"lat": 28.5847620697085, "lng": 77.33948956970849}}}, "place_id": "ChIJ3SD_MIvlDDkRqePPprYUOxw", "plus_code": {"global_code": "7JWVH8PR+C8", "compound_code": "H8PR+C8 Noida, Uttar Pradesh, India"}, "vicinity": "Parking - Spice mall, No 115, Ground, Sector 25, Noida", "photos": [{"photo_reference": "CmRaAAAAxYcx-_w52xIE4XVM-FU8n4_T3TYYgzKqk0oHN2ORgubO-NhvYw8Ln0dUmAYT3pN3Px3E50x9oqlTkcEhbnJ2X3Q5wURr5uLXwSY4c1z_s1pjtvdQ6h7Gis6NmCtaJMSnEhASggTnnFYeHh_4_EHSza_0GhTTvh7VP_n8oTQQ_SXzolY4bKfkYw", "width": 1920, "html_attributions": ["<a href=\"https://maps.google.com/maps/contrib/118364118188885399982\">Shashank Singh</a>"], "height": 1080}], "scope": "GOOGLE", "business_status": "CLOSED_TEMPORARILY", "types": ["department_store", "point_of_interest", "store", "establishment"], "icon": "https://maps.gstatic.com/mapfiles/place_api/icons/v1/png_71/shopping-71.png"}, {"rating": 4.2, "user_ratings_total": 14540, "name": "BB-NOIDA-THE GREAT INDIA PLACE", "reference": "ChIJvVdrfknkDDkR9FE5K66gqb4", "geometry": {"location": {"lat": 28.56749229999999, "lng": 77.3262653}, "viewport": {"northeast": {"lat": 28.5689232302915, "lng": 77.32727545000002}, "southwest": {"lat": 28.5662252697085, "lng": 77.32323484999998}}}, "opening_hours": {"open_now": true}, "place_id": "ChIJvVdrfknkDDkR9FE5K66gqb4", "plus_code": {"global_code": "7JWVH88G+XG", "compound_code": "H88G+XG Noida, Uttar Pradesh, India"}, "vicinity": "near Atta Market, The Great India Place, Entertainment City, Lower Basement, near Atta Market, Sector 38, Noida", "photos": [{"photo_reference": "CmRaAAAAUwWcTf1DzDwR4QsPekwXj-utczwxJsJKB7iZQKm4Qq6MuAZg4w_9wUEDbSY13PiUhVqmfvNb_ywxmzwCFsR_bhYYlWTJ89K1OQrlCWiuWc0rmGW0kVFf81JwkaK1dZXIEhBmmdh6aVa1fCTz1jr65OiGGhRi25AkG6s31pFVGPNl5X8rL30Wig", "width": 4032, "html_attributions": ["<a href=\"https://maps.google.com/maps/contrib/100156662336690243698\">Our Unfold Stories</a>"], "height": 3024}], "scope": "GOOGLE", "business_status": "OPERATIONAL", "types": ["department_store", "supermarket", "grocery_or_supermarket", "food", "point_of_interest", "store", "establishment"], "icon": "https://maps.gstatic.com/mapfiles/place_api/icons/v1/png_71/shopping-71.png"}, {"rating": 4.1, "user_ratings_total": 323, "name": "Super 99", "reference": "ChIJndMdWDHqDDkRogyVGwrbn_o", "geometry": {"location": {"lat": 28.56739990000001, "lng": 77.3255345}, "viewport": {"northeast": {"lat": 28.5689450302915, "lng": 77.32704083029151}, "southwest": {"lat": 28.5662470697085, "lng": 77.3243428697085}}}, "opening_hours": {"open_now": true}, "place_id": "ChIJndMdWDHqDDkRogyVGwrbn_o", "plus_code": {"global_code": "7JWVH88G+X6", "compound_code": "H88G+X6 Noida, Uttar Pradesh, India"}, "vicinity": "Shop No.-327 Top Floor, Food Court Area, Sector 38, Noida", "photos": [{"photo_reference": "CmRaAAAAM8xs8KYjYnigv7bI62PF3yiG7KrikcoDhfOP72r0Os84PWaQtXKebLKWcucdvHs3fUZrpJ2L7TIHk6AJjVdXsrgWcnEcRcSZ2gqEaLUSGiV3ljS3yY9KZxXbcuvCxRLJEhC1JrcX4jj4UYc3nkTyf116GhTa5USu-Iy0jeE5eVSaZwpgXLBsfg", "width": 4608, "html_attributions": ["<a href=\"https://maps.google.com/maps/contrib/103758601933748523377\">Dilshad Alam</a>"], "height": 2304}], "scope": "GOOGLE", "business_status": "OPERATIONAL", "types": ["department_store", "shopping_mall", "supermarket", "grocery_or_supermarket", "furniture_store", "home_goods_store", "food", "point_of_interest", "store", "establishment"], "icon": "https://maps.gstatic.com/mapfiles/place_api/icons/v1/png_71/shopping-71.png"}, {"rating": 4, "user_ratings_total": 64, "name": "NewU", "reference": "ChIJnWK4-UjkDDkRU8635mcrRs0", "geometry": {"location": {"lat": 28.5682064, "lng": 77.3231531}, "viewport": {"northeast": {"lat": 28.56952143029151, "lng": 77.3244546302915}, "southwest": {"lat": 28.5668234697085, "lng": 77.32175666970848}}}, "opening_hours": {"open_now": true}, "place_id": "ChIJnWK4-UjkDDkRU8635mcrRs0", "plus_code": {"global_code": "7JWVH89F+77", "compound_code": "H89F+77 Noida, Uttar Pradesh, India"}, "vicinity": "Sector 18, Noida", "photos": [{"photo_reference": "CmRaAAAA2Zm61KAxzsaGP8AL8tyJ-FU4oYjBt82klegTn9wGJGQBdHEQS9ULOQ1K0Xw-xSSI7OGTPMIcSO7iB-a0sJcnseB3KS37jteyCgbaklbF7zEY0HJguDAEIx4oN1p60LixEhAN1c7n8DT0BWC891xINJljGhRdvJ5XmJNWIRcavsoLUXrhRk3ShA", "width": 1920, "html_attributions": ["<a href=\"https://maps.google.com/maps/contrib/100820655648609130965\">NewU</a>"], "height": 1080}], "scope": "GOOGLE", "business_status": "OPERATIONAL", "types": ["department_store", "point_of_interest", "store", "establishment"], "icon": "https://maps.gstatic.com/mapfiles/place_api/icons/v1/png_71/shopping-71.png"}, {"rating": 3.5, "user_ratings_total": 35, "name": "24SEVEN", "reference": "ChIJx-o3JgflDDkR98bEoYGAvOc", "geometry": {"location": {"lat": 28.5918522, "lng": 77.3390754}, "viewport": {"northeast": {"lat": 28.5932282802915, "lng": 77.3404585302915}, "southwest": {"lat": 28.5905303197085, "lng": 77.33776056970848}}}, "opening_hours": {"open_now": true}, "place_id": "ChIJx-o3JgflDDkR98bEoYGAvOc", "plus_code": {"global_code": "7JWVH8RQ+PJ", "compound_code": "H8RQ+PJ Noida, Uttar Pradesh, India"}, "vicinity": "PN 4, Dolly Motors Indian Oil Petrol Pump, Sector 21 Near No 12 & 22 Market, Noida", "photos": [{"photo_reference": "CmRaAAAAj3D_81xmU5UIj4k-T_hmXq0eF_IM9k4caKEytDbTcxLzB445HyKYS8SWTMWmZbkGCoGUavbNRg8aKVMYi_Sji6MYxjRlUrdjgcVYav4zhjmaCluZqrmvx6KKVh-17TQ8EhDz0I0J03bsbNwT9uGAnXcdGhSF0qT7RMQM6V0Qon6c5hFaDxKF-g", "width": 4608, "html_attributions": ["<a href=\"https://maps.google.com/maps/contrib/102200380666474512308\">Manish Kapoor</a>"], "height": 3456}], "scope": "GOOGLE", "business_status": "OPERATIONAL", "types": ["convenience_store", "department_store", "bakery", "grocery_or_supermarket", "meal_takeaway", "restaurant", "food", "point_of_interest", "store", "establishment"], "icon": "https://maps.gstatic.com/mapfiles/place_api/icons/v1/png_71/shopping-71.png"}, {"rating": 4.1, "user_ratings_total": 2654, "name": "BB-NOIDA-SECTOR 18-MALL OF INDIA", "reference": "ChIJAeiWgEjkDDkRnD0dD89ksn4", "geometry": {"location": {"lat": 28.5679237, "lng": 77.32109129999999}, "viewport": {"northeast": {"lat": 28.5690894302915, "lng": 77.3228044802915}, "southwest": {"lat": 28.5663914697085, "lng": 77.32010651970849}}}, "opening_hours": {"open_now": true}, "place_id": "ChIJAeiWgEjkDDkRnD0dD89ksn4", "plus_code": {"global_code": "7JWVH89C+5C", "compound_code": "H89C+5C Noida, Uttar Pradesh, India"}, "vicinity": "BB-NOIDA-SECTOR 18-MALL OF INDIA, Plot No. M-03, Noida", "photos": [{"photo_reference": "CmRaAAAAJOK7Xr8AHjVqwPbQJNivY4XYTM75jEjhBihPpA7ZUiFv0RD7Az_2756_nQ_KJTlATyPMsQJQjDzDoIVNdEtHbC3Gs8mNkV6en-NzY-AjJKnD18RvkCR4etvV6823fVXBEhBeCq-sm8JpNBhZMkKhYdmAGhRIjSNPdR8vY35CFc05p9n9Q5cRYA", "width": 3024, "html_attributions": ["<a href=\"https://maps.google.com/maps/contrib/113863440276409504463\">Kusuma Krishna Sankar</a>"], "height": 4032}], "scope": "GOOGLE", "business_status": "OPERATIONAL", "types": ["department_store", "supermarket", "grocery_or_supermarket", "food", "point_of_interest", "store", "establishment"], "icon": "https://maps.gstatic.com/mapfiles/place_api/icons/v1/png_71/shopping-71.png"}, {"rating": 3.7, "user_ratings_total": 7, "name": "Patanjali Store", "reference": "ChIJybEFPo3kDDkRj43WbK28wBs", "geometry": {"location": {"lat": 28.5896253, "lng": 77.30828079999999}, "viewport": {"northeast": {"lat": 28.5909935802915, "lng": 77.30965818029149}, "southwest": {"lat": 28.5882956197085, "lng": 77.30696021970849}}}, "opening_hours": {"open_now": true}, "place_id": "ChIJybEFPo3kDDkRj43WbK28wBs", "plus_code": {"global_code": "7JWVH8Q5+V8", "compound_code": "H8Q5+V8 New Delhi, Delhi, India"}, "vicinity": "C11/207, Sarpanch Market, N,ew, Block C 1, New Ashok Nagar, New Delhi", "scope": "GOOGLE", "business_status": "OPERATIONAL", "types": ["department_store", "point_of_interest", "store", "establishment"], "icon": "https://maps.gstatic.com/mapfiles/place_api/icons/v1/png_71/shopping-71.png"}, {"rating": 4.2, "user_ratings_total": 1201, "name": "Shoppers Stop", "reference": "ChIJ9ZQVxL3lDDkRxNDd5dWAjG4", "geometry": {"location": {"lat": 28.5742595, "lng": 77.35361859999999}, "viewport": {"northeast": {"lat": 28.5754181802915, "lng": 77.3551442802915}, "southwest": {"lat": 28.5727202197085, "lng": 77.35244631970849}}}, "opening_hours": {"open_now": true}, "place_id": "ChIJ9ZQVxL3lDDkRxNDd5dWAjG4", "plus_code": {"global_code": "7JWVH9F3+PC", "compound_code": "H9F3+PC Noida, Uttar Pradesh, India"}, "vicinity": "Logix City Centre Mall Plot no 58, Sector 32, Noida", "photos": [{"photo_reference": "CmRaAAAALB1me16yyTRRIPg-ZetPkfjLmEjjCn11YrmvhJwaygRkS-APiG1AX6uPb_BFpA84uNNhZ1LbR0tb1Vf_Zq9AgoNUqgb78z5_d06pn2Jk0pIPy96UDpDxqMJC21b2aSsGEhBLWsQWDpoD1POU3uVuKcrgGhR5mU3dkWyoQmID0SquxRj6JkUFKA", "width": 1156, "html_attributions": ["<a href=\"https://maps.google.com/maps/contrib/111791936289339886628\">Shoppers Stop</a>"], "height": 867}], "scope": "GOOGLE", "business_status": "OPERATIONAL", "types": ["department_store", "point_of_interest", "clothing_store", "store", "establishment"], "icon": "https://maps.gstatic.com/mapfiles/place_api/icons/v1/png_71/shopping-71.png"}, {"name": "O.P. Store", "reference": "ChIJsS4JlOLkDDkRMxFhLt73HDo", "geometry": {"location": {"lat": 28.601539, "lng": 77.33130799999999}, "viewport": {"northeast": {"lat": 28.6029129302915, "lng": 77.3326964302915}, "southwest": {"lat": 28.6002149697085, "lng": 77.32999846970849}}}, "opening_hours": {"open_now": false}, "place_id": "ChIJsS4JlOLkDDkRMxFhLt73HDo", "plus_code": {"global_code": "7JWVJ82J+JG", "compound_code": "J82J+JG Delhi, India"}, "vicinity": "Shop Number A-4/117,Mayur Vihar Phase-III, Pragati Marg, Pocket A 4, New Kondli, Kondli, Delhi", "scope": "GOOGLE", "business_status": "OPERATIONAL", "types": ["department_store", "point_of_interest", "store", "establishment"], "icon": "https://maps.gstatic.com/mapfiles/place_api/icons/v1/png_71/shopping-71.png"}, {"rating": 1, "user_ratings_total": 2, "name": "Kerala Stores", "reference": "ChIJ____cGLkDDkRdJZrqlpDFIc", "geometry": {"location": {"lat": 28.5998767, "lng": 77.3177695}, "viewport": {"northeast": {"lat": 28.6011625802915, "lng": 77.31921178029151}, "southwest": {"lat": 28.59846461970849, "lng": 77.31651381970849}}}, "opening_hours": {"open_now": true}, "place_id": "ChIJ____cGLkDDkRdJZrqlpDFIc", "plus_code": {"global_code": "7JWVH8X9+X4", "compound_code": "H8X9+X4 New Delhi, Delhi, India"}, "vicinity": "701, Nehru Place, New Delhi", "scope": "GOOGLE", "business_status": "OPERATIONAL", "types": ["department_store", "food", "point_of_interest", "store", "establishment"], "icon": "https://maps.gstatic.com/mapfiles/place_api/icons/v1/png_71/generic_business-71.png"}, {"rating": 4.2, "user_ratings_total": 6, "name": "Shri Maruti", "reference": "ChIJ45E4V-LkDDkRefKJLdd4I74", "geometry": {"location": {"lat": 28.60283, "lng": 77.330195}, "viewport": {"northeast": {"lat": 28.6042119302915, "lng": 77.33159328029151}, "southwest": {"lat": 28.6015139697085, "lng": 77.3288953197085}}}, "opening_hours": {"open_now": false}, "place_id": "ChIJ45E4V-LkDDkRefKJLdd4I74", "plus_code": {"global_code": "7JWVJ83J+43", "compound_code": "J83J+43 Delhi, India"}, "vicinity": "Shop Number A-1/198,Mayur Vihar Phase-III, Pragati Marg, Pocket A 2, New Kondli, Kondli, Delhi", "scope": "GOOGLE", "business_status": "OPERATIONAL", "types": ["department_store", "point_of_interest", "store", "establishment"], "icon": "https://maps.gstatic.com/mapfiles/place_api/icons/v1/png_71/shopping-71.png"}, {"rating": 4.1, "user_ratings_total": 37, "name": "Shakti Traders", "reference": "ChIJ69HeUOLkDDkRX8Ywn2NjJ4M", "geometry": {"location": {"lat": 28.60295099999999, "lng": 77.330123}, "viewport": {"northeast": {"lat": 28.6043259802915, "lng": 77.33151083029149}, "southwest": {"lat": 28.6016280197085, "lng": 77.32881286970849}}}, "opening_hours": {"open_now": false}, "place_id": "ChIJ69HeUOLkDDkRX8Ywn2NjJ4M", "plus_code": {"global_code": "7JWVJ83J+52", "compound_code": "J83J+52 Delhi, India"}, "vicinity": "Shop Number A-1/196,Mayur Vihar Phase-III, Pragati Marg, Pocket A 2, New Kondli, Kondli, Delhi", "photos": [{"photo_reference": "CmRaAAAACrPhanL5PuRXpoCV5CI7xoAlRq3UTOZ4taBTcqEdnJeCYcTNQNwCQAHdiMJPxNHq1UerYkL03svQqKg5n4CrnZ5e3TzVOlsFEUmtW_mVZULcQsb8oO9mX7tTtlr4K_iLEhDtbVp7h8Hv7kCheGXhnqgCGhRI6ySt2-2dVf-9vxK2g9dLTYm_nw", "width": 3120, "html_attributions": ["<a href=\"https://maps.google.com/maps/contrib/109437366370668948182\">Shiv Kumar Aggarwal</a>"], "height": 4160}], "scope": "GOOGLE", "business_status": "OPERATIONAL", "types": ["department_store", "point_of_interest", "store", "establishment"], "icon": "https://maps.gstatic.com/mapfiles/place_api/icons/v1/png_71/shopping-71.png"}, {"rating": 4.2, "user_ratings_total": 2739, "name": "Shoppers Stop", "reference": "ChIJ6TDqe0nkDDkRYA2W4hskjvQ", "geometry": {"location": {"lat": 28.5675446, "lng": 77.3261607}, "viewport": {"northeast": {"lat": 28.5688030802915, "lng": 77.32763663029151}, "southwest": {"lat": 28.5661051197085, "lng": 77.32493866970849}}}, "opening_hours": {"open_now": true}, "place_id": "ChIJ6TDqe0nkDDkRYA2W4hskjvQ", "plus_code": {"global_code": "7JWVH89G+2F", "compound_code": "H89G+2F Noida, Uttar Pradesh, India"}, "vicinity": "The Great India Place Plot No - 2, Sector 38, Noida", "photos": [{"photo_reference": "CmRaAAAAo3507ttkoZXXUwdL2NJNl_15hW02m3e-1FZ5NV6AH1cwcskJLsDBe2JlpAp-XXeTGV0PiFT6W7D6mUYWA53jeQKMiXzG2VxAgskh2xuQ60jvzvV1aTnqA4TfcBRWc2qHEhBg5PRhVr8h6joLU8x5k4YEGhQIN4wEsqYxkhN9NUHQVuQ7wh4aOA", "width": 4032, "html_attributions": ["<a href=\"https://maps.google.com/maps/contrib/116572682697198921847\">Shoppers Stop</a>"], "height": 3024}], "scope": "GOOGLE", "business_status": "OPERATIONAL", "types": ["clothing_store", "department_store", "point_of_interest", "store", "establishment"], "icon": "https://maps.gstatic.com/mapfiles/place_api/icons/v1/png_71/shopping-71.png"}, {"rating": 4.4, "user_ratings_total": 8, "name": "RCM Bazar", "reference": "ChIJm46Skw7lDDkRIb5sCCkDA7w", "geometry": {"location": {"lat": 28.597494, "lng": 77.348495}, "viewport": {"northeast": {"lat": 28.5988385302915, "lng": 77.34985523029151}, "southwest": {"lat": 28.5961405697085, "lng": 77.34715726970849}}}, "opening_hours": {"open_now": true}, "place_id": "ChIJm46Skw7lDDkRIb5sCCkDA7w", "plus_code": {"global_code": "7JWVH8WX+X9", "compound_code": "H8WX+X9 Noida, Uttar Pradesh, India"}, "vicinity": "Deshraj Market, Opp- J 61, Sector 22, Noida", "scope": "GOOGLE", "business_status": "OPERATIONAL", "types": ["department_store", "point_of_interest", "store", "establishment"], "icon": "https://maps.gstatic.com/mapfiles/place_api/icons/v1/png_71/shopping-71.png"}, {"name": "Cleaning Store", "reference": "ChIJW-dJYO7kDDkRz5U9o3casqs", "geometry": {"location": {"lat": 28.601144, "lng": 77.316496}, "viewport": {"northeast": {"lat": 28.6025896302915, "lng": 77.3178193302915}, "southwest": {"lat": 28.5998916697085, "lng": 77.31512136970848}}}, "opening_hours": {"open_now": true}, "place_id": "ChIJW-dJYO7kDDkRz5U9o3casqs", "plus_code": {"global_code": "7JWVJ828+FH", "compound_code": "J828+FH Delhi, India"}, "vicinity": "Plaza Market, 205 sagavi complex, Vasundhara Enclave, Delhi", "photos": [{"photo_reference": "CmRaAAAA0ziP1oZ0gwRSMJ-JQv2YYAf463s-dQ3jKniZ88q0uVCyxEZnpVtwk29NDT0HBjL7H3aKcXbptm_81_4NTqY1UWlrp0Aswgx48axCDb8UNE9jHg7w0-ajgyq8pLhwES8AEhDFCaA2Xa6a8mZhWmZc7ayJGhRye4u7Op9lvzYhUZGnju5uJYtpQw", "width": 2400, "html_attributions": ["<a href=\"https://maps.google.com/maps/contrib/112111496992854297620\">Cleaning Store</a>"], "height": 3600}], "scope": "GOOGLE", "business_status": "OPERATIONAL", "types": ["department_store", "point_of_interest", "store", "establishment"], "icon": "https://maps.gstatic.com/mapfiles/place_api/icons/v1/png_71/shopping-71.png"}, {"rating": 4.3, "user_ratings_total": 9, "name": "Manglam Store", "reference": "ChIJk___D-LkDDkR54wPfhL9fws", "geometry": {"location": {"lat": 28.604826, "lng": 77.33172499999999}, "viewport": {"northeast": {"lat": 28.6062111802915, "lng": 77.33303423029149}, "southwest": {"lat": 28.6035132197085, "lng": 77.33033626970848}}}, "opening_hours": {"open_now": false}, "place_id": "ChIJk___D-LkDDkR54wPfhL9fws", "plus_code": {"global_code": "7JWVJ83J+WM", "compound_code": "J83J+WM Delhi, India"}, "vicinity": "D-1/96, Main Road, New Kondli, Delhi", "photos": [{"photo_reference": "CmRaAAAA_8Rshlt-2e-8NguhpuNZpYkZr4_uX_XN65Gi2Gjja6AM6GkkUiXKk7tv0r6DbaGmai6Ew__H0JnQVlfdi9Jm9ndIohFL7SExtaMgze2WKi1lixXuve9XazVY3NqnDX3EEhCYuq8-QrRPYSzHrc1K8njxGhTJQfJPco1mZHxkJBawOxLjMT1P9A", "width": 780, "html_attributions": ["<a href=\"https://maps.google.com/maps/contrib/117906256419530259423\">Naman Aggarwal</a>"], "height": 1040}], "scope": "GOOGLE", "business_status": "OPERATIONAL", "types": ["department_store", "point_of_interest", "store", "establishment"], "icon": "https://maps.gstatic.com/mapfiles/place_api/icons/v1/png_71/shopping-71.png"}, {"rating": 4, "user_ratings_total": 5, "name": "Vicky Department Store", "reference": "ChIJa5KXCIzkDDkRsRuBJoypon8", "geometry": {"location": {"lat": 28.591756, "lng": 77.30448899999999}, "viewport": {"northeast": {"lat": 28.5931086802915, "lng": 77.30583233029151}, "southwest": {"lat": 28.5904107197085, "lng": 77.30313436970849}}}, "opening_hours": {"open_now": true}, "place_id": "ChIJa5KXCIzkDDkRsRuBJoypon8", "plus_code": {"global_code": "7JWVH8R3+PQ", "compound_code": "H8R3+PQ New Delhi, Delhi, India"}, "vicinity": "B-103, Metro Road, Ashok Nagar Extension, New Ashok Nagar, New Delhi", "scope": "GOOGLE", "business_status": "OPERATIONAL", "types": ["department_store", "point_of_interest", "store", "establishment"], "icon": "https://maps.gstatic.com/mapfiles/place_api/icons/v1/png_71/shopping-71.png"}]}