{"status": "OK", "html_attributions": [], "results": [{"rating": 3.7, "user_ratings_total": 6, "name": "Sangam Store", "reference": "ChIJU3qyHN3kDDkRBGGPr3NzSC0", "geometry": {"location": {"lat": 28.613021, "lng": 77.32309599999999}, "viewport": {"northeast": {"lat": 28.6143779802915, "lng": 77.3244320802915}, "southwest": {"lat": 28.6116800197085, "lng": 77.3217341197085}}}, "place_id": "ChIJU3qyHN3kDDkRBGGPr3NzSC0", "plus_code": {"global_code": "7JWVJ87F+66", "compound_code": "J87F+66 Delhi, India"}, "vicinity": "Gharoli Main Road, Kondli Extension, Old Kondli, Delhi", "scope": "GOOGLE", "business_status": "OPERATIONAL", "types": ["department_store", "point_of_interest", "store", "establishment"], "icon": "https://maps.gstatic.com/mapfiles/place_api/icons/v1/png_71/shopping-71.png"}, {"rating": 3.3, "user_ratings_total": 9, "name": "Manoj patanjali store", "reference": "ChIJ2QOVfh_lDDkRNvB58D3bWcM", "geometry": {"location": {"lat": 28.611387, "lng": 77.335593}, "viewport": {"northeast": {"lat": 28.6126917802915, "lng": 77.33691593029151}, "southwest": {"lat": 28.60999381970849, "lng": 77.33421796970849}}}, "opening_hours": {"open_now": true}, "place_id": "ChIJ2QOVfh_lDDkRNvB58D3bWcM", "plus_code": {"global_code": "7JWVJ86P+H6", "compound_code": "J86P+H6 Delhi, India"}, "vicinity": "A 12 22, G.D colony, Mayur vihar phase 3, Delhi", "photos": [{"photo_reference": "CmRaAAAA9DmnL4Cbq3q-fzk7RFBOEa4G1PqIcyNehfaQNLg_t-umRO7ZiYA4gq9RXShRbanuD39XWty5ChDi0WVD9vsWqeFB5PwCxzvYGiHDZRqa_ij7YX6S6Ant6wW3qn54Hb_pEhAXVLLrTtATSqfPUszC1EisGhTbiZ_dZs10YQLyfZCGvjahlaRqkQ", "width": 3072, "html_attributions": ["<a href=\"https://maps.google.com/maps/contrib/115378795340657542806\">Manoj Goel</a>"], "height": 4096}], "scope": "GOOGLE", "business_status": "OPERATIONAL", "types": ["department_store", "point_of_interest", "store", "establishment"], "icon": "https://maps.gstatic.com/mapfiles/place_api/icons/v1/png_71/shopping-71.png"}, {"rating": 2, "user_ratings_total": 3, "name": "Punit Patanjali Store", "reference": "ChIJ_9W7Cy_lDDkRclrowEKiI8M", "geometry": {"location": {"lat": 28.625293, "lng": 77.34082}, "viewport": {"northeast": {"lat": 28.6266409302915, "lng": 77.3421679302915}, "southwest": {"lat": 28.62394296970849, "lng": 77.33946996970849}}}, "opening_hours": {"open_now": true}, "place_id": "ChIJ_9W7Cy_lDDkRclrowEKiI8M", "plus_code": {"global_code": "7JWVJ8GR+48", "compound_code": "J8GR+48 Delhi, India"}, "vicinity": "Shukar Bazar Road, Chauhan Patti, Chauhan Patti, Delhi", "scope": "GOOGLE", "business_status": "OPERATIONAL", "types": ["department_store", "point_of_interest", "store", "establishment"], "icon": "https://maps.gstatic.com/mapfiles/place_api/icons/v1/png_71/shopping-71.png"}, {"rating": 2.7, "user_ratings_total": 3, "name": "Raju Store", "reference": "ChIJg_gTEiPlDDkRCCcyHuFLUE4", "geometry": {"location": {"lat": 28.616249, "lng": 77.341842}, "viewport": {"northeast": {"lat": 28.6176413802915, "lng": 77.34319978029151}, "southwest": {"lat": 28.6149434197085, "lng": 77.3405018197085}}}, "opening_hours": {"open_now": true}, "place_id": "ChIJg_gTEiPlDDkRCCcyHuFLUE4", "plus_code": {"global_code": "7JWVJ88R+FP", "compound_code": "J88R+FP Delhi, India"}, "vicinity": "Raj Market, Mayur Vihar, Shital Vihar, Khora Colony, Sector 62A, Delhi", "scope": "GOOGLE", "business_status": "OPERATIONAL", "types": ["department_store", "point_of_interest", "store", "establishment"], "icon": "https://maps.gstatic.com/mapfiles/place_api/icons/v1/png_71/shopping-71.png"}, {"rating": 2.6, "user_ratings_total": 9, "name": "Sonu Milk Product", "reference": "ChIJQ0aaEyPlDDkRULj3ZnCW0xM", "geometry": {"location": {"lat": 28.616344, "lng": 77.342073}, "viewport": {"northeast": {"lat": 28.6176824802915, "lng": 77.3434196302915}, "southwest": {"lat": 28.6149845197085, "lng": 77.3407216697085}}}, "opening_hours": {"open_now": true}, "place_id": "ChIJQ0aaEyPlDDkRULj3ZnCW0xM", "plus_code": {"global_code": "7JWVJ88R+GR", "compound_code": "J88R+GR Noida, Uttar Pradesh, India"}, "vicinity": "Raj Market, Mayur Vihar, Mayur Vihar Phase3 Main Road, Prakash Nagar, Shiv Park, Khora Colony, Sector 62A, Noida", "photos": [{"photo_reference": "CmRaAAAAGMVzYbwz0PHd-jvMhJ4jPb26j6q76o1rbf-oE7DL_5-8lHClxGJYX83PxLvnDnJdUQMfQHtEhm6N58ULXJoyMlrSHinlavS3AAXAPlinRj7B8ykvTqDB1MUcUTmoJdWZEhA4TGbECC8C1a69i3WSaPbgGhRg2Na7r6rHMxxHyOYyoSmITbfnYA", "width": 1504, "html_attributions": ["<a href=\"https://maps.google.com/maps/contrib/109375140492688559448\">Vinod Kumar</a>"], "height": 3264}], "scope": "GOOGLE", "business_status": "OPERATIONAL", "types": ["department_store", "point_of_interest", "store", "establishment"], "icon": "https://maps.gstatic.com/mapfiles/place_api/icons/v1/png_71/shopping-71.png"}, {"rating": 1.6, "user_ratings_total": 5, "name": "Goyal Store", "reference": "ChIJqeWz4iLlDDkRbPQ2Me7HobM", "geometry": {"location": {"lat": 28.6150336, "lng": 77.3418016}, "viewport": {"northeast": {"lat": 28.6163261302915, "lng": 77.3431204302915}, "southwest": {"lat": 28.6136281697085, "lng": 77.34042246970849}}}, "opening_hours": {"open_now": true}, "place_id": "ChIJqeWz4iLlDDkRbPQ2Me7HobM", "plus_code": {"global_code": "7JWVJ88R+2P", "compound_code": "J88R+2P Noida, Uttar Pradesh, India"}, "vicinity": "Raj Market, Mayur Vihar Phase3 Main Road, Shital Vihar, Khora Colony, Sector 62A, Noida", "photos": [{"photo_reference": "CmRaAAAAkGcD8PPHkzmw8aeNzbDUgET2DN8QJe-Y58xkRVIlJkEjpYkn1wXbMl6QcDMeWoHhXfWExR-aey1cyhk-N9IiDoc1znFmxmBhaITzsVCt-fIRMzHke674p2RgI-f5b4C8EhDILNwJCvUstlYOjzEnRLbBGhSytrL8GecVYGQ-LHYQZHWTPKLvyQ", "width": 3008, "html_attributions": ["<a href=\"https://maps.google.com/maps/contrib/109506451032968715190\">Sudip Kumar Ranjan</a>"], "height": 5344}], "scope": "GOOGLE", "business_status": "OPERATIONAL", "types": ["department_store", "point_of_interest", "store", "establishment"], "icon": "https://maps.gstatic.com/mapfiles/place_api/icons/v1/png_71/shopping-71.png"}, {"rating": 4.6, "user_ratings_total": 5, "name": "TOSHIBA DEPARTMENTAL STORE", "reference": "ChIJy5atTB7lDDkRhtK8_uVfb3w", "geometry": {"location": {"lat": 28.6086379, "lng": 77.3342778}, "viewport": {"northeast": {"lat": 28.6100036802915, "lng": 77.3355913302915}, "southwest": {"lat": 28.6073057197085, "lng": 77.33289336970849}}}, "opening_hours": {"open_now": false}, "place_id": "ChIJy5atTB7lDDkRhtK8_uVfb3w", "plus_code": {"global_code": "7JWVJ85M+FP", "compound_code": "J85M+FP New Delhi, Delhi, India"}, "vicinity": "FLAT NO 2-A POCKET A-1 L.I.G. FLATS, Mayur Vihar Phase III, New Delhi", "photos": [{"photo_reference": "CmRaAAAAAWK-tNsHbDwCYmNr-JndpFiZuuZcPwH7uWki7Fw4UqA6KhRnTWStAZE493EOS6mlvyTGC-OQy8GYGetBTpXMKVgdjrpiLc3vScxC6SJO_lI72xMPKwrQ7JkyyQoL8nGeEhB4PDhq61W2iSsbUI9kU1NaGhSpo7b0dz5NlChyZ_JZfdpEmJM5gw", "width": 3024, "html_attributions": ["<a href=\"https://maps.google.com/maps/contrib/118266710333317289507\">Joshy Kozhipatt</a>"], "height": 4032}], "scope": "GOOGLE", "business_status": "OPERATIONAL", "types": ["department_store", "point_of_interest", "store", "establishment"], "icon": "https://maps.gstatic.com/mapfiles/place_api/icons/v1/png_71/shopping-71.png"}, {"rating": 4.4, "user_ratings_total": 7, "name": "Goyal General Store", "reference": "ChIJhx9tMCPlDDkR1Gf0i_5aj0c", "geometry": {"location": {"lat": 28.616051, "lng": 77.343266}, "viewport": {"northeast": {"lat": 28.6173831302915, "lng": 77.3446105302915}, "southwest": {"lat": 28.6146851697085, "lng": 77.34191256970848}}}, "opening_hours": {"open_now": true}, "place_id": "ChIJhx9tMCPlDDkR1Gf0i_5aj0c", "plus_code": {"global_code": "7JWVJ88V+C8", "compound_code": "J88V+C8 Delhi, India"}, "vicinity": "Raj Market, Mayur Vihar, Mayur Vihar Phase3 Main Road, Shital Vihar, Khora Colony, Sector 62A, Delhi", "scope": "GOOGLE", "business_status": "OPERATIONAL", "types": ["department_store", "point_of_interest", "store", "establishment"], "icon": "https://maps.gstatic.com/mapfiles/place_api/icons/v1/png_71/shopping-71.png"}, {"rating": 2, "user_ratings_total": 4, "name": "Monu Store", "reference": "ChIJ-dbbMSPlDDkRsO6Km7YOLX8", "geometry": {"location": {"lat": 28.615996, "lng": 77.343448}, "viewport": {"northeast": {"lat": 28.6173423802915, "lng": 77.3448124302915}, "southwest": {"lat": 28.61464441970849, "lng": 77.34211446970849}}}, "opening_hours": {"open_now": true}, "place_id": "ChIJ-dbbMSPlDDkRsO6Km7YOLX8", "plus_code": {"global_code": "7JWVJ88V+99", "compound_code": "J88V+99 Delhi, India"}, "vicinity": "Raj Market, Mayur Vihar, Mayur Vihar Phase3 Main Road, Shital Vihar, Khora Colony, Sector 62A, Delhi", "photos": [{"photo_reference": "CmRaAAAAhfpcWej_Ky8yGnKI3SDqRQ_JXkcQqqA8LxeJfxkaLo7wp3FKopOaUsjLANfpYTj5Qp1gIhwAIGT0LsGCgVCI8DWMwV-uOY2ae_0Zm0v54c6AdcLwTEWAk8HQllyuyum5EhBorcvDpTzgNsqrGh801d8bGhRPnomGCSfLqaWxXehEWx9dq52gbQ", "width": 4160, "html_attributions": ["<a href=\"https://maps.google.com/maps/contrib/114976431031181186470\">Subin Varghese</a>"], "height": 2340}], "scope": "GOOGLE", "business_status": "OPERATIONAL", "types": ["department_store", "point_of_interest", "store", "establishment"], "icon": "https://maps.gstatic.com/mapfiles/place_api/icons/v1/png_71/shopping-71.png"}, {"rating": 3.6, "user_ratings_total": 9, "name": "Veshno Store", "reference": "ChIJT37zvyLlDDkRSV8DDzLETaY", "geometry": {"location": {"lat": 28.613716, "lng": 77.34257199999999}, "viewport": {"northeast": {"lat": 28.6150772802915, "lng": 77.34392798029151}, "southwest": {"lat": 28.6123793197085, "lng": 77.3412300197085}}}, "place_id": "ChIJT37zvyLlDDkRSV8DDzLETaY", "plus_code": {"global_code": "7JWVJ87V+F2", "compound_code": "J87V+F2 Delhi, India"}, "vicinity": "Raj Market, Mayur Vihar, Shital Vihar, Khora Colony, Sector 62A, Delhi", "photos": [{"photo_reference": "CmRaAAAALA3u0bmJhD3_ZQRpTTcs3rvB7lF_3zHZMJPl0o3bzHWK8-m2uEGcz7PiNgz6tAVCp_pldci2PDr5MCaeU4Qv39GkiMM9uspL6JiJQpC6hR3gVTjH4doZbxcYVFwA9_OVEhAWdNx5jECiuHjtmdeiDYxuGhRrD1K3rie8LS02LUlUYKId8VkFYA", "width": 1458, "html_attributions": ["<a href=\"https://maps.google.com/maps/contrib/111192516774641769776\">pawan koshal</a>"], "height": 2592}], "scope": "GOOGLE", "business_status": "OPERATIONAL", "types": ["department_store", "point_of_interest", "store", "establishment"], "icon": "https://maps.gstatic.com/mapfiles/place_api/icons/v1/png_71/shopping-71.png"}, {"rating": 4, "user_ratings_total": 4, "name": "Syame Store", "reference": "ChIJ_RrKaj3lDDkRgp9e1HuaxoU", "geometry": {"location": {"lat": 28.613991, "lng": 77.345457}, "viewport": {"northeast": {"lat": 28.6153228802915, "lng": 77.3468419802915}, "southwest": {"lat": 28.6126249197085, "lng": 77.3441440197085}}}, "opening_hours": {"open_now": true}, "place_id": "ChIJ_RrKaj3lDDkRgp9e1HuaxoU", "plus_code": {"global_code": "7JWVJ87W+H5", "compound_code": "J87W+H5 Delhi, India"}, "vicinity": "Raj Market, Mayur Vihar Phase3 Main Road, Mayur Vihar, Shital Vihar, Khora Colony, Sector 62A, Delhi", "photos": [{"photo_reference": "CmRaAAAACDDiz9bYOugXMLyhU6RCGP07_W8uLRaXUMZpjZ-SSGvem0xTJSNU3f_N4J2Q6Lmkn6uwoNeAo6RWBICY39mI8fKyo-QdGuS3JB6pLeXJPUAvHtTErAiHYvzyNA7bg9z5EhA46VQhjvd4bnzonZPKsCXXGhSDJExS3X2m1I80vG9SmCuqmML2nw", "width": 540, "html_attributions": ["<a href=\"https://maps.google.com/maps/contrib/116776800973967772976\">Sugandh Sugandh</a>"], "height": 540}], "scope": "GOOGLE", "business_status": "OPERATIONAL", "types": ["department_store", "point_of_interest", "store", "establishment"], "icon": "https://maps.gstatic.com/mapfiles/place_api/icons/v1/png_71/shopping-71.png"}, {"rating": 3, "user_ratings_total": 1, "name": "R.K.Store", "reference": "ChIJbVZ2ED3lDDkREoM-AQp0fdo", "geometry": {"location": {"lat": 28.61476499999999, "lng": 77.34595999999999}, "viewport": {"northeast": {"lat": 28.6161064302915, "lng": 77.3473038802915}, "southwest": {"lat": 28.6134084697085, "lng": 77.3446059197085}}}, "opening_hours": {"open_now": true}, "place_id": "ChIJbVZ2ED3lDDkREoM-AQp0fdo", "plus_code": {"global_code": "7JWVJ87W+W9", "compound_code": "J87W+W9 Delhi, India"}, "vicinity": "Raj Market, Mayur Vihar, Mayur Vihar Phase3 Main Road, Shiv Vihar, Khora Colony, Delhi", "scope": "GOOGLE", "business_status": "OPERATIONAL", "types": ["department_store", "point_of_interest", "store", "establishment"], "icon": "https://maps.gstatic.com/mapfiles/place_api/icons/v1/png_71/shopping-71.png"}, {"name": "Shree Bhart Store", "reference": "ChIJyXmUEz3lDDkRzhmgpYR_7lQ", "geometry": {"location": {"lat": 28.614298, "lng": 77.34579099999999}, "viewport": {"northeast": {"lat": 28.6156483802915, "lng": 77.3471371802915}, "southwest": {"lat": 28.6129504197085, "lng": 77.34443921970849}}}, "opening_hours": {"open_now": true}, "place_id": "ChIJyXmUEz3lDDkRzhmgpYR_7lQ", "plus_code": {"global_code": "7JWVJ87W+P8", "compound_code": "J87W+P8 Delhi, India"}, "vicinity": "Raj Market, Mayur Vihar Phase3 Main Road, Mayur Vihar, Shital Vihar, Khora Colony, Sector 62A, Delhi", "photos": [{"photo_reference": "CmRaAAAAEV24nrchjzfQPWmVBUTifrU45nPRls5-xOCKHLrA4z8DFbwASeBDz1vgz7uQUOqPsyHvwPQR0reljFWeRQBZU5VJowIxEinZ705PE9MZUnE9wBS80U22Z758XfFxlxf1EhAagafHSfbnOEJWtA_b04U-GhSPjxnR9NKzMqoAhohuIeTFuOi_tA", "width": 1536, "html_attributions": ["<a href=\"https://maps.google.com/maps/contrib/101061324434257421601\">Vijay Pandit</a>"], "height": 2560}], "scope": "GOOGLE", "business_status": "OPERATIONAL", "types": ["department_store", "point_of_interest", "store", "establishment"], "icon": "https://maps.gstatic.com/mapfiles/place_api/icons/v1/png_71/shopping-71.png"}, {"rating": 5, "user_ratings_total": 4, "name": "Pratham Grocery Traders", "reference": "ChIJk___D-LkDDkRWnUeMictrbQ", "geometry": {"location": {"lat": 28.604826, "lng": 77.33172499999999}, "viewport": {"northeast": {"lat": 28.6062111802915, "lng": 77.33303423029149}, "southwest": {"lat": 28.6035132197085, "lng": 77.33033626970848}}}, "opening_hours": {"open_now": true}, "place_id": "ChIJk___D-LkDDkRWnUeMictrbQ", "plus_code": {"global_code": "7JWVJ83J+WM", "compound_code": "J83J+WM Delhi, India"}, "vicinity": "Shop No B-1, 337 -338, New Kondli, Kondli, Delhi", "scope": "GOOGLE", "business_status": "OPERATIONAL", "types": ["department_store", "point_of_interest", "store", "establishment"], "icon": "https://maps.gstatic.com/mapfiles/place_api/icons/v1/png_71/shopping-71.png"}, {"rating": 4.3, "user_ratings_total": 13, "name": "Deepak Store", "reference": "ChIJk___D-LkDDkRYhWHQdK1y5Y", "geometry": {"location": {"lat": 28.604826, "lng": 77.33172499999999}, "viewport": {"northeast": {"lat": 28.6062111802915, "lng": 77.33303423029149}, "southwest": {"lat": 28.6035132197085, "lng": 77.33033626970848}}}, "opening_hours": {"open_now": false}, "place_id": "ChIJk___D-LkDDkRYhWHQdK1y5Y", "plus_code": {"global_code": "7JWVJ83J+WM", "compound_code": "J83J+WM Delhi, India"}, "vicinity": "Shop No-D-1/98-99, Main Road, New Kondli, Delhi", "photos": [{"photo_reference": "CmRaAAAAGKm2oqhmUmyctGDEgZuWTHTis3O4-3mPH5qOftu6X6TIDjaZIdsBCM2QHRUilq-Mb1RVg4XsGVjkJmhIAAY_PLHKJFq1ZSS3XrkROe8aL6imFBlu2Ec3fBcghdFrfyzFEhAPCzy9fyGJG5iYvBE8ZrKqGhScwSqGlknjQWf3TiagZ9rCo1PfJg", "width": 1600, "html_attributions": ["<a href=\"https://maps.google.com/maps/contrib/100354098159983549273\">Deepak Store</a>"], "height": 1200}], "scope": "GOOGLE", "business_status": "OPERATIONAL", "types": ["department_store", "point_of_interest", "store", "establishment"], "icon": "https://maps.gstatic.com/mapfiles/place_api/icons/v1/png_71/shopping-71.png"}, {"rating": 3, "user_ratings_total": 6, "name": "Shree Bankey Bihari Traders", "reference": "ChIJDdbVFeLkDDkRmxC80j33qjc", "geometry": {"location": {"lat": 28.604405, "lng": 77.33116400000002}, "viewport": {"northeast": {"lat": 28.6057273802915, "lng": 77.3325361302915}, "southwest": {"lat": 28.60302941970849, "lng": 77.3298381697085}}}, "opening_hours": {"open_now": false}, "place_id": "ChIJDdbVFeLkDDkRmxC80j33qjc", "plus_code": {"global_code": "7JWVJ83J+QF", "compound_code": "J83J+QF Delhi, India"}, "vicinity": "Shop No. D-1/140, Mayur Vihar Phase III, Block D, New Kondli, Kondli, Delhi", "photos": [{"photo_reference": "CmRaAAAApT7bkn7EiqxEEsMmz2OxKX78nirrt8mMBbwV_4nSBemZmQ5Br9UXdv3658V0lXFvnIzR3NZfYzsrVEcRjtgvdHzLz-CQJLVk-pHuVc5eSecs492WbZAg4jA7SuLKsi12EhA1UBkXxDc6-SbdnAQLhUMyGhQpQYDPsvyAnt5EM18bdeHg5-RhvA", "width": 1440, "html_attributions": ["<a href=\"https://maps.google.com/maps/contrib/114094415264572236120\">Surendra Tiwari</a>"], "height": 2560}], "scope": "GOOGLE", "business_status": "OPERATIONAL", "types": ["department_store", "point_of_interest", "store", "establishment"], "icon": "https://maps.gstatic.com/mapfiles/place_api/icons/v1/png_71/shopping-71.png"}, {"rating": 3, "user_ratings_total": 1, "name": "Sunil Confectionery Shop", "reference": "ChIJp1mkUNX6DDkRXKzXY6gy03o", "geometry": {"location": {"lat": 28.6355356, "lng": 77.33274759999999}, "viewport": {"northeast": {"lat": 28.6368743802915, "lng": 77.3340402302915}, "southwest": {"lat": 28.6341764197085, "lng": 77.33134226970849}}}, "opening_hours": {"open_now": true}, "place_id": "ChIJp1mkUNX6DDkRXKzXY6gy03o", "plus_code": {"global_code": "7JWVJ8PM+63", "compound_code": "J8PM+63 Ghaziabad, Uttar Pradesh, India"}, "vicinity": "365, Opp. Max Hospital, Sector-01, Vaishali, Ghaziabad", "scope": "GOOGLE", "business_status": "OPERATIONAL", "types": ["department_store", "point_of_interest", "store", "establishment"], "icon": "https://maps.gstatic.com/mapfiles/place_api/icons/v1/png_71/shopping-71.png"}, {"name": "National Trading Company", "reference": "ChIJF0xSPuLkDDkRM1wd2_hfQ8g", "geometry": {"location": {"lat": 28.604222, "lng": 77.330862}, "viewport": {"northeast": {"lat": 28.6055381802915, "lng": 77.33223953029152}, "southwest": {"lat": 28.6028402197085, "lng": 77.3295415697085}}}, "place_id": "ChIJF0xSPuLkDDkRM1wd2_hfQ8g", "plus_code": {"global_code": "7JWVJ83J+M8", "compound_code": "J83J+M8 Delhi, India"}, "vicinity": "Shop Number D-1/132,Mayur Vihar Phase-III, Pragati Marg, Block D, New Kondli, Kondli, Delhi", "scope": "GOOGLE", "business_status": "OPERATIONAL", "types": ["department_store", "point_of_interest", "store", "establishment"], "icon": "https://maps.gstatic.com/mapfiles/place_api/icons/v1/png_71/shopping-71.png"}, {"rating": 4.3, "user_ratings_total": 7, "name": "Aggarwal Store", "reference": "ChIJb20aP-LkDDkRlm--gk9HRUY", "geometry": {"location": {"lat": 28.604156, "lng": 77.330766}, "viewport": {"northeast": {"lat": 28.6054841802915, "lng": 77.33208168029151}, "southwest": {"lat": 28.6027862197085, "lng": 77.3293837197085}}}, "opening_hours": {"open_now": false}, "place_id": "ChIJb20aP-LkDDkRlm--gk9HRUY", "plus_code": {"global_code": "7JWVJ83J+M8", "compound_code": "J83J+M8 Delhi, India"}, "vicinity": "Shop No.D-1/130, Mayur Vihar Phase 3, Pragati Marg, Block D, New Kondli, Delhi", "scope": "GOOGLE", "business_status": "OPERATIONAL", "types": ["department_store", "point_of_interest", "store", "establishment"], "icon": "https://maps.gstatic.com/mapfiles/place_api/icons/v1/png_71/shopping-71.png"}, {"rating": 4, "user_ratings_total": 1, "name": "Garg Provision Store", "reference": "ChIJAQAAkMHkDDkRPVhu5ETSQpA", "geometry": {"location": {"lat": 28.6117672, "lng": 77.3144824}, "viewport": {"northeast": {"lat": 28.6131206302915, "lng": 77.3158293302915}, "southwest": {"lat": 28.6104226697085, "lng": 77.31313136970849}}}, "place_id": "ChIJAQAAkMHkDDkRPVhu5ETSQpA", "plus_code": {"global_code": "7JWVJ867+PQ", "compound_code": "J867+PQ New Delhi, Delhi, India"}, "vicinity": "22-23, Shop No 60 61, Block Market, Trilokpuri, Trilokpuri, New Delhi", "scope": "GOOGLE", "business_status": "OPERATIONAL", "types": ["department_store", "point_of_interest", "store", "establishment"], "icon": "https://maps.gstatic.com/mapfiles/place_api/icons/v1/png_71/shopping-71.png"}]}