{"status": "OK", "html_attributions": [], "results": [{"rating": 4.3, "user_ratings_total": 3, "name": "Kanha Agencies", "reference": "ChIJ0cUAJDkFDTkR2dtPOSYjpUc", "geometry": {"location": {"lat": 28.6221312, "lng": 77.0367065}, "viewport": {"northeast": {"lat": 28.6234799302915, "lng": 77.0380502302915}, "southwest": {"lat": 28.6207819697085, "lng": 77.03535226970848}}}, "opening_hours": {"open_now": true}, "place_id": "ChIJ0cUAJDkFDTkR2dtPOSYjpUc", "plus_code": {"global_code": "7JWVJ2CP+VM", "compound_code": "J2CP+VM Delhi, India"}, "vicinity": "49, Rama Park Road, Rama Park, Block A, Bhagwati Garden, Nawada, Delhi", "scope": "GOOGLE", "business_status": "OPERATIONAL", "types": ["department_store", "point_of_interest", "store", "establishment"], "icon": "https://maps.gstatic.com/mapfiles/place_api/icons/v1/png_71/shopping-71.png"}, {"rating": 4.7, "user_ratings_total": 13, "name": "Roshan Lal Mahesh Kumar - Pansari & ayurvedic store", "reference": "ChIJ_SV8JcMPDTkRcisLCnxUJgQ", "geometry": {"location": {"lat": 28.613166, "lng": 76.98391199999999}, "viewport": {"northeast": {"lat": 28.6144767302915, "lng": 76.9852383802915}, "southwest": {"lat": 28.6117787697085, "lng": 76.98254041970849}}}, "opening_hours": {"open_now": true}, "place_id": "ChIJ_SV8JcMPDTkRcisLCnxUJgQ", "plus_code": {"global_code": "7JWRJX7M+7H", "compound_code": "JX7M+7H Delhi, India"}, "vicinity": "Shop No, A-48, Jawahar Chowk, Main Market Road, Ajay Park, Najafgarh, Delhi", "photos": [{"photo_reference": "CmRaAAAAHLY13F0joIKr5HdBPaEe5XM6bKem_WUF-JgrmScNqEWsxqrGMXwDaljzZ0YLLTkvlF-5drzSdNvEVV1Wo1YGBQiQxS8WyKO09Aw0WEtLlmHn_fzF4CPr2xT310r8eFmBEhB9Ws9X5STloWlGZYMg8pAXGhQR96XnM9xJnZU_cOILz9QxV76Y7Q", "width": 2153, "html_attributions": ["<a href=\"https://maps.google.com/maps/contrib/115654824701974502519\">Roshan Lal Mahesh Kumar - Pansari &amp; ayurvedic store</a>"], "height": 4000}], "scope": "GOOGLE", "business_status": "OPERATIONAL", "types": ["pharmacy", "department_store", "health", "point_of_interest", "store", "establishment"], "icon": "https://maps.gstatic.com/mapfiles/place_api/icons/v1/png_71/pharmacy-71.png"}, {"name": "Gopal Dass Vijay Kumar", "reference": "ChIJ_SV8JcMPDTkRhbkwB8Z0bDM", "geometry": {"location": {"lat": 28.613184, "lng": 76.983869}, "viewport": {"northeast": {"lat": 28.6144953802915, "lng": 76.9851957802915}, "southwest": {"lat": 28.6117974197085, "lng": 76.98249781970848}}}, "opening_hours": {"open_now": true}, "place_id": "ChIJ_SV8JcMPDTkRhbkwB8Z0bDM", "plus_code": {"global_code": "7JWRJX7M+7G", "compound_code": "JX7M+7G Delhi, India"}, "vicinity": "48,49, Main Market, Jawahar Chowk, Main Market Road, Ajay Park, Najafgarh, Delhi", "scope": "GOOGLE", "business_status": "OPERATIONAL", "types": ["department_store", "point_of_interest", "store", "establishment"], "icon": "https://maps.gstatic.com/mapfiles/place_api/icons/v1/png_71/shopping-71.png"}, {"rating": 4.3, "user_ratings_total": 4, "name": "Prabhu Dayal Murari Lal", "reference": "ChIJx_UiJcMPDTkRvNkUwyqq9E0", "geometry": {"location": {"lat": 28.613204, "lng": 76.983831}, "viewport": {"northeast": {"lat": 28.6145143302915, "lng": 76.9851571302915}, "southwest": {"lat": 28.6118163697085, "lng": 76.98245916970849}}}, "opening_hours": {"open_now": true}, "place_id": "ChIJx_UiJcMPDTkRvNkUwyqq9E0", "plus_code": {"global_code": "7JWRJX7M+7G", "compound_code": "JX7M+7G Delhi, India"}, "vicinity": "49 A Main Market, Main Market Road, Ajay Park, Najafgarh, Delhi", "scope": "GOOGLE", "business_status": "OPERATIONAL", "types": ["department_store", "point_of_interest", "store", "establishment"], "icon": "https://maps.gstatic.com/mapfiles/place_api/icons/v1/png_71/shopping-71.png"}, {"rating": 4, "user_ratings_total": 6, "name": "Ram Swrop & Sons", "reference": "ChIJ41RtpN0PDTkRRmrS1lfHTuw", "geometry": {"location": {"lat": 28.6089764, "lng": 76.98559270000001}, "viewport": {"northeast": {"lat": 28.6102991302915, "lng": 76.98687028029151}, "southwest": {"lat": 28.6076011697085, "lng": 76.98417231970849}}}, "opening_hours": {"open_now": true}, "place_id": "ChIJ41RtpN0PDTkRRmrS1lfHTuw", "plus_code": {"global_code": "7JWRJX5P+H6", "compound_code": "JX5P+H6 Delhi, India"}, "vicinity": "India", "photos": [{"photo_reference": "CmRaAAAAHyC6dIZfzVT7ADa7S_2DBr3I4jM5WzUsabg4OMrvNp8e80-IrLDlJOY87zmlZ3YB_Gvsd0Tw_5b-Bzchp_QR9Eg01P3p9zCzuxarByH9ZQ6BK8dmzCap3oTcmuqJH809EhAFy2DhHYwmcVtdmGx2hdhiGhS6mia2sCElVdhhHrDhi0XrkMVXng", "width": 3120, "html_attributions": ["<a href=\"https://maps.google.com/maps/contrib/103167151216011293561\">shyam chitkara</a>"], "height": 4160}], "scope": "GOOGLE", "business_status": "OPERATIONAL", "types": ["department_store", "point_of_interest", "store", "establishment"], "icon": "https://maps.gstatic.com/mapfiles/place_api/icons/v1/png_71/shopping-71.png"}, {"name": "Harishkumar & Sons", "reference": "ChIJA354O8MPDTkRvbc8iOguL4U", "geometry": {"location": {"lat": 28.613358, "lng": 76.983569}, "viewport": {"northeast": {"lat": 28.6146520802915, "lng": 76.98488758029151}, "southwest": {"lat": 28.6119541197085, "lng": 76.98218961970849}}}, "place_id": "ChIJA354O8MPDTkRvbc8iOguL4U", "plus_code": {"global_code": "7JWRJX7M+8C", "compound_code": "JX7M+8C Delhi, India"}, "vicinity": "Main Market, Main Market Road, Ajay Park, Najafgarh, Delhi", "scope": "GOOGLE", "business_status": "OPERATIONAL", "types": ["department_store", "point_of_interest", "store", "establishment"], "icon": "https://maps.gstatic.com/mapfiles/place_api/icons/v1/png_71/shopping-71.png"}, {"name": "NEEL KANTH DEPARTMENT STORE", "reference": "ChIJ_eCK6NwPDTkRwm0JhmdX4oo", "geometry": {"location": {"lat": 28.6106783, "lng": 76.98389949999999}, "viewport": {"northeast": {"lat": 28.6119991802915, "lng": 76.98522518029151}, "southwest": {"lat": 28.6093012197085, "lng": 76.98252721970849}}}, "opening_hours": {"open_now": true}, "place_id": "ChIJ_eCK6NwPDTkRwm0JhmdX4oo", "plus_code": {"global_code": "7JWRJX6M+7H", "compound_code": "JX6M+7H Najafgarh, New Delhi, Delhi, India"}, "vicinity": "Nawada Bazar, Najafgarh, New Delhi", "photos": [{"photo_reference": "CmRaAAAAUHfQTLVaytN7Uee1HAFUHLGvdx-1kPwJ2jzJdO1QBILketIubAoI_QW_v5SG-wzuFW5u_KfcwuEt0iVkRNC2GjrSGzYgWD9pjvYcmh5CqdPHZMh7Xah1k9uEUE7oqMANEhC7nMQ5larwBggQ1T2BtbjKGhT1TzXIPy7DzjwGh2zvawuvZXLIXA", "width": 3024, "html_attributions": ["<a href=\"https://maps.google.com/maps/contrib/110365131908956006635\">Kapil Goyal</a>"], "height": 4032}], "scope": "GOOGLE", "business_status": "OPERATIONAL", "types": ["department_store", "grocery_or_supermarket", "food", "point_of_interest", "store", "establishment"], "icon": "https://maps.gstatic.com/mapfiles/place_api/icons/v1/png_71/shopping-71.png"}, {"rating": 3.5, "user_ratings_total": 6, "name": "Giriraj Store", "reference": "ChIJIfAxxtwPDTkRIVjRTezsYeA", "geometry": {"location": {"lat": 28.6115161, "lng": 76.9832435}, "viewport": {"northeast": {"lat": 28.6128670802915, "lng": 76.9845548302915}, "southwest": {"lat": 28.61016911970849, "lng": 76.98185686970848}}}, "opening_hours": {"open_now": true}, "place_id": "ChIJIfAxxtwPDTkRIVjRTezsYeA", "plus_code": {"global_code": "7JWRJX6M+J7", "compound_code": "JX6M+J7 Delhi, India"}, "vicinity": "361, Main Market, Najafgarh, Delhi", "scope": "GOOGLE", "business_status": "OPERATIONAL", "types": ["department_store", "point_of_interest", "store", "establishment"], "icon": "https://maps.gstatic.com/mapfiles/place_api/icons/v1/png_71/shopping-71.png"}, {"rating": 5, "user_ratings_total": 3, "name": "Gourav Trading Company", "reference": "ChIJTS9Zv9wPDTkR9hBjqhj2yM8", "geometry": {"location": {"lat": 28.611124, "lng": 76.983015}, "viewport": {"northeast": {"lat": 28.6125025302915, "lng": 76.9843858802915}, "southwest": {"lat": 28.60980456970849, "lng": 76.98168791970849}}}, "opening_hours": {"open_now": true}, "place_id": "ChIJTS9Zv9wPDTkR9hBjqhj2yM8", "plus_code": {"global_code": "7JWRJX6M+C6", "compound_code": "JX6M+C6 Delhi, India"}, "vicinity": "Shop No. 226, agrashen bazar, Nawada Bazar, Najafgarh, Delhi", "scope": "GOOGLE", "business_status": "OPERATIONAL", "types": ["department_store", "food", "point_of_interest", "store", "establishment"], "icon": "https://maps.gstatic.com/mapfiles/place_api/icons/v1/png_71/shopping-71.png"}, {"rating": 4.3, "user_ratings_total": 6, "name": "Radha Krishnan Store", "reference": "ChIJ3yVDfuAPDTkRLUFSKg5ubt0", "geometry": {"location": {"lat": 28.603981, "lng": 76.987605}, "viewport": {"northeast": {"lat": 28.6052977802915, "lng": 76.98896763029151}, "southwest": {"lat": 28.6025998197085, "lng": 76.98626966970849}}}, "opening_hours": {"open_now": true}, "place_id": "ChIJ3yVDfuAPDTkRLUFSKg5ubt0", "plus_code": {"global_code": "7JWRJX3Q+H2", "compound_code": "JX3Q+H2 Delhi, India"}, "vicinity": "Najafgarh Kapashera Road, Gurgaon Road, New Roshan Pura Extn, Najafgarh, Delhi", "photos": [{"photo_reference": "CmRaAAAAtSPbKJ9b3nv4lYlVHM_WuckQDVDwNGUg7wYkXtCiSTAIGSDAwuBE0G8jZ-x8_PYOeE6mCwSHtT4NzRI2CuEjOT_DqQhQc_uQ6mxtLW10ybKDPMjFI0fc8vWA_ti-M15EEhAWHCxzynJ6gbAjTSIOSuGZGhTgsPUI_tgPAIHq3PtFVgwMs8VeQw", "width": 2752, "html_attributions": ["<a href=\"https://maps.google.com/maps/contrib/113659697132809316733\">Pankaj Beriwal Parajapati</a>"], "height": 3664}], "scope": "GOOGLE", "business_status": "OPERATIONAL", "types": ["department_store", "point_of_interest", "store", "establishment"], "icon": "https://maps.gstatic.com/mapfiles/place_api/icons/v1/png_71/shopping-71.png"}, {"rating": 2, "user_ratings_total": 1, "name": "Jagdish Store", "reference": "ChIJyxJ3820FDTkRHDpBG7qvOb4", "geometry": {"location": {"lat": 28.639235, "lng": 77.02893399999999}, "viewport": {"northeast": {"lat": 28.6406011802915, "lng": 77.03028353029151}, "southwest": {"lat": 28.6379032197085, "lng": 77.02758556970849}}}, "opening_hours": {"open_now": true}, "place_id": "ChIJyxJ3820FDTkRHDpBG7qvOb4", "plus_code": {"global_code": "7JWVJ2QH+MH", "compound_code": "J2QH+MH Vikas Nagar, Delhi, India"}, "vicinity": "Plot No-5, Main Ranholla Road, Near Tarun Dharamkatta, Vikas Nagar, Vikas Nagar", "scope": "GOOGLE", "business_status": "OPERATIONAL", "types": ["department_store", "point_of_interest", "store", "establishment"], "icon": "https://maps.gstatic.com/mapfiles/place_api/icons/v1/png_71/shopping-71.png"}, {"name": "Baitus salaam departmental store", "reference": "ChIJOe4NtZcFDTkRNHAv43Fk2VY", "geometry": {"location": {"lat": 28.6167484, "lng": 77.03425349999999}, "viewport": {"northeast": {"lat": 28.6180973802915, "lng": 77.0356024802915}, "southwest": {"lat": 28.6153994197085, "lng": 77.03290451970848}}}, "place_id": "ChIJOe4NtZcFDTkRNHAv43Fk2VY", "plus_code": {"global_code": "7JWVJ28M+MP", "compound_code": "J28M+MP Delhi, India"}, "vicinity": "C1188, Block B, Sewak Park, Dwarka, Delhi", "scope": "GOOGLE", "business_status": "OPERATIONAL", "types": ["department_store", "point_of_interest", "store", "establishment"], "icon": "https://maps.gstatic.com/mapfiles/place_api/icons/v1/png_71/shopping-71.png"}]}