{"status": "OK", "html_attributions": [], "results": [{"rating": 4.4, "user_ratings_total": 16, "name": "Sidharth Departmental Store", "reference": "ChIJwbdVsdUEDTkRR3Nv3nvV7aE", "geometry": {"location": {"lat": 28.612082, "lng": 77.058956}, "viewport": {"northeast": {"lat": 28.6134278802915, "lng": 77.0602236802915}, "southwest": {"lat": 28.6107299197085, "lng": 77.0575257197085}}}, "opening_hours": {"open_now": true}, "place_id": "ChIJwbdVsdUEDTkRR3Nv3nvV7aE", "plus_code": {"global_code": "7JWVJ365+RH", "compound_code": "J365+RH Delhi, India"}, "vicinity": "RZ-37, Raja Puri, Main Rajapuri Road, Subhash Park Extn, Uttam Nagar, Delhi", "photos": [{"photo_reference": "CmRaAAAALV9xuhocq7dku8hvv4nA9wqZeNGb2tlIm2ZzORCjpume3h1AiD74bpFNDEComcs7Yg7ic7Fq6yWX9P-TsKfFTHi7oO3pWNndmps2D0JlrZQ2e8RREXSkKMJKfD2vy0GwEhCwxbCQG45TxHis7rv8lYAdGhQGnsaUpHsiV3rms1kmip9pQ01mjg", "width": 2340, "html_attributions": ["<a href=\"https://maps.google.com/maps/contrib/101798968390864079334\">Nikhil Kumar</a>"], "height": 4160}], "scope": "GOOGLE", "business_status": "OPERATIONAL", "types": ["department_store", "point_of_interest", "store", "establishment"], "icon": "https://maps.gstatic.com/mapfiles/place_api/icons/v1/png_71/shopping-71.png"}, {"rating": 3, "user_ratings_total": 1, "name": "Maa Barbar", "reference": "ChIJ4y2qY9kEDTkRs8j9hJuM-lg", "geometry": {"location": {"lat": 28.623688, "lng": 77.06200299999999}, "viewport": {"northeast": {"lat": 28.6249936802915, "lng": 77.06337468029152}, "southwest": {"lat": 28.62229571970849, "lng": 77.0606767197085}}}, "opening_hours": {"open_now": true}, "place_id": "ChIJ4y2qY9kEDTkRs8j9hJuM-lg", "plus_code": {"global_code": "7JWVJ3F6+FR", "compound_code": "J3F6+FR Delhi, India"}, "vicinity": "Shivaji Marg, C Block, JJ Colony, Uttam Nagar, Delhi", "scope": "GOOGLE", "business_status": "OPERATIONAL", "types": ["department_store", "point_of_interest", "store", "establishment"], "icon": "https://maps.gstatic.com/mapfiles/place_api/icons/v1/png_71/shopping-71.png"}, {"rating": 3.8, "user_ratings_total": 5, "name": "Rinku Trading Co.", "reference": "ChIJ939yYdkEDTkR4hJqGWZAu_E", "geometry": {"location": {"lat": 28.623933, "lng": 77.061978}, "viewport": {"northeast": {"lat": 28.6252739302915, "lng": 77.0633311802915}, "southwest": {"lat": 28.6225759697085, "lng": 77.06063321970849}}}, "place_id": "ChIJ939yYdkEDTkR4hJqGWZAu_E", "plus_code": {"global_code": "7JWVJ3F6+HQ", "compound_code": "J3F6+HQ Delhi, India"}, "vicinity": "WZ/A-175, Hastsal Road, B Block, JJ Colony, Uttam Nagar, Delhi", "scope": "GOOGLE", "business_status": "OPERATIONAL", "types": ["department_store", "point_of_interest", "store", "establishment"], "icon": "https://maps.gstatic.com/mapfiles/place_api/icons/v1/png_71/shopping-71.png"}, {"rating": 4.6, "user_ratings_total": 5, "name": "Gupta Store", "reference": "ChIJ13UcO9QEDTkRMRYdRAmTC9A", "geometry": {"location": {"lat": 28.613179, "lng": 77.06024599999999}, "viewport": {"northeast": {"lat": 28.6144919302915, "lng": 77.06159483029151}, "southwest": {"lat": 28.61179396970849, "lng": 77.05889686970849}}}, "opening_hours": {"open_now": true}, "place_id": "ChIJ13UcO9QEDTkRMRYdRAmTC9A", "plus_code": {"global_code": "7JWVJ376+73", "compound_code": "J376+73 Delhi, India"}, "vicinity": "C 1/1 , Madhu Vihar ,Navjeevan Public School, Dwarka Sec - 3 ,, Delhi", "photos": [{"photo_reference": "CmRaAAAAghNnXlXTsPoHdBIye9ybOmPNRetlBNoRXTdppa-6e9sF0uE3_wKUxs52R9BnTN_SiSkasCVVdK8czXDWf5NLrFpRY2h0SpPNxH9xH-VzZIyt8ovwI34Hoda3BGsRWkn-EhCWdNnOcSIs96AYKioRJAnhGhQCa968hkQu0LWmXaTfTmaZGmD--g", "width": 1920, "html_attributions": ["<a href=\"https://maps.google.com/maps/contrib/102709173437537666637\">Gupta Store</a>"], "height": 1080}], "scope": "GOOGLE", "business_status": "OPERATIONAL", "types": ["department_store", "point_of_interest", "store", "establishment"], "icon": "https://maps.gstatic.com/mapfiles/place_api/icons/v1/png_71/shopping-71.png"}, {"name": "Jai Mata Kirana Store", "reference": "ChIJAQAAPNQEDTkRvfo-w4dSq-g", "geometry": {"location": {"lat": 28.612955, "lng": 77.06040399999999}, "viewport": {"northeast": {"lat": 28.6143797302915, "lng": 77.0617532302915}, "southwest": {"lat": 28.6116817697085, "lng": 77.05905526970848}}}, "opening_hours": {"open_now": true}, "place_id": "ChIJAQAAPNQEDTkRvfo-w4dSq-g", "plus_code": {"global_code": "7JWVJ376+55", "compound_code": "J376+55 Delhi, India"}, "vicinity": "C-1/81, Solanki Market, Madhu Vihar, Uttam Nagar, Delhi", "scope": "GOOGLE", "business_status": "OPERATIONAL", "types": ["department_store", "food", "point_of_interest", "store", "establishment"], "icon": "https://maps.gstatic.com/mapfiles/place_api/icons/v1/png_71/shopping-71.png"}, {"name": "Annpunda", "reference": "ChIJB1mThT0FDTkRoTPnhHuXFnw", "geometry": {"location": {"lat": 28.6289354, "lng": 77.04145199999999}, "viewport": {"northeast": {"lat": 28.6302852802915, "lng": 77.0427583302915}, "southwest": {"lat": 28.6275873197085, "lng": 77.04006036970848}}}, "opening_hours": {"open_now": true}, "place_id": "ChIJB1mThT0FDTkRoTPnhHuXFnw", "plus_code": {"global_code": "7JWVJ2HR+HH", "compound_code": "J2HR+HH Delhi, India"}, "vicinity": "Gurudwara Road, Uttam Nagar, Block M, Zaildar Enclave, Hastsal, Delhi", "scope": "GOOGLE", "business_status": "OPERATIONAL", "types": ["department_store", "point_of_interest", "store", "establishment"], "icon": "https://maps.gstatic.com/mapfiles/place_api/icons/v1/png_71/shopping-71.png"}, {"rating": 5, "user_ratings_total": 1, "name": "Shubh Store", "reference": "ChIJf12O1z0FDTkRpiDbwDlwnf0", "geometry": {"location": {"lat": 28.6269993, "lng": 77.0392935}, "viewport": {"northeast": {"lat": 28.6283485802915, "lng": 77.0406791802915}, "southwest": {"lat": 28.62565061970849, "lng": 77.03798121970848}}}, "opening_hours": {"open_now": true}, "place_id": "ChIJf12O1z0FDTkRpiDbwDlwnf0", "plus_code": {"global_code": "7JWVJ2GQ+QP", "compound_code": "J2GQ+QP Delhi, India"}, "vicinity": "k-2/71A, Pipal Wala Road Uttam Nagar, new delhi, Mohan Garden, Nawada, Delhi", "photos": [{"photo_reference": "CmRaAAAAbInHVza-MGfpWkM6DKqdZqalSMDtkhlZj0qi0GJ5iRhcLdyaDi25XvxjC9hyXdifvNImVVfmwWHaL70y-Exzcjz5XPuNRcbGTjbdZ03seWoK5qRt6uPfXmLqLyHR2WjwEhBOIoduoyTbEiTro5zj8XyFGhRJcuS09wOwhxwGOP2JdKvEaqZkbA", "width": 1040, "html_attributions": ["<a href=\"https://maps.google.com/maps/contrib/112215194543506987999\">jatin garg</a>"], "height": 585}], "scope": "GOOGLE", "business_status": "OPERATIONAL", "types": ["department_store", "point_of_interest", "store", "establishment"], "icon": "https://maps.gstatic.com/mapfiles/place_api/icons/v1/png_71/shopping-71.png"}, {"rating": 4.3, "user_ratings_total": 3, "name": "Kanha Agencies", "reference": "ChIJ0cUAJDkFDTkR2dtPOSYjpUc", "geometry": {"location": {"lat": 28.6221312, "lng": 77.0367065}, "viewport": {"northeast": {"lat": 28.6234799302915, "lng": 77.0380502302915}, "southwest": {"lat": 28.6207819697085, "lng": 77.03535226970848}}}, "opening_hours": {"open_now": true}, "place_id": "ChIJ0cUAJDkFDTkR2dtPOSYjpUc", "plus_code": {"global_code": "7JWVJ2CP+VM", "compound_code": "J2CP+VM Delhi, India"}, "vicinity": "49, Rama Park Road, Rama Park, Block A, Bhagwati Garden, Nawada, Delhi", "scope": "GOOGLE", "business_status": "OPERATIONAL", "types": ["department_store", "point_of_interest", "store", "establishment"], "icon": "https://maps.gstatic.com/mapfiles/place_api/icons/v1/png_71/shopping-71.png"}, {"name": "Singal Provisional Store", "reference": "ChIJd3xX1yoFDTkRQk6YqiSycVQ", "geometry": {"location": {"lat": 28.6084298, "lng": 77.0541143}, "viewport": {"northeast": {"lat": 28.6097184302915, "lng": 77.0554637302915}, "southwest": {"lat": 28.6070204697085, "lng": 77.05276576970849}}}, "opening_hours": {"open_now": true}, "place_id": "ChIJd3xX1yoFDTkRQk6YqiSycVQ", "plus_code": {"global_code": "7JWVJ353+9J", "compound_code": "J353+9J Delhi, India"}, "vicinity": "D-214, Sahyog Vihar, Bharat Vihar Road, Jain Park, Matiala, Delhi", "scope": "GOOGLE", "business_status": "OPERATIONAL", "types": ["department_store", "point_of_interest", "store", "establishment"], "icon": "https://maps.gstatic.com/mapfiles/place_api/icons/v1/png_71/shopping-71.png"}, {"rating": 5, "user_ratings_total": 9, "name": "Aneja Traders", "reference": "ChIJQ9BYj9IFDTkRE6RbltHTwX0", "geometry": {"location": {"lat": 28.62774169999999, "lng": 77.039333}, "viewport": {"northeast": {"lat": 28.6290906802915, "lng": 77.04068198029151}, "southwest": {"lat": 28.62639271970849, "lng": 77.03798401970849}}}, "opening_hours": {"open_now": true}, "place_id": "ChIJQ9BYj9IFDTkRE6RbltHTwX0", "plus_code": {"global_code": "7JWVJ2HQ+3P", "compound_code": "J2HQ+3P New Delhi, Delhi, India"}, "vicinity": "opposite to Reliance Fresh, PIPAL CHOWK, opposite to Reliance Fresh, New Delhi", "photos": [{"photo_reference": "CmRaAAAAHTnCX5idQfZfNUVs3bcUp0hsSydRgGyaBWUVcbD5I7vJu8ujvSOrwvUGIivgzcM2jjJ-Tjj3jw7uygczPYsrZRzJq6Td4zPtR-DaLEW41jPfiS1JCU9EpP-semxr31CfEhD8U8ltFjitCvl1gogdWLsqGhRAqBQ-KVy7BVWcZArArQ9_oA-C5A", "width": 3024, "html_attributions": ["<a href=\"https://maps.google.com/maps/contrib/116353848413242950807\">Aneja Traders</a>"], "height": 4032}], "scope": "GOOGLE", "business_status": "OPERATIONAL", "types": ["department_store", "point_of_interest", "store", "establishment"], "icon": "https://maps.gstatic.com/mapfiles/place_api/icons/v1/png_71/shopping-71.png"}, {"rating": 3.8, "user_ratings_total": 30, "name": "Mittal House", "reference": "ChIJ1zET1yoFDTkRFb70WEaZjUE", "geometry": {"location": {"lat": 28.608285, "lng": 77.05380699999999}, "viewport": {"northeast": {"lat": 28.60962898029151, "lng": 77.0551558302915}, "southwest": {"lat": 28.6069310197085, "lng": 77.05245786970849}}}, "place_id": "ChIJ1zET1yoFDTkRFb70WEaZjUE", "plus_code": {"global_code": "7JWVJ353+8G", "compound_code": "J353+8G Delhi, India"}, "vicinity": "F-100A, Vishwas Park, Uttam Nagar, Delhi", "photos": [{"photo_reference": "CmRaAAAA-Y9_S53W1R2MxJ9tOFZea0iTIvAg7wUgYzKVBh_wEvGDBisBXCj32FhF7ufWI-h2zGuUui5AsAx6akwAA2OL1oU9KTFgtmoz-ZMQV7ZHvJwmE1yG-Oic6dM2DNKjcVWJEhA9tGUn4Pl7yNq-ZFow1cDfGhSRqFGRwH_cnE3BwIgGf-v5RViCqA", "width": 1600, "html_attributions": ["<a href=\"https://maps.google.com/maps/contrib/112432796899331174099\">Ankit Gaur</a>"], "height": 1200}], "scope": "GOOGLE", "business_status": "OPERATIONAL", "types": ["department_store", "point_of_interest", "store", "establishment"], "icon": "https://maps.gstatic.com/mapfiles/place_api/icons/v1/png_71/shopping-71.png"}, {"rating": 2.3, "user_ratings_total": 6, "name": "Hemant General Store", "reference": "ChIJXU7j0CoFDTkRpI2Qtc7D0p0", "geometry": {"location": {"lat": 28.6082279, "lng": 77.0540606}, "viewport": {"northeast": {"lat": 28.6096173802915, "lng": 77.0554092802915}, "southwest": {"lat": 28.6069194197085, "lng": 77.0527113197085}}}, "opening_hours": {"open_now": true}, "place_id": "ChIJXU7j0CoFDTkRpI2Qtc7D0p0", "plus_code": {"global_code": "7JWVJ353+7J", "compound_code": "J353+7J New Delhi, Delhi, India"}, "vicinity": "Vishwas Park, Uttam Nagar Main, Bharat Vihar Road, Block G, Raja Puri, Matiala, New Delhi", "photos": [{"photo_reference": "CmRaAAAABN9gRSjg28otY_v1K2afOEs1qFeimdoYw9sS5VO48TOPj3JfqFVQNR3JheVj8RFben74XiyPqJMjPS09mPJJjb5o488bbV9Ws4GxYYukyPYm8D7DJjWEoaSSRP7CdVuMEhAzepgrhdMayta47hT3Q7fWGhSPI7E0JwK_OrzHNcqlmjDXAuvnwQ", "width": 2322, "html_attributions": ["<a href=\"https://maps.google.com/maps/contrib/100166612888810507419\">Abhishek Singh</a>"], "height": 4128}], "scope": "GOOGLE", "business_status": "OPERATIONAL", "types": ["department_store", "point_of_interest", "store", "establishment"], "icon": "https://maps.gstatic.com/mapfiles/place_api/icons/v1/png_71/shopping-71.png"}, {"name": "Goyal store", "reference": "ChIJlfUAbqsFDTkRP1a1gLNhUyg", "geometry": {"location": {"lat": 28.6157768, "lng": 77.0633809}, "viewport": {"northeast": {"lat": 28.6171330802915, "lng": 77.06472998029149}, "southwest": {"lat": 28.6144351197085, "lng": 77.06203201970848}}}, "opening_hours": {"open_now": true}, "place_id": "ChIJlfUAbqsFDTkRP1a1gLNhUyg", "plus_code": {"global_code": "7JWVJ387+89", "compound_code": "J387+89 New Delhi, Delhi, India"}, "vicinity": "S-8, Vijay Vihar, Uttam Nagar, New Delhi", "scope": "GOOGLE", "business_status": "OPERATIONAL", "types": ["department_store", "point_of_interest", "store", "establishment"], "icon": "https://maps.gstatic.com/mapfiles/place_api/icons/v1/png_71/shopping-71.png"}, {"name": "Kalra Inerpresor", "reference": "ChIJvbCmDD4FDTkR9fjDy_6nu80", "geometry": {"location": {"lat": 28.62777, "lng": 77.03879239999999}, "viewport": {"northeast": {"lat": 28.6291157802915, "lng": 77.0401885802915}, "southwest": {"lat": 28.6264178197085, "lng": 77.03749061970849}}}, "place_id": "ChIJvbCmDD4FDTkR9fjDy_6nu80", "plus_code": {"global_code": "7JWVJ2HQ+4G", "compound_code": "J2HQ+4G Delhi, India"}, "vicinity": "WE-156, Dwarka Mod, Mohan Garden, Razapur Khurd, Delhi", "scope": "GOOGLE", "business_status": "OPERATIONAL", "types": ["department_store", "point_of_interest", "store", "establishment"], "icon": "https://maps.gstatic.com/mapfiles/place_api/icons/v1/png_71/shopping-71.png"}, {"rating": 3, "user_ratings_total": 3, "name": "Happy General Store", "reference": "ChIJZ5K_rCobDTkRmrdT8TWdB00", "geometry": {"location": {"lat": 28.6089011, "lng": 77.05691449999999}, "viewport": {"northeast": {"lat": 28.6102494302915, "lng": 77.05829143029149}, "southwest": {"lat": 28.60755146970849, "lng": 77.05559346970848}}}, "opening_hours": {"open_now": true}, "place_id": "ChIJZ5K_rCobDTkRmrdT8TWdB00", "plus_code": {"global_code": "7JWVJ354+HQ", "compound_code": "J354+HQ Delhi, India"}, "vicinity": "Main Raja, Som Bazar Road, Vishwas Park Extn, Uttam Nagar, Matiala, Delhi", "scope": "GOOGLE", "business_status": "OPERATIONAL", "types": ["department_store", "point_of_interest", "store", "establishment"], "icon": "https://maps.gstatic.com/mapfiles/place_api/icons/v1/png_71/shopping-71.png"}, {"rating": 3.5, "user_ratings_total": 2, "name": "Singhal Medical And Department Store", "reference": "ChIJAZ_FGdUEDTkRA7O0u63buYE", "geometry": {"location": {"lat": 28.609848, "lng": 77.058674}, "viewport": {"northeast": {"lat": 28.6111963802915, "lng": 77.0600443302915}, "southwest": {"lat": 28.60849841970849, "lng": 77.0573463697085}}}, "opening_hours": {"open_now": true}, "place_id": "ChIJAZ_FGdUEDTkRA7O0u63buYE", "plus_code": {"global_code": "7JWVJ355+WF", "compound_code": "J355+WF Delhi, India"}, "vicinity": "A-53, Main Rajapuri Road, Vishwas Park Extn, Rajapuri (Uttam Nagar), Matiala, Delhi", "scope": "GOOGLE", "business_status": "OPERATIONAL", "types": ["department_store", "pharmacy", "food", "health", "point_of_interest", "store", "establishment"], "icon": "https://maps.gstatic.com/mapfiles/place_api/icons/v1/png_71/shopping-71.png"}, {"rating": 5, "user_ratings_total": 2, "name": "Arushi general Store", "reference": "ChIJv3ES6cwFDTkR8z4MZh_U_Ng", "geometry": {"location": {"lat": 28.6079729, "lng": 77.0549661}, "viewport": {"northeast": {"lat": 28.6093223302915, "lng": 77.05625403029151}, "southwest": {"lat": 28.6066243697085, "lng": 77.0535560697085}}}, "opening_hours": {"open_now": true}, "place_id": "ChIJv3ES6cwFDTkR8z4MZh_U_Ng", "plus_code": {"global_code": "7JWVJ353+5X", "compound_code": "J353+5X Delhi, India"}, "vicinity": "G 146, Rajapuri Road, Vishwas Park, Uttam Nagar, Delhi", "scope": "GOOGLE", "business_status": "OPERATIONAL", "types": ["department_store", "point_of_interest", "store", "establishment"], "icon": "https://maps.gstatic.com/mapfiles/place_api/icons/v1/png_71/shopping-71.png"}, {"rating": 5, "user_ratings_total": 1, "name": "Ashok Jain", "reference": "ChIJT5CorioFDTkRO0QRKgpeMv8", "geometry": {"location": {"lat": 28.608249, "lng": 77.056045}, "viewport": {"northeast": {"lat": 28.6096167802915, "lng": 77.0573945802915}, "southwest": {"lat": 28.6069188197085, "lng": 77.0546966197085}}}, "opening_hours": {"open_now": true}, "place_id": "ChIJT5CorioFDTkRO0QRKgpeMv8", "plus_code": {"global_code": "7JWVJ354+7C", "compound_code": "J354+7C New Delhi, Delhi, India"}, "vicinity": "F-13/B, Uttam Nagar, Main Bharat Vihar Road, Rajapuri, Block G, Jain Colony, Matiala, New Delhi", "scope": "GOOGLE", "business_status": "OPERATIONAL", "types": ["department_store", "point_of_interest", "store", "establishment"], "icon": "https://maps.gstatic.com/mapfiles/place_api/icons/v1/png_71/shopping-71.png"}, {"rating": 4, "user_ratings_total": 1, "name": "Choudhary Departmental Store", "reference": "ChIJSxEtVtUEDTkRUYFApcAeH3U", "geometry": {"location": {"lat": 28.608261, "lng": 77.05632}, "viewport": {"northeast": {"lat": 28.6096227802915, "lng": 77.0576685802915}, "southwest": {"lat": 28.6069248197085, "lng": 77.0549706197085}}}, "opening_hours": {"open_now": true}, "place_id": "ChIJSxEtVtUEDTkRUYFApcAeH3U", "plus_code": {"global_code": "7JWVJ354+8G", "compound_code": "J354+8G New Delhi, Delhi, India"}, "vicinity": "C-7, Uttam Nagar, Vishwash Park, Gali Number-8, Block G, Raja Puri, Matiala, New Delhi", "photos": [{"photo_reference": "CmRaAAAATm-4EstLW7JdpIS-X8E1Q1P2H13xLr-OQKssM6JKfefAltNaeazIq6oEwJFfzY-fWx-lvCaLzim-F_zNgw6QQDeV00OOK5qW04-X5d-bDV1Eii8rfCBfaFzsu8X3fnnxEhCjnW9vaMJJgE4bhHGHqdYDGhR9r4dBPCoZXvowiVWAR4IALSECbw", "width": 2176, "html_attributions": ["<a href=\"https://maps.google.com/maps/contrib/101922682848943097943\">Sunil Kumar</a>"], "height": 4608}], "scope": "GOOGLE", "business_status": "OPERATIONAL", "types": ["department_store", "point_of_interest", "store", "establishment"], "icon": "https://maps.gstatic.com/mapfiles/place_api/icons/v1/png_71/shopping-71.png"}, {"rating": 4.1, "user_ratings_total": 15, "name": "Garima General Store", "reference": "ChIJW5mwAxYFDTkR4gDDsHbNUbc", "geometry": {"location": {"lat": 28.6294412, "lng": 77.0396789}, "viewport": {"northeast": {"lat": 28.6307903302915, "lng": 77.0409825802915}, "southwest": {"lat": 28.62809236970849, "lng": 77.03828461970849}}}, "opening_hours": {"open_now": true}, "place_id": "ChIJW5mwAxYFDTkR4gDDsHbNUbc", "plus_code": {"global_code": "7JWVJ2HQ+QV", "compound_code": "J2HQ+QV Delhi, India"}, "vicinity": "Pipal Wala Road, Block P, Mohan Garden, Hastsal, Delhi", "photos": [{"photo_reference": "CmRaAAAAXW7B5PKOVwSnCpcuZR3XlfYygX9SudL6mX05KR4un-t9L8wJceuO1otglGJAI4VbVv9Kbo5xSj2I8mH1igkkup9qgnQGtNqdMup1Uz_xRg6axs9lE7lCZ199fl7JzntkEhDR1AwxgVgJ9peHSCTowVzUGhRGpgjhw_XFh-EMdR3e32yxoGzTMA", "width": 2448, "html_attributions": ["<a href=\"https://maps.google.com/maps/contrib/108402310655734542238\">Kasim Khan</a>"], "height": 3264}], "scope": "GOOGLE", "business_status": "OPERATIONAL", "types": ["department_store", "point_of_interest", "store", "establishment"], "icon": "https://maps.gstatic.com/mapfiles/place_api/icons/v1/png_71/shopping-71.png"}]}