{"status": "OK", "next_page_token": "AcnaJv0iHuRwrTjkCgnwL7nxaqcwmWg0Ah3ry2JGkYOtw_c8pd7MKobAGe5n3Ykt6tz2NfqZeWu23d3CRUpEJmX1YH-JJz8RvK0O3ncCfnpwqyLzqZr8yeGBgbKjcB8uN6GFsv3BmP3MQiJFS2oQ_KW-xOqNaTGhRKDdIdogkulSCrdyOBuzpGyt8hBLrTernL9OCnln7MGK3LffOIrbI4otLb--j1-PEzfuXoM_DzhqcH8bloowdPcdyG7q4dwuRWROvsIO8YdhKkF6BNNYLywIWK-9bp5gurwkG-ho9bZXZ4LkBP61OROZsOTkIiYaHAccEmV4AK2nkUS3rS0lCO2VaIsDbmD8v2cbt6jQ4JdjWtsswdYRNpn14O4mNRtTODy3w4y47VUSCyRwcLR-O0ghX1XrFI_3phSLIm4pUTLnjDgG7Vhq_vP15pe9RZQ", "html_attributions": [], "results": [{"rating": 3.6, "user_ratings_total": 33, "name": "Apna Bazar", "reference": "ChIJ_____y4DDTkRM0KOxGFT8-0", "geometry": {"location": {"lat": 28.6226665, "lng": 77.1385385}, "viewport": {"northeast": {"lat": 28.6240109302915, "lng": 77.1398707302915}, "southwest": {"lat": 28.62131296970849, "lng": 77.1371727697085}}}, "place_id": "ChIJ_____y4DDTkRM0KOxGFT8-0", "plus_code": {"global_code": "7JWVJ4FQ+3C", "compound_code": "J4FQ+3C New Delhi, Delhi, India"}, "vicinity": "Shop No. WZ-114, Block B, Naraina Village, Naraina, New Delhi", "photos": [{"photo_reference": "CmRaAAAAyJvE24ZXb4N2rMRhNmCVsPGhHkx9qTgVOy6-M7DHOXi0hmyooWGlv9eSt0RltwoaqY9A1w1xGNtJ304W1m2kFB3LszZp5Yq-y1t3KiGVrYBhJa3p7MpC2-7RSohc5-x6EhDMKKtJIYPOuezwEDRU4zTrGhSlNDAABAciTNyi7yW_VFFYo5hv6g", "width": 4160, "html_attributions": ["<a href=\"https://maps.google.com/maps/contrib/100850315007878877014\">aditya Kumar</a>"], "height": 3120}], "scope": "GOOGLE", "business_status": "OPERATIONAL", "types": ["department_store", "food", "point_of_interest", "store", "establishment"], "icon": "https://maps.gstatic.com/mapfiles/place_api/icons/v1/png_71/shopping-71.png"}, {"rating": 3.7, "user_ratings_total": 21, "name": "24SEVEN", "reference": "ChIJ2w9qLSUDDTkRDxLwp4xpbEY", "geometry": {"location": {"lat": 28.6301624, "lng": 77.1372958}, "viewport": {"northeast": {"lat": 28.6314335302915, "lng": 77.1385988802915}, "southwest": {"lat": 28.6287355697085, "lng": 77.13590091970849}}}, "opening_hours": {"open_now": true}, "place_id": "ChIJ2w9qLSUDDTkRDxLwp4xpbEY", "plus_code": {"global_code": "7JWVJ4JP+3W", "compound_code": "J4JP+3W New Delhi, Delhi, India"}, "vicinity": "near Payal Cinema, SN C 190, Gr Flr, near Payal Cinema, Naraina Industrial Area Phase 1, New Delhi", "photos": [{"photo_reference": "CmRaAAAAh6p6oMXdF1tShlhuPZ7ZSLSeObClsvspxIlMLS2SR2eb9W1NRVUN6WaIdgEv8CtBqHPnjCUaEHzISJmYRKFNGQ-0-O_nN0SKEtPSmJYZcIpjB5nwBAZ-8Z2oOxarC033EhDQ0bQQuGczFskrXKMCFFUAGhRaLXClncAw88rgLcoR3OBbE7RIUA", "width": 2448, "html_attributions": ["<a href=\"https://maps.google.com/maps/contrib/112001285710336085316\">vishal mittal</a>"], "height": 3264}], "scope": "GOOGLE", "business_status": "OPERATIONAL", "types": ["convenience_store", "department_store", "bakery", "grocery_or_supermarket", "meal_takeaway", "restaurant", "food", "point_of_interest", "store", "establishment"], "icon": "https://maps.gstatic.com/mapfiles/place_api/icons/v1/png_71/shopping-71.png"}, {"rating": 4.5, "user_ratings_total": 2, "name": "Chandar Kalaa Perfumery Co.", "reference": "ChIJH3kUJCMDDTkRDajzLBM9Ido", "geometry": {"location": {"lat": 28.6354023, "lng": 77.1380219}, "viewport": {"northeast": {"lat": 28.63666003029151, "lng": 77.13936318029151}, "southwest": {"lat": 28.6339620697085, "lng": 77.1366652197085}}}, "opening_hours": {"open_now": true}, "place_id": "ChIJH3kUJCMDDTkRDajzLBM9Ido", "plus_code": {"global_code": "7JWVJ4PQ+56", "compound_code": "J4PQ+56 New Delhi, Delhi, India"}, "vicinity": "House No A-25/3 Chandar,, Munshi Ram Gupta Marg, Industrial Area Phase I, Block A, Naraina Industrial Area Phase 1, Naraina, New Delhi", "scope": "GOOGLE", "business_status": "OPERATIONAL", "types": ["department_store", "point_of_interest", "store", "establishment"], "icon": "https://maps.gstatic.com/mapfiles/place_api/icons/v1/png_71/generic_business-71.png"}, {"name": "Shri Laxmi Store", "reference": "ChIJQ9amga0cDTkRC25cG9MSZ2E", "geometry": {"location": {"lat": 28.61041999999999, "lng": 77.113753}, "viewport": {"northeast": {"lat": 28.6118204802915, "lng": 77.11514043029152}, "southwest": {"lat": 28.6091225197085, "lng": 77.1124424697085}}}, "opening_hours": {"open_now": true}, "place_id": "ChIJQ9amga0cDTkRC25cG9MSZ2E", "plus_code": {"global_code": "7JWVJ467+5G", "compound_code": "J467+5G New Delhi, Delhi, India"}, "vicinity": "WZ-395, Near Delhi Cantonment, Railway Station, Jail Road, Tulsi Ram Bagichi, Nangal Raya, New Delhi", "scope": "GOOGLE", "business_status": "OPERATIONAL", "types": ["department_store", "point_of_interest", "store", "establishment"], "icon": "https://maps.gstatic.com/mapfiles/place_api/icons/v1/png_71/shopping-71.png"}, {"name": "Bindal Store", "reference": "ChIJPX2yIq0cDTkRjBs2s8qbw7Q", "geometry": {"location": {"lat": 28.611868, "lng": 77.111829}, "viewport": {"northeast": {"lat": 28.61322658029151, "lng": 77.11318538029151}, "southwest": {"lat": 28.6105286197085, "lng": 77.11048741970849}}}, "place_id": "ChIJPX2yIq0cDTkRjBs2s8qbw7Q", "plus_code": {"global_code": "7JWVJ466+PP", "compound_code": "J466+PP New Delhi, Delhi, India"}, "vicinity": "258/5, Main Bazaar,, Nangal Raya, New Delhi", "scope": "GOOGLE", "business_status": "OPERATIONAL", "types": ["department_store", "food", "point_of_interest", "store", "establishment"], "icon": "https://maps.gstatic.com/mapfiles/place_api/icons/v1/png_71/shopping-71.png"}, {"rating": 4, "user_ratings_total": 16, "name": "Sushma Gram Udyog", "reference": "ChIJk6wKK78cDTkRLLXykjvLmn0", "geometry": {"location": {"lat": 28.59694, "lng": 77.12289799999999}, "viewport": {"northeast": {"lat": 28.5982610302915, "lng": 77.12431513029149}, "southwest": {"lat": 28.5955630697085, "lng": 77.12161716970849}}}, "opening_hours": {"open_now": true}, "place_id": "ChIJk6wKK78cDTkRLLXykjvLmn0", "plus_code": {"global_code": "7JWVH4WF+Q5", "compound_code": "H4WF+Q5 New Delhi, Delhi, India"}, "vicinity": "1/225,Sardar Bazar ,Oppo.Kirpa School ,Delhi Cantt, Sadar Bazar Road, Sadar Bazaar, Delhi Cantonment, New Delhi", "photos": [{"photo_reference": "CmRaAAAAZzo0FPAB1wJ8lv4oh2vY8B9ByhNwD0q8svkWqYTIWDfmRZThLIV1vkXOWsBmL7RctH9j9YfA9OYzYat36s3i1ykR6MZA2Hlmat2UCJhUt3GfR4d5679_hlm56RqXPgFrEhBsMKiNYdZ2OURysXchoWd7GhTTCI7jkasvQ9hLX-4brMDoTv6o-w", "width": 1500, "html_attributions": ["<a href=\"https://maps.google.com/maps/contrib/102477470016032237299\">Sushma Gram Udyog</a>"], "height": 1500}], "scope": "GOOGLE", "business_status": "OPERATIONAL", "types": ["department_store", "grocery_or_supermarket", "food", "health", "point_of_interest", "store", "establishment"], "icon": "https://maps.gstatic.com/mapfiles/place_api/icons/v1/png_71/shopping-71.png"}, {"rating": 3.7, "user_ratings_total": 345, "name": "Goyalsons Nangal Raya", "reference": "ChIJYbbyIK0cDTkR9EvfRv4_9Jc", "geometry": {"location": {"lat": 28.6129202, "lng": 77.1096081}, "viewport": {"northeast": {"lat": 28.6142666302915, "lng": 77.1109550802915}, "southwest": {"lat": 28.6115686697085, "lng": 77.10825711970848}}}, "opening_hours": {"open_now": true}, "place_id": "ChIJYbbyIK0cDTkR9EvfRv4_9Jc", "plus_code": {"global_code": "7JWVJ475+5R", "compound_code": "J475+5R New Delhi, Delhi, India"}, "vicinity": "2, 1672, Jail Road, Block WZ, Nangal Raya, Janakpuri, New Delhi", "photos": [{"photo_reference": "CmRaAAAAKlvC_H_Lw5pKsW7suJwNqgoAU1Wyiyi9vJ0bL6ox-7GdQ9Raw2U7PYP0HwY_aVKN-hD4-DzIEpnEzuq4v7VP-4T05bPBee-W00AiEg2cV_QvKVOI2sNzL-EpLwVwGuWvEhA6C4tEHrnE1_FhBgv-cH9WGhSpFA-DsZdaG4H7rOqhKMjDYs9kaw", "width": 3120, "html_attributions": ["<a href=\"https://maps.google.com/maps/contrib/103864231698356285164\">Rajeev Chauhan</a>"], "height": 4160}], "scope": "GOOGLE", "business_status": "OPERATIONAL", "types": ["department_store", "shoe_store", "point_of_interest", "clothing_store", "store", "establishment"], "icon": "https://maps.gstatic.com/mapfiles/place_api/icons/v1/png_71/shopping-71.png"}, {"name": "needs", "reference": "ChIJYWTmJzIDDTkRoQOSrij9D9c", "geometry": {"location": {"lat": 28.621133, "lng": 77.1348896}, "viewport": {"northeast": {"lat": 28.6225027802915, "lng": 77.1362116302915}, "southwest": {"lat": 28.6198048197085, "lng": 77.13351366970849}}}, "place_id": "ChIJYWTmJzIDDTkRoQOSrij9D9c", "vicinity": "CB-170, Naraina Ring Road, New Delhi", "scope": "GOOGLE", "business_status": "OPERATIONAL", "types": ["department_store", "point_of_interest", "store", "establishment"], "icon": "https://maps.gstatic.com/mapfiles/place_api/icons/v1/png_71/shopping-71.png"}, {"rating": 3, "user_ratings_total": 1, "name": "dinesh gernal store", "reference": "ChIJPyYj-S0DDTkRNET_vC99jzs", "geometry": {"location": {"lat": 28.6209931, "lng": 77.1372331}, "viewport": {"northeast": {"lat": 28.6223265802915, "lng": 77.1385747802915}, "southwest": {"lat": 28.6196286197085, "lng": 77.1358768197085}}}, "place_id": "ChIJPyYj-S0DDTkRNET_vC99jzs", "plus_code": {"global_code": "7JWVJ4CP+9V", "compound_code": "J4CP+9V New Delhi, Delhi, India"}, "vicinity": "110018, wz-958/959, Street Number 11, Virender Nagar, Tilak Nagar, New Delhi", "scope": "GOOGLE", "business_status": "OPERATIONAL", "types": ["department_store", "point_of_interest", "store", "establishment"], "icon": "https://maps.gstatic.com/mapfiles/place_api/icons/v1/png_71/shopping-71.png"}, {"name": "Niwas General Store", "reference": "ChIJl4TzdPMDDTkRaMfuwp97hXo", "geometry": {"location": {"lat": 28.6208055, "lng": 77.1392018}, "viewport": {"northeast": {"lat": 28.6221825802915, "lng": 77.14053108029151}, "southwest": {"lat": 28.6194846197085, "lng": 77.1378331197085}}}, "opening_hours": {"open_now": true}, "place_id": "ChIJl4TzdPMDDTkRaMfuwp97hXo", "plus_code": {"global_code": "7JWVJ4CQ+8M", "compound_code": "J4CQ+8M Naraina Village, Naraina, New Delhi, Delhi, India"}, "vicinity": "WZ-826, Naraina Village", "photos": [{"photo_reference": "CmRaAAAAI-1yPksd1qrRLkq0ML0VDyzkgVDw1Ebz7qpXeGiROgqfBz5CNE7kzwFUwUk21DXFHAj8wtQvFQmvO-IqUBdA93Z77glckXQzoPy3CGhmivtUdqZqbIEJkKFYj59LhY9tEhCOYZLeDW10uIIc-a7UTbJrGhQt8vAyWXGXH-jv8qJgaaNkXNR5Zg", "width": 4608, "html_attributions": ["<a href=\"https://maps.google.com/maps/contrib/110316971883403532535\">Niwas General Store</a>"], "height": 2240}], "scope": "GOOGLE", "business_status": "OPERATIONAL", "types": ["department_store", "point_of_interest", "store", "establishment"], "icon": "https://maps.gstatic.com/mapfiles/place_api/icons/v1/png_71/shopping-71.png"}, {"name": "Vaibhav Provision Store", "reference": "ChIJtSKuRi4DDTkR5t5zUTOMZLg", "geometry": {"location": {"lat": 28.623396, "lng": 77.138767}, "viewport": {"northeast": {"lat": 28.6247439302915, "lng": 77.14011938029151}, "southwest": {"lat": 28.62204596970849, "lng": 77.13742141970849}}}, "place_id": "ChIJtSKuRi4DDTkR5t5zUTOMZLg", "plus_code": {"global_code": "7JWVJ4FQ+9G", "compound_code": "J4FQ+9G New Delhi, Delhi, India"}, "vicinity": "No: WZ-435, Banbari Lal Marg, Naraina Village, Naraina, New Delhi", "photos": [{"photo_reference": "CmRaAAAAyMdflvyN3xxjDz7zQh8aH8Xe9_UOooCvfBeGDHOpnNpZGvkmB5-yR4qXiL0B-Y-6iGu4C4sLKG_2bG0DWE8NF2y2hzChTUAIZzNJseYBCufPE8aeC68inv3ESPRBggs4EhDVvttX3ukDHxMUVk3jhiPAGhTxfStlAtEYnof8sjU7S0LdxzKGFw", "width": 3200, "html_attributions": ["<a href=\"https://maps.google.com/maps/contrib/103622176124219066203\">vaibhav shukla123</a>"], "height": 1440}], "scope": "GOOGLE", "business_status": "OPERATIONAL", "types": ["department_store", "point_of_interest", "store", "establishment"], "icon": "https://maps.gstatic.com/mapfiles/place_api/icons/v1/png_71/shopping-71.png"}, {"rating": 5, "user_ratings_total": 4, "name": "Gupta Store", "reference": "ChIJa9aA27oDDTkRJ4nDvwddNek", "geometry": {"location": {"lat": 28.623548, "lng": 77.1390847}, "viewport": {"northeast": {"lat": 28.6249037302915, "lng": 77.14046213029151}, "southwest": {"lat": 28.6222057697085, "lng": 77.13776416970849}}}, "opening_hours": {"open_now": true}, "place_id": "ChIJa9aA27oDDTkRJ4nDvwddNek", "plus_code": {"global_code": "7JWVJ4FQ+CJ", "compound_code": "J4FQ+CJ New Delhi, Delhi, India"}, "vicinity": "near Mata Mandir, WZ-119 B, near Mata Mandir, Naraina Village, New Delhi", "scope": "GOOGLE", "business_status": "OPERATIONAL", "types": ["department_store", "point_of_interest", "store", "establishment"], "icon": "https://maps.gstatic.com/mapfiles/place_api/icons/v1/png_71/shopping-71.png"}, {"rating": 4, "user_ratings_total": 23, "name": "SHARMA PATANJALI STORE", "reference": "ChIJj5IBri8DDTkRSLPuKtkoCNY", "geometry": {"location": {"lat": 28.6248594, "lng": 77.13917930000001}, "viewport": {"northeast": {"lat": 28.6261381302915, "lng": 77.1404306802915}, "southwest": {"lat": 28.6234401697085, "lng": 77.1377327197085}}}, "opening_hours": {"open_now": true}, "place_id": "ChIJj5IBri8DDTkRSLPuKtkoCNY", "plus_code": {"global_code": "7JWVJ4FQ+WM", "compound_code": "J4FQ+WM New Delhi, Delhi, India"}, "vicinity": "WZ 299, 430E/1, WHS Block 2, Naraina Village, Naraina, New Delhi", "photos": [{"photo_reference": "CmRaAAAAxlw_vRU194qoIS2zHSpRt4XoQjEj283LQp2JwO4JrjxtVh5oKSyX7M-cDA3rBy3rzirNkE3RGTyAdmiHnh3r_17S4L3rY2IPf2eyxqvImLGEPITyUmZb0UL_o1-pFpzxEhClFrTXU3SCfzFdjM8tcc2WGhQ88uCkQkniZKZf2XTj84mGHLQ0aA", "width": 4160, "html_attributions": ["<a href=\"https://maps.google.com/maps/contrib/106901016412388607819\">Prashant Kumar</a>"], "height": 2340}], "scope": "GOOGLE", "business_status": "OPERATIONAL", "types": ["department_store", "point_of_interest", "store", "establishment"], "icon": "https://maps.gstatic.com/mapfiles/place_api/icons/v1/png_71/shopping-71.png"}, {"rating": 4.7, "user_ratings_total": 3, "name": "Budget Mart", "reference": "ChIJE9nUPLwDDTkRjLOMij6TdTM", "geometry": {"location": {"lat": 28.6248372, "lng": 77.1405419}, "viewport": {"northeast": {"lat": 28.6262075802915, "lng": 77.14182533029151}, "southwest": {"lat": 28.62350961970849, "lng": 77.1391273697085}}}, "place_id": "ChIJE9nUPLwDDTkRjLOMij6TdTM", "plus_code": {"global_code": "7JWVJ4FR+W6", "compound_code": "J4FR+W6 New Delhi, Delhi, India"}, "vicinity": "near Naraina Vihar, WZ-572H Ground Floor, near Naraina Vihar, Naraina Village Road, Club, New Delhi", "photos": [{"photo_reference": "CmRaAAAAhpFF2Iq-oo5-FimPBCVgKGCbPPVGOKVgdap7ZJBB_Ib9AukI5YwuarZEw-JCSnBIZ0Zac2NJLnhaZYXbSrcEeS8JitgEDxLWCQBfRGPRmxQdL8dJ7ZoHQ7erIVzzZ57zEhBIWzF7iiNUT98V0tQ6qX8PGhTcdt2DCeys3cecgzxr7P2t5fRzZQ", "width": 4160, "html_attributions": ["<a href=\"https://maps.google.com/maps/contrib/103183046302925668385\">Rajput Ankit music</a>"], "height": 2340}], "scope": "GOOGLE", "business_status": "OPERATIONAL", "types": ["department_store", "shopping_mall", "point_of_interest", "store", "establishment"], "icon": "https://maps.gstatic.com/mapfiles/place_api/icons/v1/png_71/shopping-71.png"}, {"rating": 2.5, "user_ratings_total": 2, "name": "Birju Store", "reference": "ChIJvXyid0UDDTkRg2kSIGtB7Go", "geometry": {"location": {"lat": 28.62600249999999, "lng": 77.116728}, "viewport": {"northeast": {"lat": 28.6273224802915, "lng": 77.1180762302915}, "southwest": {"lat": 28.6246245197085, "lng": 77.1153782697085}}}, "opening_hours": {"open_now": true}, "place_id": "ChIJvXyid0UDDTkRg2kSIGtB7Go", "plus_code": {"global_code": "7JWVJ4G8+CM", "compound_code": "J4G8+CM New Delhi, Delhi, India"}, "vicinity": "352, Gandhi Market, Nanak Pura, Hari Nagar, New Delhi", "photos": [{"photo_reference": "CmRaAAAAiqu7nZ-5lrZvS9h8FUcwS3mlTNyMaAnTKnCP3fFlNX3CqTOjNViIAEhLsr09Jq1UX4j5s6HiOW9nSWrFpRsYyXR7MgMr2HpoS3VTI0nKPqaeEMzRJdlkR2myVRzxidrrEhD8wjrlP-yzLvUKsgWsEsxyGhRiuOlBcmSTG-ccTOF0pTv1DUE7qQ", "width": 3024, "html_attributions": ["<a href=\"https://maps.google.com/maps/contrib/105231987327582144052\">Jasleen Singh Shanky</a>"], "height": 4032}], "scope": "GOOGLE", "business_status": "OPERATIONAL", "types": ["department_store", "point_of_interest", "store", "establishment"], "icon": "https://maps.gstatic.com/mapfiles/place_api/icons/v1/png_71/shopping-71.png"}, {"rating": 3.7, "user_ratings_total": 7, "name": "LADI BAZAAR", "reference": "ChIJBzPEoUUDDTkRxSQxZD28IY4", "geometry": {"location": {"lat": 28.626725, "lng": 77.1171119}, "viewport": {"northeast": {"lat": 28.6280747302915, "lng": 77.11845848029151}, "southwest": {"lat": 28.6253767697085, "lng": 77.1157605197085}}}, "opening_hours": {"open_now": true}, "place_id": "ChIJBzPEoUUDDTkRxSQxZD28IY4", "plus_code": {"global_code": "7JWVJ4G8+MR", "compound_code": "J4G8+MR New Delhi, Delhi, India"}, "vicinity": "BE-9 Hari Nagar, New Delhi", "scope": "GOOGLE", "business_status": "OPERATIONAL", "types": ["department_store", "point_of_interest", "store", "establishment"], "icon": "https://maps.gstatic.com/mapfiles/place_api/icons/v1/png_71/shopping-71.png"}, {"name": "Jayant Store", "reference": "ChIJ5S57cEUDDTkReeEpS695G2g", "geometry": {"location": {"lat": 28.62591, "lng": 77.116304}, "viewport": {"northeast": {"lat": 28.6272553802915, "lng": 77.11765298029151}, "southwest": {"lat": 28.6245574197085, "lng": 77.1149550197085}}}, "opening_hours": {"open_now": true}, "place_id": "ChIJ5S57cEUDDTkReeEpS695G2g", "plus_code": {"global_code": "7JWVJ4G8+9G", "compound_code": "J4G8+9G New Delhi, Delhi, India"}, "vicinity": "B-353, Gandhi Market, Nanak Pura, Hari Nagar, New Delhi", "scope": "GOOGLE", "business_status": "OPERATIONAL", "types": ["department_store", "point_of_interest", "store", "establishment"], "icon": "https://maps.gstatic.com/mapfiles/place_api/icons/v1/png_71/shopping-71.png"}, {"rating": 3.3, "user_ratings_total": 3, "name": "Shree Durga", "reference": "ChIJEboeRUUDDTkRhtsq1Ed4FrQ", "geometry": {"location": {"lat": 28.625838, "lng": 77.11487799999999}, "viewport": {"northeast": {"lat": 28.6272015802915, "lng": 77.1162271802915}, "southwest": {"lat": 28.6245036197085, "lng": 77.1135292197085}}}, "place_id": "ChIJEboeRUUDDTkRhtsq1Ed4FrQ", "plus_code": {"global_code": "7JWVJ4G7+8X", "compound_code": "J4G7+8X New Delhi, Delhi, India"}, "vicinity": "Nanak Pura, Hari Nagar, New Delhi", "photos": [{"photo_reference": "CmRaAAAAYbPFyWmRzuszsZ_ZSfUYWr-5yc5i4Xo-wV7PYyVNPAjsV30L64KUAhrwMMi017PXvTk2rCyCrRp4fUZKmteEkjdxsPPaqz6lc7r8uMZePfwdM35WdrL3n1BI0hP5kKneEhC7okiwMnZEEalOxTFfgpT1GhRq3tQ81JEuYJZuSDpHGEKtLu-LvQ", "width": 3264, "html_attributions": ["<a href=\"https://maps.google.com/maps/contrib/100399046173655495405\">Sant Chhabra</a>"], "height": 1836}], "scope": "GOOGLE", "business_status": "OPERATIONAL", "types": ["department_store", "point_of_interest", "store", "establishment"], "icon": "https://maps.gstatic.com/mapfiles/place_api/icons/v1/png_71/shopping-71.png"}, {"rating": 2, "user_ratings_total": 2, "name": "Super Bazar The Co Operative Store Limited", "reference": "ChIJEXM0mCQDDTkRVRbFjzomb1w", "geometry": {"location": {"lat": 28.632391, "lng": 77.138648}, "viewport": {"northeast": {"lat": 28.6336892302915, "lng": 77.14011833029151}, "southwest": {"lat": 28.6309912697085, "lng": 77.13742036970851}}}, "place_id": "ChIJEXM0mCQDDTkRVRbFjzomb1w", "plus_code": {"global_code": "7JWVJ4JQ+XF", "compound_code": "J4JQ+XF New Delhi, Delhi, India"}, "vicinity": "Goswami Girdhari Lal Marg, Industrial Area Phase I, Block C, Naraina Industrial Area Phase 1, Naraina, New Delhi", "scope": "GOOGLE", "business_status": "OPERATIONAL", "types": ["department_store", "point_of_interest", "store", "establishment"], "icon": "https://maps.gstatic.com/mapfiles/place_api/icons/v1/png_71/shopping-71.png"}, {"rating": 5, "user_ratings_total": 1, "name": "Suman Business Center", "reference": "ChIJDa6xT0UDDTkR7hwClRQDRgs", "geometry": {"location": {"lat": 28.625826, "lng": 77.11457}, "viewport": {"northeast": {"lat": 28.6272045802915, "lng": 77.1159193802915}, "southwest": {"lat": 28.62450661970849, "lng": 77.1132214197085}}}, "opening_hours": {"open_now": true}, "place_id": "ChIJDa6xT0UDDTkR7hwClRQDRgs", "plus_code": {"global_code": "7JWVJ4G7+8R", "compound_code": "J4G7+8R New Delhi, Delhi, India"}, "vicinity": "Nanak Pura, Hari Nagar, New Delhi", "scope": "GOOGLE", "business_status": "OPERATIONAL", "types": ["department_store", "point_of_interest", "store", "establishment"], "icon": "https://maps.gstatic.com/mapfiles/place_api/icons/v1/png_71/shopping-71.png"}]}