{"status": "OK", "html_attributions": [], "results": [{"rating": 5, "user_ratings_total": 1, "name": "Ahlawat clinic", "reference": "ChIJhS8MOsELDTkR94qW3ewRHnI", "geometry": {"location": {"lat": 28.7025227, "lng": 76.9099133}, "viewport": {"northeast": {"lat": 28.70382033029149, "lng": 76.9112273802915}, "southwest": {"lat": 28.7011223697085, "lng": 76.9085294197085}}}, "opening_hours": {"open_now": true}, "place_id": "ChIJhS8MOsELDTkR94qW3ewRHnI", "plus_code": {"global_code": "7JWRPW35+2X", "compound_code": "PW35+2X Bahadurgarh, India"}, "vicinity": "Opposite to SBI BANK, Nh 10 , Sankhol, Bahadurgarh", "scope": "GOOGLE", "business_status": "OPERATIONAL", "types": ["doctor", "health", "point_of_interest", "establishment"], "icon": "https://maps.gstatic.com/mapfiles/place_api/icons/v1/png_71/generic_business-71.png"}, {"rating": 5, "user_ratings_total": 2, "name": "Rathee's Avenue", "reference": "ChIJ7dLevPILDTkRaT3uk-kV0PA", "geometry": {"location": {"lat": 28.70207109999999, "lng": 76.91106359999999}, "viewport": {"northeast": {"lat": 28.7034106302915, "lng": 76.91243183029151}, "southwest": {"lat": 28.7007126697085, "lng": 76.90973386970849}}}, "place_id": "ChIJ7dLevPILDTkRaT3uk-kV0PA", "plus_code": {"global_code": "7JWRPW26+RC", "compound_code": "PW26+RC Sankhol, Haryana, India"}, "vicinity": "Sankhol", "photos": [{"photo_reference": "ATtYBwI66KH2XjH3QZ32BMTwiuquY4uodXrK4OCB61ebKWFcChqxaAaQc0vGPfGQg_lLOio8u2NWhtGindggW2YGVSYXJnSba-3067go4OnCUQloKFF5zMjBauzSDMjaKodUoMehITellXq9GphaYvDnKEp80oOBnARQuKWEk0OYF-x8OENN", "width": 318, "html_attributions": ["<a href=\"https://maps.google.com/maps/contrib/110004876438252572971\">tarun rathie</a>"], "height": 480}], "scope": "GOOGLE", "business_status": "OPERATIONAL", "types": ["doctor", "health", "point_of_interest", "establishment"], "icon": "https://maps.gstatic.com/mapfiles/place_api/icons/v1/png_71/generic_business-71.png"}, {"name": "Shree Clinic", "reference": "ChIJ5ygBJHoLDTkR7jZnuWi9lJE", "geometry": {"location": {"lat": 28.7004832, "lng": 76.904731}, "viewport": {"northeast": {"lat": 28.7018321802915, "lng": 76.90607998029151}, "southwest": {"lat": 28.6991342197085, "lng": 76.9033820197085}}}, "opening_hours": {"open_now": true}, "place_id": "ChIJ5ygBJHoLDTkR7jZnuWi9lJE", "plus_code": {"global_code": "7JWRPW23+5V", "compound_code": "PW23+5V Bahadurgarh, India"}, "vicinity": "near shri ganesh properties, 66 futaa road, Patel Nagar, Bahadurgarh", "scope": "GOOGLE", "business_status": "OPERATIONAL", "types": ["doctor", "health", "point_of_interest", "establishment"], "icon": "https://maps.gstatic.com/mapfiles/place_api/icons/v1/png_71/generic_business-71.png"}]}