{"status": "OK", "html_attributions": [], "results": [{"name": "Life aid Path Labs", "reference": "ChIJyz4eveYbDTkRtLojxEb4q3w", "geometry": {"location": {"lat": 28.5258635, "lng": 77.0844032}, "viewport": {"northeast": {"lat": 28.5272358302915, "lng": 77.08576173029151}, "southwest": {"lat": 28.52453786970849, "lng": 77.0830637697085}}}, "opening_hours": {"open_now": true}, "place_id": "ChIJyz4eveYbDTkRtLojxEb4q3w", "plus_code": {"global_code": "7JWVG3GM+8Q", "compound_code": "G3GM+8Q New Delhi, Delhi, India"}, "vicinity": "Khasra No. 685 , Near State Bank Of India , Main Road, Gali Number 9, Kapas Hera Extension, Kapas Hera, New Delhi", "scope": "GOOGLE", "business_status": "OPERATIONAL", "types": ["doctor", "health", "point_of_interest", "establishment"], "icon": "https://maps.gstatic.com/mapfiles/place_api/icons/v1/png_71/generic_business-71.png"}, {"name": "Dr Deepak Assudani", "reference": "ChIJLe7-EssbDTkR1ECxWPYoTVs", "geometry": {"location": {"lat": 28.52955, "lng": 77.085784}, "viewport": {"northeast": {"lat": 28.5309533302915, "lng": 77.0870707802915}, "southwest": {"lat": 28.5282553697085, "lng": 77.08437281970849}}}, "place_id": "ChIJLe7-EssbDTkR1ECxWPYoTVs", "plus_code": {"global_code": "7JWVG3HP+R8", "compound_code": "G3HP+R8 Gurugram, Haryana, India"}, "vicinity": "J 1018, Palam Vihar, Gurugram", "scope": "GOOGLE", "business_status": "OPERATIONAL", "types": ["doctor", "health", "point_of_interest", "establishment"], "icon": "https://maps.gstatic.com/mapfiles/place_api/icons/v1/png_71/generic_business-71.png"}, {"rating": 5, "user_ratings_total": 13, "name": "illume Skin & Hair Clinic- Skin Clinic in Kapashera", "reference": "ChIJo6UxhfwbDTkRdB_VDRlgX8E", "geometry": {"location": {"lat": 28.5273618, "lng": 77.08533419999999}, "viewport": {"northeast": {"lat": 28.5286774302915, "lng": 77.0866825802915}, "southwest": {"lat": 28.5259794697085, "lng": 77.08398461970849}}}, "opening_hours": {"open_now": false}, "place_id": "ChIJo6UxhfwbDTkRdB_VDRlgX8E", "plus_code": {"global_code": "7JWVG3GP+W4", "compound_code": "G3GP+W4 New Delhi, Delhi, India"}, "vicinity": "Westend Plaza, UG-19, opp. Amarai Farms, Gurugram Road, Kapas Hera, New Delhi", "photos": [{"photo_reference": "ATtYBwKCvTI7WYirgp4OpU4N4X-odwYIxJTE3XZpqisNjyntnAJHkEGy4c98O6vWstmhIsgQEIZavDXT_AICW6UIqBTpnScb3fMKdSKZ1qk_g7nG7MiFwPTjpnOGRjz37TNKA7zYu-n0Af9BUAwEolq0CTaUMGQfPwwPLTBliftvOeKhTw3P", "width": 1280, "html_attributions": ["<a href=\"https://maps.google.com/maps/contrib/113683968672098603562\">illume Skin &amp; Hair Clinic- Skin Clinic in Kapashera</a>"], "height": 960}], "scope": "GOOGLE", "business_status": "OPERATIONAL", "types": ["doctor", "health", "point_of_interest", "establishment"], "icon": "https://maps.gstatic.com/mapfiles/place_api/icons/v1/png_71/generic_business-71.png"}, {"rating": 4.2, "user_ratings_total": 5, "name": "Gaurav Bhargava bhargava eye care", "reference": "ChIJOTfPguYbDTkRmFEnm26LtwE", "geometry": {"location": {"lat": 28.526855, "lng": 77.085111}, "viewport": {"northeast": {"lat": 28.5281109802915, "lng": 77.0863985302915}, "southwest": {"lat": 28.5254130197085, "lng": 77.08370056970848}}}, "opening_hours": {"open_now": true}, "place_id": "ChIJOTfPguYbDTkRmFEnm26LtwE", "plus_code": {"global_code": "7JWVG3GP+P2", "compound_code": "G3GP+P2 New Delhi, Delhi, India"}, "vicinity": "Raj Singh Complex, Kapas Hera, New Delhi", "scope": "GOOGLE", "business_status": "OPERATIONAL", "types": ["doctor", "health", "point_of_interest", "establishment"], "icon": "https://maps.gstatic.com/mapfiles/place_api/icons/v1/png_71/generic_business-71.png"}, {"rating": 4.5, "user_ratings_total": 39, "name": "Shree Shyam Multi Speciality Clinic", "reference": "ChIJr-4RK-QbDTkRIKifj5_O0Cg", "geometry": {"location": {"lat": 28.5275369, "lng": 77.085617}, "viewport": {"northeast": {"lat": 28.5288673302915, "lng": 77.08696518029151}, "southwest": {"lat": 28.52616936970849, "lng": 77.0842672197085}}}, "opening_hours": {"open_now": true}, "place_id": "ChIJr-4RK-QbDTkRIKifj5_O0Cg", "plus_code": {"global_code": "7JWVG3HP+26", "compound_code": "G3HP+26 New Delhi, Delhi, India"}, "vicinity": "near Veer Public School, Office - 6 , Western Plaza, near Veer Public School, Kapas Hera, New Delhi", "photos": [{"photo_reference": "ATtYBwKiGaUyngNesrgTZuEEfcCFQHRqYp2ZYfhvtXl_PFGUJ7Zeib6EF9mMLOQ5Z7qhDRfNlETAG-jYNK7VzJGpiVArtqd4o-YlgVGb3OFWDrNfFQZc4-QPHWKN8dN31fStP5xNszKYE1dbFEWiW3p-AJ1TB46MeRSdbM2KN1CRMDvfQ4Ji", "width": 5472, "html_attributions": ["<a href=\"https://maps.google.com/maps/contrib/110406369486743509615\">Shree Shyam Multi Speciality Clinic</a>"], "height": 3648}], "scope": "GOOGLE", "business_status": "OPERATIONAL", "types": ["beauty_salon", "hair_care", "doctor", "health", "point_of_interest", "establishment"], "icon": "https://maps.gstatic.com/mapfiles/place_api/icons/v1/png_71/generic_business-71.png"}, {"name": "Alam Medicos", "reference": "ChIJ4YXpFiEbDTkR-3-mxRhJOWk", "geometry": {"location": {"lat": 28.524262, "lng": 77.07876999999999}, "viewport": {"northeast": {"lat": 28.5256109802915, "lng": 77.0801189802915}, "southwest": {"lat": 28.5229130197085, "lng": 77.0774210197085}}}, "place_id": "ChIJ4YXpFiEbDTkR-3-mxRhJOWk", "plus_code": {"global_code": "7JWVG3FH+PG", "compound_code": "G3FH+PG New Delhi, Delhi, India"}, "vicinity": "Alam medicos gali no 8, Kapas Hera, New Delhi", "scope": "GOOGLE", "business_status": "OPERATIONAL", "types": ["doctor", "health", "point_of_interest", "establishment"], "icon": "https://maps.gstatic.com/mapfiles/place_api/icons/v1/png_71/generic_business-71.png"}, {"rating": 5, "user_ratings_total": 3, "name": "NALANDA HOMEOPATHIC CLINIC", "reference": "ChIJG8L54d0bDTkRCkKQqrP80nE", "geometry": {"location": {"lat": 28.5240585, "lng": 77.0783747}, "viewport": {"northeast": {"lat": 28.5253720802915, "lng": 77.07980818029151}, "southwest": {"lat": 28.5226741197085, "lng": 77.07711021970849}}}, "opening_hours": {"open_now": false}, "place_id": "ChIJG8L54d0bDTkRCkKQqrP80nE", "plus_code": {"global_code": "7JWVG3FH+J8", "compound_code": "G3FH+J8 New Delhi, Delhi, India"}, "vicinity": "11, Radha Krishna Mandir Road, Kapas Hera Extension, Kapas Hera, New Delhi", "scope": "GOOGLE", "business_status": "OPERATIONAL", "types": ["doctor", "health", "point_of_interest", "establishment"], "icon": "https://maps.gstatic.com/mapfiles/place_api/icons/v1/png_71/generic_business-71.png"}, {"name": "Dr. Vishvash", "reference": "ChIJC8RI0uAbDTkRar7FHm88MqM", "geometry": {"location": {"lat": 28.524094, "lng": 77.081771}, "viewport": {"northeast": {"lat": 28.5254337802915, "lng": 77.0831196802915}, "southwest": {"lat": 28.5227358197085, "lng": 77.0804217197085}}}, "place_id": "ChIJC8RI0uAbDTkRar7FHm88MqM", "plus_code": {"global_code": "7JWVG3FJ+JP", "compound_code": "G3FJ+JP New Delhi, Delhi, India"}, "vicinity": "Opposite Fun N Food Village, Gali Number 1, Kapas Hera, New Delhi", "scope": "GOOGLE", "business_status": "OPERATIONAL", "types": ["doctor", "health", "point_of_interest", "establishment"], "icon": "https://maps.gstatic.com/mapfiles/place_api/icons/v1/png_71/generic_business-71.png"}, {"rating": 2, "user_ratings_total": 1, "name": "Dr Rajeev Seth", "reference": "ChIJBdofAc4bDTkR9kaNlLlTEbQ", "geometry": {"location": {"lat": 28.536461, "lng": 77.079611}, "viewport": {"northeast": {"lat": 28.5378096802915, "lng": 77.0807178802915}, "southwest": {"lat": 28.5351117197085, "lng": 77.0780199197085}}}, "place_id": "ChIJBdofAc4bDTkR9kaNlLlTEbQ", "plus_code": {"global_code": "7JWVG3PH+HR", "compound_code": "G3PH+HR New Delhi, Delhi, India"}, "vicinity": "E 10, Green Park, New Delhi", "scope": "GOOGLE", "business_status": "OPERATIONAL", "types": ["doctor", "health", "point_of_interest", "establishment"], "icon": "https://maps.gstatic.com/mapfiles/place_api/icons/v1/png_71/generic_business-71.png"}, {"name": "Shri Balaji Clinic", "reference": "ChIJUR-TA-EbDTkRG1ntdCJ56I0", "geometry": {"location": {"lat": 28.5220152, "lng": 77.08265039999999}, "viewport": {"northeast": {"lat": 28.5233943302915, "lng": 77.0839103802915}, "southwest": {"lat": 28.5206963697085, "lng": 77.08121241970849}}}, "place_id": "ChIJUR-TA-EbDTkRG1ntdCJ56I0", "plus_code": {"global_code": "7JWVG3CM+R3", "compound_code": "G3CM+R3 New Delhi, Delhi, India"}, "vicinity": "Old Delhi Gurgaon Road, Kapas Hera Estate, New Delhi", "scope": "GOOGLE", "business_status": "OPERATIONAL", "types": ["doctor", "health", "point_of_interest", "establishment"], "icon": "https://maps.gstatic.com/mapfiles/place_api/icons/v1/png_71/generic_business-71.png"}, {"rating": 5, "user_ratings_total": 8, "name": "Family Seva Sadan", "reference": "ChIJH2PDrGIbDTkRk24UGb2p6s4", "geometry": {"location": {"lat": 28.5326116, "lng": 77.0909216}, "viewport": {"northeast": {"lat": 28.5339805802915, "lng": 77.0922880302915}, "southwest": {"lat": 28.5312826197085, "lng": 77.08959006970849}}}, "opening_hours": {"open_now": true}, "place_id": "ChIJH2PDrGIbDTkRk24UGb2p6s4", "plus_code": {"global_code": "7JWVG3MR+29", "compound_code": "G3MR+29 New Delhi, Delhi, India"}, "vicinity": "Near gayatri public school, Telephone Exchange Road, Samalka, New Delhi", "photos": [{"photo_reference": "ATtYBwI-EL4PwUaVTxO4Gpb0_gcdQzNbUvtwAqiDym90Jo4NTax7S_GAOJgqhkh4D6Qbh7ibhYRpLDlTfgBAdrMdL5a6Bzle5gFwSmNEZu2a8nSj1fc7MBSllAt2k5740VdfLF9hcLczB5lGLGDAUZG4t6z_mDsE1lTGOfJPOh6-39Sj17O8", "width": 3432, "html_attributions": ["<a href=\"https://maps.google.com/maps/contrib/114063968504062833513\">Family Seva Sadan</a>"], "height": 1016}], "scope": "GOOGLE", "business_status": "OPERATIONAL", "types": ["hospital", "doctor", "health", "point_of_interest", "establishment"], "icon": "https://maps.gstatic.com/mapfiles/place_api/icons/v1/png_71/hospital-71.png"}, {"rating": 5, "user_ratings_total": 4, "name": "Gopal Mandir", "reference": "ChIJ1fed4PUbDTkR1Th_3wwcbLM", "geometry": {"location": {"lat": 28.5202816, "lng": 77.07195399999999}, "viewport": {"northeast": {"lat": 28.5216423802915, "lng": 77.0732660302915}, "southwest": {"lat": 28.5189444197085, "lng": 77.0705680697085}}}, "place_id": "ChIJ1fed4PUbDTkR1Th_3wwcbLM", "plus_code": {"global_code": "7JWVG3CC+4Q", "compound_code": "G3CC+4Q Gurugram, Haryana, India"}, "vicinity": "near Sector 21, Gurugram", "scope": "GOOGLE", "business_status": "OPERATIONAL", "types": ["doctor", "health", "point_of_interest", "establishment"], "icon": "https://maps.gstatic.com/mapfiles/place_api/icons/v1/png_71/generic_business-71.png"}]}