{"status": "OK", "html_attributions": [], "results": [{"rating": 5, "user_ratings_total": 1, "name": "Atelier Aesthetics - Super-Speciality Cosmetic Clinic", "reference": "ChIJBfwECDMCDTkRZI7z5DOZM1I", "geometry": {"location": {"lat": 28.69950699999999, "lng": 77.138109}, "viewport": {"northeast": {"lat": 28.70081488029149, "lng": 77.1394290802915}, "southwest": {"lat": 28.69811691970849, "lng": 77.1367311197085}}}, "opening_hours": {"open_now": true}, "place_id": "ChIJBfwECDMCDTkRZI7z5DOZM1I", "plus_code": {"global_code": "7JWVM4XQ+R6", "compound_code": "M4XQ+R6 Delhi, India"}, "vicinity": "Lala Jagat Narayan Marg, Vaishali, Dakshini Pitampura, Pitampura, Delhi", "photos": [{"photo_reference": "ATtYBwIz8AItebtDIYjAV0uOmo07p21dKgSImfrqqqmG7qUA521gzUsFsoK6h48uBofBzbKMi-zkzFFXhsaqeWM7vgnT0bBDd4EZ_-858dEzSuXcff7bSouPqF9TNfiobVfgpCMmJd6AZEs2x4osuxbke7nrmOhBjyXv3Hu_gjB_gwuHqH3e", "width": 768, "html_attributions": ["<a href=\"https://maps.google.com/maps/contrib/109933027303076369815\">Vinayak Garg</a>"], "height": 1024}], "scope": "GOOGLE", "business_status": "OPERATIONAL", "types": ["hospital", "doctor", "health", "point_of_interest", "establishment"], "icon": "https://maps.gstatic.com/mapfiles/place_api/icons/v1/png_71/hospital-71.png"}, {"rating": 2.7, "user_ratings_total": 14, "name": "Dr Inder Mohan Chugh", "reference": "ChIJL6Mtn9QDDTkRjZnRBd-2E-c", "geometry": {"location": {"lat": 28.7043313, "lng": 77.14995449999999}, "viewport": {"northeast": {"lat": 28.7056819302915, "lng": 77.15130138029151}, "southwest": {"lat": 28.7029839697085, "lng": 77.1486034197085}}}, "place_id": "ChIJL6Mtn9QDDTkRjZnRBd-2E-c", "plus_code": {"global_code": "7JWVP43X+PX", "compound_code": "P43X+PX Delhi, India"}, "vicinity": "Shop No: 11, J P Market, Poorvi Pitampura, Pitampura, North West Delhi, Delhi", "scope": "GOOGLE", "business_status": "OPERATIONAL", "types": ["doctor", "health", "point_of_interest", "establishment"], "icon": "https://maps.gstatic.com/mapfiles/place_api/icons/v1/png_71/generic_business-71.png"}, {"rating": 4.1, "user_ratings_total": 49, "name": "Dr Rajiv Arora, Sexologist Delhi, Best Sexologist In Delhi, Sexologist Doctor, Impotence, Infertility Specialist", "reference": "ChIJAQAAfNoDDTkRq9CZYlp98tg", "geometry": {"location": {"lat": 28.7002052, "lng": 77.13613970000002}, "viewport": {"northeast": {"lat": 28.70155013029149, "lng": 77.13751218029152}, "southwest": {"lat": 28.69885216970849, "lng": 77.1348142197085}}}, "opening_hours": {"open_now": true}, "place_id": "ChIJAQAAfNoDDTkRq9CZYlp98tg", "plus_code": {"global_code": "7JWVP42P+3F", "compound_code": "P42P+3F Delhi, India"}, "vicinity": "opp. Pillar No. 356, 161, opp. Pillar No. 356, Kapil Vihar, Pitam Pura, Delhi", "photos": [{"photo_reference": "ATtYBwJCfqVO42ORgNBRNmqmiLmVtyJ9V7iCiCCdykyOpnDuyIVS1k7-vlK0m3shcDq-rTIiR0Uz3uvTeEDGmObMCLgoYsBpsNTLC_k0Z990hs0X7HRcLi3LIuULw2krVzo5BzTc5e4X6UpbOqbELlP0LPdZB2UygoXw6EHGqeXaXTyiAKM2", "width": 489, "html_attributions": ["<a href=\"https://maps.google.com/maps/contrib/111542573354660942670\">Dr Rajiv Arora, Sexologist Delhi, Best Sexologist In Delhi, Sexologist Doctor, Impotence, Infertility Specialist</a>"], "height": 338}], "scope": "GOOGLE", "business_status": "OPERATIONAL", "types": ["doctor", "health", "point_of_interest", "establishment"], "icon": "https://maps.gstatic.com/mapfiles/place_api/icons/v1/png_71/generic_business-71.png"}, {"rating": 4.7, "user_ratings_total": 18, "name": "Cosmetic, Plastic Surgery, Male Breast Reduction, Rhinoplasty, Tummy Tuck in Delhi: Tandon Clinic", "reference": "ChIJPYxOId8DDTkR0n5CDBISqrY", "geometry": {"location": {"lat": 28.704216, "lng": 77.130191}, "viewport": {"northeast": {"lat": 28.7055918802915, "lng": 77.1315002802915}, "southwest": {"lat": 28.7028939197085, "lng": 77.1288023197085}}}, "opening_hours": {"open_now": false}, "place_id": "ChIJPYxOId8DDTkR0n5CDBISqrY", "plus_code": {"global_code": "7JWVP43J+M3", "compound_code": "P43J+M3 New Delhi, Delhi, India"}, "vicinity": "Pocket 1, C-599/8, Bhagawan Mahavir Marg, Sector 8C, Rohini, New Delhi", "photos": [{"photo_reference": "ATtYBwJdTKLouIqAbvgmK-omc02o0PMCB5H7wdSqbv4U3TtCX0qPlnbckpchjiqZJL7E9DbqAljdzieqvUtZ0KwQYg2uRI3lXxx_F9DB-8_BGlLyDh7cY-psf-YJYBGy-7o4C3VQKKthisoIbHKp_7RbeIYp-mDymdYMdf5-OIItEXy4yeWX", "width": 2592, "html_attributions": ["<a href=\"https://maps.google.com/maps/contrib/110352339033704521386\">Cosmetic, Plastic Surgery, Male Breast Reduction, Rhinoplasty, Tummy Tuck in Delhi: Tandon Clinic</a>"], "height": 1944}], "scope": "GOOGLE", "business_status": "OPERATIONAL", "types": ["beauty_salon", "hair_care", "doctor", "dentist", "health", "point_of_interest", "establishment"], "icon": "https://maps.gstatic.com/mapfiles/place_api/icons/v1/png_71/generic_business-71.png"}, {"rating": 4.8, "user_ratings_total": 50, "name": "Sareen Hair Clinic", "reference": "ChIJ7-W6EtoDDTkRxBTz0_QjZ8M", "geometry": {"location": {"lat": 28.7000741, "lng": 77.1362257}, "viewport": {"northeast": {"lat": 28.7014621302915, "lng": 77.13760928029149}, "southwest": {"lat": 28.6987641697085, "lng": 77.13491131970848}}}, "opening_hours": {"open_now": true}, "place_id": "ChIJ7-W6EtoDDTkRxBTz0_QjZ8M", "plus_code": {"global_code": "7JWVP42P+2F", "compound_code": "P42P+2F New Delhi, Delhi, India"}, "vicinity": "159, No 355, Kapil Vihar, Pitam Pura, New Delhi", "photos": [{"photo_reference": "ATtYBwJBvICc7mD8F433HbhkCG7z4H1qTA6V4T9f9jxFrjkU15ZGE-PMdHAJ-e_afUn9hE8DweOeGpVDzb077TGoasgmVE6mLyVVMoTNq87gytgl6aJqh4hogT80pfYmNWyd5zAeJjN4yyi6xUaqAfwJwzWrI0wIf5kVxuElvh7EHm7D51So", "width": 960, "html_attributions": ["<a href=\"https://maps.google.com/maps/contrib/115245405595028950929\">Sareen Hair Clinic</a>"], "height": 1184}], "scope": "GOOGLE", "business_status": "OPERATIONAL", "types": ["beauty_salon", "hair_care", "doctor", "health", "point_of_interest", "establishment"], "icon": "https://maps.gstatic.com/mapfiles/place_api/icons/v1/png_71/generic_business-71.png"}, {"rating": 3.9, "user_ratings_total": 26, "name": "The Neurology Clinic", "reference": "ChIJ92MTJN8DDTkRQCUp6WxXI1k", "geometry": {"location": {"lat": 28.70454539999999, "lng": 77.1295313}, "viewport": {"northeast": {"lat": 28.7058826302915, "lng": 77.13090198029151}, "southwest": {"lat": 28.7031846697085, "lng": 77.12820401970849}}}, "opening_hours": {"open_now": false}, "place_id": "ChIJ92MTJN8DDTkRQCUp6WxXI1k", "plus_code": {"global_code": "7JWVP43H+RR", "compound_code": "P43H+RR New Delhi, Delhi, India"}, "vicinity": "388,pocket, c-8, Bhagawan Mahavir Marg, Sector 8C, Rohini, New Delhi", "photos": [{"photo_reference": "ATtYBwIRZ4_uiUV7GL753y1Huzh15lYPu5GiwJg_gfJ6wxyPm2RfC41If9E9am9i9vH0zgyqcIw44aTXr9oWDnq_unYrn-BItlC4LNcMAQd27YWmlSk6yWkyaJXvhKQwRb-rf21Pi7fNKoe2ImiRll381DtxdQgmYTaxogp5QPFXYDNuk8bK", "width": 5184, "html_attributions": ["<a href=\"https://maps.google.com/maps/contrib/113099982358029224465\">1neclick Online Pvt Ltd</a>"], "height": 3456}], "scope": "GOOGLE", "business_status": "OPERATIONAL", "types": ["doctor", "health", "point_of_interest", "establishment"], "icon": "https://maps.gstatic.com/mapfiles/place_api/icons/v1/png_71/generic_business-71.png"}, {"rating": 4.4, "user_ratings_total": 11, "name": "Bio Diagnostics", "reference": "ChIJZ_PNDN8DDTkRCs9PABjkkN4", "geometry": {"location": {"lat": 28.7049768, "lng": 77.12885229999999}, "viewport": {"northeast": {"lat": 28.7063475302915, "lng": 77.1301697302915}, "southwest": {"lat": 28.7036495697085, "lng": 77.12747176970849}}}, "opening_hours": {"open_now": true}, "place_id": "ChIJZ_PNDN8DDTkRCs9PABjkkN4", "plus_code": {"global_code": "7JWVP43H+XG", "compound_code": "P43H+XG New Delhi, Delhi, India"}, "vicinity": "C-8/337, Sector-8, Near Madhuban Chowk, Rohini, New Delhi", "photos": [{"photo_reference": "ATtYBwKPdl2xH-SipYzU_hEjhHMqspXZIrSJKBgqsBXYxf4lXUPCPelJekUILhi65O9PpC0XdWg68aIPLSw3qJM137MzrJsXLAyVxluI6Duq8DkPSQTKk1S5lU2y-5nWUxAt9o4R5N_qeJBdcK8ZXby5uGijnQw5D1GL5l0OScbrFHX5xYt3", "width": 2048, "html_attributions": ["<a href=\"https://maps.google.com/maps/contrib/107003387487236783815\">Bio Diagnostics</a>"], "height": 1362}], "scope": "GOOGLE", "business_status": "OPERATIONAL", "types": ["doctor", "health", "point_of_interest", "establishment"], "icon": "https://maps.gstatic.com/mapfiles/place_api/icons/v1/png_71/generic_business-71.png"}, {"rating": 4.8, "user_ratings_total": 6, "name": "Shalya Clinic", "reference": "ChIJ_WfBqd8DDTkRGGfkPOZAmmw", "geometry": {"location": {"lat": 28.7050432, "lng": 77.12896169999999}, "viewport": {"northeast": {"lat": 28.7064245802915, "lng": 77.1302636802915}, "southwest": {"lat": 28.7037266197085, "lng": 77.1275657197085}}}, "opening_hours": {"open_now": false}, "place_id": "ChIJ_WfBqd8DDTkRGGfkPOZAmmw", "plus_code": {"global_code": "7JWVP44H+2H", "compound_code": "P44H+2H Delhi, India"}, "vicinity": "Metro Pillar Number 378, C-8, 340, Rohini, Pocket C - 8, Pocket, Opposite, 8, Sector 8, Delhi", "scope": "GOOGLE", "business_status": "OPERATIONAL", "types": ["doctor", "health", "point_of_interest", "establishment"], "icon": "https://maps.gstatic.com/mapfiles/place_api/icons/v1/png_71/generic_business-71.png"}, {"rating": 1, "user_ratings_total": 1, "name": "SRL Laboratories", "reference": "ChIJr7N5c98DDTkRxB8EiLEd3Zs", "geometry": {"location": {"lat": 28.7053208, "lng": 77.1287735}, "viewport": {"northeast": {"lat": 28.7066951302915, "lng": 77.1301456802915}, "southwest": {"lat": 28.7039971697085, "lng": 77.12744771970848}}}, "opening_hours": {"open_now": true}, "place_id": "ChIJr7N5c98DDTkRxB8EiLEd3Zs", "plus_code": {"global_code": "7JWVP44H+4G", "compound_code": "P44H+4G Delhi, India"}, "vicinity": "C-9-17, C Block Road, Pocket 9, Sector 8C, Rohini, Delhi", "scope": "GOOGLE", "business_status": "OPERATIONAL", "types": ["doctor", "health", "point_of_interest", "establishment"], "icon": "https://maps.gstatic.com/mapfiles/place_api/icons/v1/png_71/generic_business-71.png"}, {"rating": 4.9, "user_ratings_total": 83, "name": "Clove Dental", "reference": "ChIJHwe-99ADDTkR5Z9kbREFBks", "geometry": {"location": {"lat": 28.699099, "lng": 77.139077}, "viewport": {"northeast": {"lat": 28.70044423029151, "lng": 77.1404301802915}, "southwest": {"lat": 28.69774626970851, "lng": 77.1377322197085}}}, "opening_hours": {"open_now": true}, "place_id": "ChIJHwe-99ADDTkR5Z9kbREFBks", "plus_code": {"global_code": "7JWVM4XQ+JJ", "compound_code": "M4XQ+JJ Delhi, India"}, "vicinity": "No 5, First Floor, Above Dominos, Pocket KD Market, Pitampura, Delhi", "photos": [{"photo_reference": "ATtYBwJYuNTrpVIZLSd8yjJ95i9ceqb8mD3An9aZhfvcmjfpUZyxGpdG1EHv14ONAsUOSjvBixwPXozKaizatmqZOn1k8-V4NsXGGyxl9Edl-p995SghAd5kSEIFBFvUGj5vYRS_SI37DOeyNLt3GHxhewr2VDkkEBp_xgTFlx3U5VteYPUE", "width": 820, "html_attributions": ["<a href=\"https://maps.google.com/maps/contrib/115174146457048218831\">Clove Dental</a>"], "height": 312}], "scope": "GOOGLE", "business_status": "OPERATIONAL", "types": ["doctor", "dentist", "health", "point_of_interest", "establishment"], "icon": "https://maps.gstatic.com/mapfiles/place_api/icons/v1/png_71/generic_business-71.png"}, {"rating": 3.2, "user_ratings_total": 21, "name": "The Heart Centre", "reference": "ChIJC8TTct8DDTkRCGHX7qknOW4", "geometry": {"location": {"lat": 28.7048423, "lng": 77.1288813}, "viewport": {"northeast": {"lat": 28.7061275802915, "lng": 77.1301900302915}, "southwest": {"lat": 28.7034296197085, "lng": 77.1274920697085}}}, "opening_hours": {"open_now": true}, "place_id": "ChIJC8TTct8DDTkRCGHX7qknOW4", "plus_code": {"global_code": "7JWVP43H+WH", "compound_code": "P43H+WH Delhi, India"}, "vicinity": "353, pocket c8 Madhuban chowk, Rohini, Delhi", "photos": [{"photo_reference": "ATtYBwKM5hIUyLv0SS85Ggho1Y08AX3iuQq12KWYDuG4bB5RTwHLNUjpsEd4R9-dofd_7w9tPsS-xUmJfmnWNNi3XFgHoyeTePuLnFvHckxJYai0H6IWNTYBYJxdCFHYNqyXymaG1zC130_peR-001tK7j2l__e4gR8wpqVdyd4KARNVXtfY", "width": 4608, "html_attributions": ["<a href=\"https://maps.google.com/maps/contrib/100059982219903187827\">Deepak SG</a>"], "height": 3456}], "scope": "GOOGLE", "business_status": "OPERATIONAL", "types": ["doctor", "health", "point_of_interest", "establishment"], "icon": "https://maps.gstatic.com/mapfiles/place_api/icons/v1/png_71/generic_business-71.png"}, {"rating": 4.7, "user_ratings_total": 164, "name": "Medicover Fertility - Rohini", "reference": "ChIJTRTI6-ADDTkRftYpVMXsRro", "geometry": {"location": {"lat": 28.7059192, "lng": 77.1279761}, "viewport": {"northeast": {"lat": 28.7072871302915, "lng": 77.1293417802915}, "southwest": {"lat": 28.7045891697085, "lng": 77.12664381970849}}}, "opening_hours": {"open_now": true}, "place_id": "ChIJTRTI6-ADDTkRftYpVMXsRro", "plus_code": {"global_code": "7JWVP44H+95", "compound_code": "P44H+95 New Delhi, Delhi, India"}, "vicinity": "C9/63, Sector 8, Rohini, New Delhi", "photos": [{"photo_reference": "ATtYBwKWNdMXN1jKOpbxHKYFRfjmJJqvQce7CEcb0_h4q3sef622U3FKakc22lTiv158JFWrK7gY-p1wuhUsPBI5LDP4C0vkyeHigPNFC-53-mBGKdGUcBgqBBA_Hzr1C-zhEOjdrsz_x1pQ_k-C8sKWeo6JXFRKqv6evTqmyRrkDDBJJEbr", "width": 4128, "html_attributions": ["<a href=\"https://maps.google.com/maps/contrib/103619665889586407538\">Amit Kumar</a>"], "height": 3096}], "scope": "GOOGLE", "business_status": "OPERATIONAL", "types": ["doctor", "health", "point_of_interest", "establishment"], "icon": "https://maps.gstatic.com/mapfiles/place_api/icons/v1/png_71/generic_business-71.png"}, {"rating": 4.3, "user_ratings_total": 40, "name": "Gupta Diagnostic Centre", "reference": "ChIJiUNG2IABDTkRRFPxZ8ENUh0", "geometry": {"location": {"lat": 28.711484, "lng": 77.152987}, "viewport": {"northeast": {"lat": 28.71273768029149, "lng": 77.1544016302915}, "southwest": {"lat": 28.71003971970849, "lng": 77.1517036697085}}}, "opening_hours": {"open_now": true}, "place_id": "ChIJiUNG2IABDTkRRFPxZ8ENUh0", "plus_code": {"global_code": "7JWVP563+H5", "compound_code": "P563+H5 Shalimar Bagh, New Delhi, Delhi, India"}, "vicinity": "DDA Market, Shop No. 27, BH Block, Som Bazar Road, West Shalimar Bagh, Shalimar Bagh, New Delhi", "photos": [{"photo_reference": "ATtYBwI-qxzzysqp6CBSQ04_2yiokzVI2_AaaRMtOdbB79fsIxU0EZKOpDNstwjk-2YOHnjqY0eTICmSUJBfUvNWZeg1JpBFxmIbwQHOSfcETT6vfPRwBCT8kjfXEcgeDQzpd-faY-Z-GaUMH5c-_v10T1uA0DMrp0CPmQRpjDQLc6iRfnhS", "width": 2048, "html_attributions": ["<a href=\"https://maps.google.com/maps/contrib/110410713900677535610\">Gupta Diagnostic Centre</a>"], "height": 1365}], "scope": "GOOGLE", "business_status": "OPERATIONAL", "types": ["hospital", "doctor", "health", "point_of_interest", "establishment"], "icon": "https://maps.gstatic.com/mapfiles/place_api/icons/v1/png_71/hospital-71.png"}, {"rating": 4.9, "user_ratings_total": 101, "name": "Clove Dental", "reference": "ChIJKUiltywCDTkRge3LlnRJX6Q", "geometry": {"location": {"lat": 28.701326, "lng": 77.149363}, "viewport": {"northeast": {"lat": 28.7026718802915, "lng": 77.1507086802915}, "southwest": {"lat": 28.6999739197085, "lng": 77.14801071970848}}}, "opening_hours": {"open_now": true}, "place_id": "ChIJKUiltywCDTkRge3LlnRJX6Q", "plus_code": {"global_code": "7JWVP42X+GP", "compound_code": "P42X+GP New Delhi, Delhi, India"}, "vicinity": "1, 2, Hotel City Park Road, Block QP, Poorvi Pitampura, Pitampura, New Delhi", "photos": [{"photo_reference": "ATtYBwJ8Evkj1C5ixNL7hqpf1At_eyr1PhCuhI3vfnde4pRXSe7Wtrz-e7Nx5ntbf3zmA4IavhNfbIxSvVvz--b7ou40okp5JByse_FTD3g1yt-h8MF7rzp2OF3AQWLTIaGnNgfA7mqYTvyfmt-7PurNod4BCMzGoCv88TIhpIhHJLLhDTID", "width": 820, "html_attributions": ["<a href=\"https://maps.google.com/maps/contrib/111463568593401387996\">Clove Dental</a>"], "height": 312}], "scope": "GOOGLE", "business_status": "OPERATIONAL", "types": ["doctor", "dentist", "health", "point_of_interest", "establishment"], "icon": "https://maps.gstatic.com/mapfiles/place_api/icons/v1/png_71/generic_business-71.png"}, {"rating": 4.2, "user_ratings_total": 6, "name": "DR HARSHA JAIN- SENIOR GYNECOLOGIST", "reference": "ChIJDypEMIcBDTkRqWPrgwE9PtE", "geometry": {"location": {"lat": 28.7116713, "lng": 77.1535693}, "viewport": {"northeast": {"lat": 28.7130375302915, "lng": 77.15494908029152}, "southwest": {"lat": 28.7103395697085, "lng": 77.1522511197085}}}, "opening_hours": {"open_now": false}, "place_id": "ChIJDypEMIcBDTkRqWPrgwE9PtE", "plus_code": {"global_code": "7JWVP563+MC", "compound_code": "P563+MC Delhi, India"}, "vicinity": "Shop no -17,DDA market, Infront of Gate no - 1, JASPAL Kaur school,B H, West Shalimar Bagh, Shalimar Bagh, Delhi", "photos": [{"photo_reference": "ATtYBwIAiDP4_TPA5x5SlczYb02rkx76famxvTfO7FAZvEdyb8zjzjdvEov2zVIKOG7oCvyiakSZ3Z4JJgszsdZFl0Ej25pMkCoa55o4XjMMCj7q5VWvQLEJJxF_E3m0CYA59MKUXG2FGHVeoYmdkN8pJO4hPLzI4l9EfFdHW-4UjXIKz9oy", "width": 3116, "html_attributions": ["<a href=\"https://maps.google.com/maps/contrib/115478804017679134736\">DR HARSHA JAIN- SENIOR GYNECOLOGIST</a>"], "height": 4200}], "scope": "GOOGLE", "business_status": "OPERATIONAL", "types": ["doctor", "health", "point_of_interest", "establishment"], "icon": "https://maps.gstatic.com/mapfiles/place_api/icons/v1/png_71/generic_business-71.png"}, {"rating": 4.5, "user_ratings_total": 46, "name": "Dr Shailesh Jain, Best Neurosurgeon, Neuro Specialist, Stroke Interventionist, Headache Specialist, Back pain or cervical spondylosis Specialist, seizures or fits specialist In Pitampura, Delhi", "reference": "ChIJbypt39IDDTkRMKEIR8_9PFQ", "geometry": {"location": {"lat": 28.69969099999999, "lng": 77.147314}, "viewport": {"northeast": {"lat": 28.7010359302915, "lng": 77.1487045302915}, "southwest": {"lat": 28.6983379697085, "lng": 77.14600656970849}}}, "opening_hours": {"open_now": false}, "place_id": "ChIJbypt39IDDTkRMKEIR8_9PFQ", "plus_code": {"global_code": "7JWVM4XW+VW", "compound_code": "M4XW+VW New Delhi, Delhi, India"}, "vicinity": "FP-2A , Maurya Enclave, Near ND Market, Pitampura, New Delhi", "photos": [{"photo_reference": "ATtYBwJjXKjRg6PEpu4qpsMVq68fnXny8Tp4lYuKVoK14THCUO6fYTnyAjZ8iHM4VATCYZ3hoU5V-XzA8DdvEKHWNCCbGi4XeqftJ-wV3oCPFexMKT9NI7w_AZJuswHBbU5ZXWXcg8l9XlmmRp4oAsXKNFHDSAbL-4WJXUToW4LXYIWHCi7h", "width": 3024, "html_attributions": ["<a href=\"https://maps.google.com/maps/contrib/102063617293298835940\">Dr Shailesh Jain, Best Neurosurgeon, Neuro Specialist, Stroke Interventionist, Headache Specialist, Back pain or cervical spondylosis Specialist, seizures or fits specialist In Pitampura, Delhi</a>"], "height": 4032}], "scope": "GOOGLE", "business_status": "OPERATIONAL", "types": ["doctor", "health", "point_of_interest", "establishment"], "icon": "https://maps.gstatic.com/mapfiles/place_api/icons/v1/png_71/generic_business-71.png"}, {"rating": 5, "user_ratings_total": 8, "name": "Dr Anubha Grover (Dental Clinic)", "reference": "ChIJ-8DIRWcBDTkRsQnAjugnjCw", "geometry": {"location": {"lat": 28.71299159999999, "lng": 77.1264731}, "viewport": {"northeast": {"lat": 28.71426553029149, "lng": 77.1279353802915}, "southwest": {"lat": 28.7115675697085, "lng": 77.1252374197085}}}, "opening_hours": {"open_now": true}, "place_id": "ChIJ-8DIRWcBDTkRsQnAjugnjCw", "plus_code": {"global_code": "7JWVP47G+5H", "compound_code": "P47G+5H Delhi, India"}, "vicinity": "Shop 28, CSC 5, Sector 9, Rohini, Delhi", "photos": [{"photo_reference": "ATtYBwLiyOoliLodQmNp2yImejgw8c35-22Hycb6r-rFLgyYwTjSn34vq7c6O6YhtKaDmE0ew1GZPtWwp9crrFItB4Az9fLo3nnDD70GOBALVNB2w1sk4c7n9nUED7metcq3-a4FMJn65S8cbzDV1lMlieSQqn-o7fTFz20hZblc61Clf2FB", "width": 904, "html_attributions": ["<a href=\"https://maps.google.com/maps/contrib/109113671847608489142\">Dr Anubha Grover (Dental Clinic)</a>"], "height": 1098}], "scope": "GOOGLE", "business_status": "OPERATIONAL", "types": ["doctor", "dentist", "health", "point_of_interest", "establishment"], "icon": "https://maps.gstatic.com/mapfiles/place_api/icons/v1/png_71/generic_business-71.png"}, {"rating": 4.1, "user_ratings_total": 44, "name": "DR. D.K. GUPTA", "reference": "ChIJG9kGbNADDTkRZLVBvV8jixc", "geometry": {"location": {"lat": 28.697885, "lng": 77.13819}, "viewport": {"northeast": {"lat": 28.6992094802915, "lng": 77.13958318029148}, "southwest": {"lat": 28.6965115197085, "lng": 77.13688521970847}}}, "opening_hours": {"open_now": true}, "place_id": "ChIJG9kGbNADDTkRZLVBvV8jixc", "plus_code": {"global_code": "7JWVM4XQ+57", "compound_code": "M4XQ+57 Delhi, India"}, "vicinity": "485, Kohat Enclave, Pitam Pura, Delhi", "photos": [{"photo_reference": "ATtYBwLXI5JNYtAcw1kbpZw3GR974xCbpdGCMbfnOPaChr-gLrTWSEIeR6QW8tSFOs--NnwxjPJ7kqhtr0axn8HqOMQtsWABfoxQED8eNZyRhQa7ZmFgcxdF-SCn7CRfVWf_dEHQ07Gyu2jh7y89V_aFFbqMqSHoXR7-o6TpWvYLC8tggRqs", "width": 4160, "html_attributions": ["<a href=\"https://maps.google.com/maps/contrib/113607335922190935730\">Itsmeprk</a>"], "height": 3120}], "scope": "GOOGLE", "business_status": "OPERATIONAL", "types": ["doctor", "health", "point_of_interest", "establishment"], "icon": "https://maps.gstatic.com/mapfiles/place_api/icons/v1/png_71/generic_business-71.png"}, {"rating": 4.6, "user_ratings_total": 28, "name": "Dr Pawan Kumar Goyal Consultant Physician", "reference": "ChIJ____j-ADDTkRzNXRqXNkUtE", "geometry": {"location": {"lat": 28.7037419, "lng": 77.12793180000001}, "viewport": {"northeast": {"lat": 28.7051237302915, "lng": 77.1293109802915}, "southwest": {"lat": 28.7024257697085, "lng": 77.1266130197085}}}, "opening_hours": {"open_now": true}, "place_id": "ChIJ____j-ADDTkRzNXRqXNkUtE", "plus_code": {"global_code": "7JWVP43H+F5", "compound_code": "P43H+F5 Delhi, India"}, "vicinity": "FLAT NO.67,POCKET, NEAR MOTHER DAIRY & GURUDWARA, C-8, Sector 8, Rohini, Delhi", "scope": "GOOGLE", "business_status": "OPERATIONAL", "types": ["doctor", "health", "point_of_interest", "establishment"], "icon": "https://maps.gstatic.com/mapfiles/place_api/icons/v1/png_71/generic_business-71.png"}, {"rating": 4.8, "user_ratings_total": 19, "name": "All india crime reforms organisation(Regd.)", "reference": "ChIJl4StRGMBDTkRKm3zdAfCxvI", "geometry": {"location": {"lat": 28.7139392, "lng": 77.1346183}, "viewport": {"northeast": {"lat": 28.7153085802915, "lng": 77.1359855302915}, "southwest": {"lat": 28.7126106197085, "lng": 77.13328756970849}}}, "place_id": "ChIJl4StRGMBDTkRKm3zdAfCxvI", "plus_code": {"global_code": "7JWVP47M+HR", "compound_code": "P47M+HR Delhi, India"}, "vicinity": "Pvr Prashant Vihar Road, Block C 2, Sector 14, Rohini, Delhi", "photos": [{"photo_reference": "ATtYBwJrK-2OXp9zcsG4LGkimOPjEcHVl2npm1jXyKJcxPq7PGod_rR_ftnbAqBD3u_dzm4HcW3AoLHcwoWOYXUT_Xw7dvyO9n0YQ9dCArRBHB3AQZp_CowH8GeL45EUTtgAbiGaqLJsF-_J6LafuNn-QIKRCbdRNoGT6fIDqwoBxxVxD65t", "width": 4160, "html_attributions": ["<a href=\"https://maps.google.com/maps/contrib/100372669869826498680\">SOURAV SHARMA</a>"], "height": 3120}], "scope": "GOOGLE", "business_status": "OPERATIONAL", "types": ["doctor", "restaurant", "food", "health", "point_of_interest", "establishment"], "icon": "https://maps.gstatic.com/mapfiles/place_api/icons/v1/png_71/generic_business-71.png"}]}