{"status": "OK", "next_page_token": "ATtYBwI6K6XBzk3l3wWpRBV2r0KMGviNuKDrTFEDtdLju0wajploFFqtGTI0hQXJE-pktqQS6R-G6SnwV-IE-jY1vIktwek17Uz4biuZgQoSzVJYGIN2uZ8--BmuEzAjzrjgiXvXKEanvHSf7LHV_v-afLdfCU9y1K4dENGB3Gae5VZG7vFWwoaytvWldBZD_uE8_PHl22pZIMDt__bM6bBqJWHhAi45t7SDMhkNIZ3YCH51tVwxzY3P1byzeCT3J1v1F_17JiDBWTPGRaHz0QwVKqKRAeVmgGRR_GnqsdPaEnvU2sUzHXzMYfE27l0Ujz6HivdKoTlkGv0Q3kBf7xD5ehHmUEpDHozUC3MZ-dl8_ga0xwcyxm_YJqwB1BB1i0shETtBtqFHRyzn1co_L59pESIBO-9iWucAkWcbjafhI8OhDg", "html_attributions": [], "results": [{"rating": 4.5, "user_ratings_total": 10, "name": "Dr Shobha, Liposuction, Vaginal Tightening, Vaginoplasty, Hymenoplasty,GYnecomastia Surgeon", "reference": "ChIJd-3rnjD9DDkRR1NG6QLo0f8", "geometry": {"location": {"lat": 28.5582047, "lng": 77.20392989999999}, "viewport": {"northeast": {"lat": 28.5595658802915, "lng": 77.20521908029151}, "southwest": {"lat": 28.55686791970849, "lng": 77.20252111970849}}}, "place_id": "ChIJd-3rnjD9DDkRR1NG6QLo0f8", "plus_code": {"global_code": "7JWVH653+7H", "compound_code": "H653+7H Delhi, India"}, "vicinity": "Dr Shobha Jindal Clinic, C-5, Green Park Extension, Green Park, South Delhi, Delhi, Delhi", "photos": [{"photo_reference": "ATtYBwI3_oL9hl1x0swDdZHRN1z82ZVhwwhi_LWjTWKnnya4tp9b99K6ZEJ9BJqs6LCxFwnhYQXC4-yDBTyYrJnhj2pU1BgX2TmZz-1_agUVoHY6TsYogyjAXIGvAICuZuKYWKTMwzlPpzRTiOvvJSMCoJZt-hEZNNyWsC0aLwDfIkDWqddy", "width": 600, "html_attributions": ["<a href=\"https://maps.google.com/maps/contrib/101865070820408429966\">Dr Shobha, Liposuction, Vaginal Tightening, Vaginoplasty, Hymenoplasty,GYnecomastia Surgeon</a>"], "height": 400}], "scope": "GOOGLE", "business_status": "OPERATIONAL", "types": ["beauty_salon", "hair_care", "doctor", "health", "point_of_interest", "establishment"], "icon": "https://maps.gstatic.com/mapfiles/place_api/icons/v1/png_71/generic_business-71.png"}, {"rating": 3.8, "user_ratings_total": 29, "name": "i Care Centre Eye Hospital in South Delhi", "reference": "ChIJq6qqmgviDDkRAOnIdqUvGuI", "geometry": {"location": {"lat": 28.5456672, "lng": 77.20061969999999}, "viewport": {"northeast": {"lat": 28.5470304802915, "lng": 77.2019174302915}, "southwest": {"lat": 28.5443325197085, "lng": 77.19921946970848}}}, "opening_hours": {"open_now": true}, "place_id": "ChIJq6qqmgviDDkRAOnIdqUvGuI", "plus_code": {"global_code": "7JWVG6W2+76", "compound_code": "G6W2+76 New Delhi, Delhi, India"}, "vicinity": "Telephone exchange, behind Hauz Khas, C-6/9, Safdarjung Development Area, Hauz Khas, New Delhi", "photos": [{"photo_reference": "ATtYBwJVwGMVj33YpmyWQvpU4pv-wqTJvLashlTLFuTcmCHNZzmUQk_DhbBdA6OHjRi_79mSTtA2xhGCB6kgft1_7yl8W8AOjWP6v3DaTcr3_-F7OgZfDe1rgVjy_dKwMecQ6O3c7lhoLjPaN-CQsb_7zGjcnGcuBAcoZKulH_JjP676sP28", "width": 2120, "html_attributions": ["<a href=\"https://maps.google.com/maps/contrib/112284541077967662505\">i Care Centre Eye Hospital in South Delhi</a>"], "height": 1192}], "scope": "GOOGLE", "business_status": "OPERATIONAL", "types": ["hospital", "doctor", "health", "point_of_interest", "establishment"], "icon": "https://maps.gstatic.com/mapfiles/place_api/icons/v1/png_71/generic_business-71.png"}, {"rating": 5, "user_ratings_total": 4, "name": "Dr. Madhurima Sharma", "reference": "ChIJq6qqqosdDTkROB2m4ctFo2o", "geometry": {"location": {"lat": 28.5593718, "lng": 77.2030413}, "viewport": {"northeast": {"lat": 28.5607069302915, "lng": 77.2044652802915}, "southwest": {"lat": 28.5580089697085, "lng": 77.2017673197085}}}, "opening_hours": {"open_now": true}, "place_id": "ChIJq6qqqosdDTkROB2m4ctFo2o", "plus_code": {"global_code": "7JWVH653+P6", "compound_code": "H653+P6 New Delhi, Delhi, India"}, "vicinity": "F-11, Green Park Extension, Green Park, New Delhi", "scope": "GOOGLE", "business_status": "OPERATIONAL", "types": ["doctor", "health", "point_of_interest", "establishment"], "icon": "https://maps.gstatic.com/mapfiles/place_api/icons/v1/png_71/generic_business-71.png"}, {"rating": 4.9, "user_ratings_total": 49, "name": "Dr Biren Nadkarni - Orthopedic Surgeon in Delhi", "reference": "ChIJV7NO3BLiDDkRkMnATr3plA8", "geometry": {"location": {"lat": 28.552426, "lng": 77.208462}, "viewport": {"northeast": {"lat": 28.5537955802915, "lng": 77.2098260802915}, "southwest": {"lat": 28.5510976197085, "lng": 77.2071281197085}}}, "opening_hours": {"open_now": false}, "place_id": "ChIJV7NO3BLiDDkRkMnATr3plA8", "plus_code": {"global_code": "7JWVH625+X9", "compound_code": "H625+X9 New Delhi, Delhi, India"}, "vicinity": "D-8, Lower Ground Floor, Hauz Khas, New Delhi", "photos": [{"photo_reference": "ATtYBwKskvvNEKCT48WoRjiKFJKUQScqC3ZRfK_RfYgOUWRejfREa2Sg_WUQaMK1sWV3qYEQw2Nd2SB__bH24x-b7kQtihdmU8WVlPBMyTREJd9NkcJ3huV3JMPf2c6q8sjXdoVzLCd7lyYUNH2A8BN1043JUhWBWvuhltebrz5pWFBvBBQr", "width": 2048, "html_attributions": ["<a href=\"https://maps.google.com/maps/contrib/117229876452189559560\">Dr Biren Nadkarni - Orthopedic Surgeon in Delhi</a>"], "height": 1152}], "scope": "GOOGLE", "business_status": "OPERATIONAL", "types": ["physiotherapist", "doctor", "health", "point_of_interest", "establishment"], "icon": "https://maps.gstatic.com/mapfiles/place_api/icons/v1/png_71/generic_business-71.png"}, {"rating": 4.3, "user_ratings_total": 24, "name": "Green Park Family Medicine Clinic", "reference": "ChIJUyfSoHPiDDkRqhJfAWT0ctc", "geometry": {"location": {"lat": 28.55608389999999, "lng": 77.2020378}, "viewport": {"northeast": {"lat": 28.5574208302915, "lng": 77.20344858029151}, "southwest": {"lat": 28.55472286970849, "lng": 77.20075061970849}}}, "opening_hours": {"open_now": false}, "place_id": "ChIJUyfSoHPiDDkRqhJfAWT0ctc", "plus_code": {"global_code": "7JWVH642+CR", "compound_code": "H642+CR New Delhi, Delhi, India"}, "vicinity": "S-34A, Main Market Road, Block S, Green Park, New Delhi", "photos": [{"photo_reference": "ATtYBwI_NDCXcdMMcvgH3KeZEWtOY9dB_LLZCy3Wda1TC4alAgnk9-SSGxYheNAKXXkXQYa5kQ-7VtMpmP1KyAVF-CDzhGMFA3Hl54Azert0aUaIdFUbXNH59IT03rb3FGlO8M9ZOMLgj3i-fGm_ATtO76n3_HwPuWfH1tSk-U4tCFzchEQp", "width": 4160, "html_attributions": ["<a href=\"https://maps.google.com/maps/contrib/115220870630213876210\">Vikas Thakur</a>"], "height": 3120}], "scope": "GOOGLE", "business_status": "OPERATIONAL", "types": ["beauty_salon", "hair_care", "hospital", "doctor", "health", "point_of_interest", "establishment"], "icon": "https://maps.gstatic.com/mapfiles/place_api/icons/v1/png_71/hospital-71.png"}, {"rating": 4.6, "user_ratings_total": 138, "name": "A+ Orthopaedic and Sports Med Center", "reference": "ChIJv3_jJQ_iDDkRgaMgwJ6JIWA", "geometry": {"location": {"lat": 28.5504064, "lng": 77.2034594}, "viewport": {"northeast": {"lat": 28.5517553802915, "lng": 77.20480838029151}, "southwest": {"lat": 28.5490574197085, "lng": 77.20211041970849}}}, "opening_hours": {"open_now": true}, "place_id": "ChIJv3_jJQ_iDDkRgaMgwJ6JIWA", "plus_code": {"global_code": "7JWVH623+59", "compound_code": "H623+59 New Delhi, Delhi, India"}, "vicinity": "SDA, C 2/5, Sri Aurobindo Marg, Safdarjung Development Area, Hauz Khas, New Delhi", "photos": [{"photo_reference": "ATtYBwIrV-cgMgRxKzjN3AqIfSx2uMK91ukUHxOr16BqwCVwUCrQRn-kHwwiOPS31Y5fJX3WoyyGGWeQhVqmouh5GaRJigjXjERcqKf1fRUWDPrkjhLG4NnC9leziHWfrzMVN54h5mJVMuv-n7obE4qgasRny8xkMywmHLevlKAU-o6-n4cy", "width": 1077, "html_attributions": ["<a href=\"https://maps.google.com/maps/contrib/108361414603801883904\">A+ Orthopaedic and Sports Med Center</a>"], "height": 605}], "scope": "GOOGLE", "business_status": "OPERATIONAL", "types": ["physiotherapist", "doctor", "health", "point_of_interest", "establishment"], "icon": "https://maps.gstatic.com/mapfiles/place_api/icons/v1/png_71/generic_business-71.png"}, {"rating": 3.6, "user_ratings_total": 40, "name": "Dr S K Jain", "reference": "ChIJJ0kNm3ThDDkRDtAAZJgAx9k", "geometry": {"location": {"lat": 28.5504049, "lng": 77.2076752}, "viewport": {"northeast": {"lat": 28.5516711802915, "lng": 77.20898968029151}, "southwest": {"lat": 28.5489732197085, "lng": 77.20629171970849}}}, "place_id": "ChIJJ0kNm3ThDDkRDtAAZJgAx9k", "plus_code": {"global_code": "7JWVH625+53", "compound_code": "H625+53 New Delhi, Delhi, India"}, "vicinity": "D 33, Main Market, Hauz Khas, New Delhi", "photos": [{"photo_reference": "ATtYBwInDlCl-imLd8m-MRUP8MIL2kOUCIbKGjcht68JVhehLClL4tBs7A2_VqTlCmNXj5heNvK6zuB4N_bxd3roReXxB_UwsClUg83lT91Qi30ywqSt5yJnzW_OMlDWS5JzJAmSGUtCDUTykxSe80kzHuA56EYOs5iVlKdF0XiROlbxonK1", "width": 2122, "html_attributions": ["<a href=\"https://maps.google.com/maps/contrib/103716507013485439565\">AYT India Academy</a>"], "height": 2160}], "scope": "GOOGLE", "business_status": "OPERATIONAL", "types": ["doctor", "health", "point_of_interest", "establishment"], "icon": "https://maps.gstatic.com/mapfiles/place_api/icons/v1/png_71/generic_business-71.png"}, {"rating": 4, "user_ratings_total": 2, "name": "Delhi Urological Centre", "reference": "ChIJq6pa0XPiDDkRiQeluey9kZE", "geometry": {"location": {"lat": 28.552762, "lng": 77.204579}, "viewport": {"northeast": {"lat": 28.5540710802915, "lng": 77.2060335302915}, "southwest": {"lat": 28.5513731197085, "lng": 77.2033355697085}}}, "opening_hours": {"open_now": false}, "place_id": "ChIJq6pa0XPiDDkRiQeluey9kZE", "plus_code": {"global_code": "7JWVH633+4R", "compound_code": "H633+4R New Delhi, Delhi, India"}, "vicinity": "A-23, 1st Floor, Green Park Main, Next To Church Adjacent to Aurobindo Place Market, New Delhi", "photos": [{"photo_reference": "ATtYBwJO2GVpFEka0P81rHZdaMKQPhdn4VGaKY_OxvdUxYXe2yh1naDsmgf2K2GmuAHs5-dPE7mUzZJuWyfKWvpDIdLR0HCUgYyIev_bs_NQfOgXokSbJ6xk0l0gpQnDcY3G8BLVuf16ey5-u5Zuc3yh-x9iBmE99Edfw85AGlsdV8hD1Joc", "width": 4249, "html_attributions": ["<a href=\"https://maps.google.com/maps/contrib/113507499772168522561\">Delhi Urological Centre</a>"], "height": 3161}], "scope": "GOOGLE", "business_status": "OPERATIONAL", "types": ["doctor", "health", "point_of_interest", "establishment"], "icon": "https://maps.gstatic.com/mapfiles/place_api/icons/v1/png_71/generic_business-71.png"}, {"rating": 4.5, "user_ratings_total": 2, "name": "Dr. Vimla Rajan", "reference": "ChIJ____P3LiDDkRplWODsBYCPo", "geometry": {"location": {"lat": 28.5535935, "lng": 77.20309619999999}, "viewport": {"northeast": {"lat": 28.5549324302915, "lng": 77.20449308029151}, "southwest": {"lat": 28.5522344697085, "lng": 77.2017951197085}}}, "opening_hours": {"open_now": false}, "place_id": "ChIJ____P3LiDDkRplWODsBYCPo", "plus_code": {"global_code": "7JWVH633+C6", "compound_code": "H633+C6 New Delhi, Delhi, India"}, "vicinity": "L-21, Green Park, New Delhi", "scope": "GOOGLE", "business_status": "OPERATIONAL", "types": ["doctor", "health", "point_of_interest", "establishment"], "icon": "https://maps.gstatic.com/mapfiles/place_api/icons/v1/png_71/generic_business-71.png"}, {"rating": 4.1, "user_ratings_total": 11, "name": "Dr. Nalin Nag", "reference": "ChIJ3cGHvoodDTkRc7B7LSnQH-Y", "geometry": {"location": {"lat": 28.5471535, "lng": 77.20100699999999}, "viewport": {"northeast": {"lat": 28.5485095302915, "lng": 77.2023332302915}, "southwest": {"lat": 28.5458115697085, "lng": 77.1996352697085}}}, "place_id": "ChIJ3cGHvoodDTkRc7B7LSnQH-Y", "plus_code": {"global_code": "7JWVG6W2+VC", "compound_code": "G6W2+VC New Delhi, Delhi, India"}, "vicinity": "K-24, E, Hauz Khas Enclave, Ansari Nagar West, New Delhi", "scope": "GOOGLE", "business_status": "OPERATIONAL", "types": ["doctor", "health", "point_of_interest", "establishment"], "icon": "https://maps.gstatic.com/mapfiles/place_api/icons/v1/png_71/generic_business-71.png"}, {"name": "Balakrishnan Dr Mana", "reference": "ChIJq6qqqosdDTkR1FhagjlKjXg", "geometry": {"location": {"lat": 28.5549354, "lng": 77.1916732}, "viewport": {"northeast": {"lat": 28.5562843802915, "lng": 77.1930221802915}, "southwest": {"lat": 28.55358641970849, "lng": 77.1903242197085}}}, "place_id": "ChIJq6qqqosdDTkR1FhagjlKjXg", "vicinity": "8, I I T Campus, Hauz Khas, New Delhi", "scope": "GOOGLE", "business_status": "OPERATIONAL", "types": ["doctor", "veterinary_care", "health", "point_of_interest", "establishment"], "icon": "https://maps.gstatic.com/mapfiles/place_api/icons/v1/png_71/generic_business-71.png"}, {"name": "JVD Health Private Limited", "reference": "ChIJm5KvhwviDDkRi3j8U_RYyRQ", "geometry": {"location": {"lat": 28.5494489, "lng": 77.2001368}, "viewport": {"northeast": {"lat": 28.5508257302915, "lng": 77.2014967802915}, "southwest": {"lat": 28.54812776970849, "lng": 77.1987988197085}}}, "place_id": "ChIJm5KvhwviDDkRi3j8U_RYyRQ", "vicinity": "204-206, Siddartha Chambers, Near IIT, Hauz Khas, New Delhi", "scope": "GOOGLE", "business_status": "OPERATIONAL", "types": ["doctor", "health", "point_of_interest", "establishment"], "icon": "https://maps.gstatic.com/mapfiles/place_api/icons/v1/png_71/generic_business-71.png"}, {"rating": 4.3, "user_ratings_total": 22, "name": "Dr.Sham Sunder | Kidney Transplant Doctor, Kidney Specialist", "reference": "ChIJkaqqqg7iDDkR59fWMRiabkY", "geometry": {"location": {"lat": 28.5509109, "lng": 77.20205539999999}, "viewport": {"northeast": {"lat": 28.5521421802915, "lng": 77.20282334999999}, "southwest": {"lat": 28.5494442197085, "lng": 77.19975155}}}, "opening_hours": {"open_now": true}, "place_id": "ChIJkaqqqg7iDDkR59fWMRiabkY", "plus_code": {"global_code": "7JWVH622+9R", "compound_code": "H622+9R New Delhi, Delhi, India"}, "vicinity": "C-2/23, Safdarjung Development Area, Hauz Khas, New Delhi", "scope": "GOOGLE", "business_status": "OPERATIONAL", "types": ["doctor", "health", "point_of_interest", "establishment"], "icon": "https://maps.gstatic.com/mapfiles/place_api/icons/v1/png_71/generic_business-71.png"}, {"rating": 4.4, "user_ratings_total": 72, "name": "Dr Prateek Kumar Gupta, Best Arthroscopy, Joint Replacement, sports, Senior Orthopaedic Surgeon, Sir Ganga Ram Hospital, New Delhi", "reference": "ChIJAQAAwLfjDDkRCll7RtM_MyU", "geometry": {"location": {"lat": 28.550139, "lng": 77.2033859}, "viewport": {"northeast": {"lat": 28.5514723302915, "lng": 77.2048027302915}, "southwest": {"lat": 28.5487743697085, "lng": 77.20210476970848}}}, "opening_hours": {"open_now": true}, "place_id": "ChIJAQAAwLfjDDkRCll7RtM_MyU", "plus_code": {"global_code": "7JWVH623+39", "compound_code": "H623+39 New Delhi, Delhi, India"}, "vicinity": "Block C 2, 5, Sri Aurobindo Marg, Safdarjung Development Area, Hauz Khas, New Delhi", "photos": [{"photo_reference": "ATtYBwL1_AFfPyou1_j1SaQKh5NXCt0c-lNWjMrUdXbN8e7XoYdyK3kcJiwnRWhJ9W5y8rji54E9qTDXg_hkzwm6XYu38bCUeN1EYKig8ddOToyNyPHE7z6eEkKZ1Iea3w3GiPtuqkMb4oMb3OPDTU6p2DGkRKXKQoneGELazNflUcBJNjLo", "width": 1015, "html_attributions": ["<a href=\"https://maps.google.com/maps/contrib/107532412176561444709\">Dr Prateek Kumar Gupta, Best Arthroscopy, Joint Replacement, sports, Senior Orthopaedic Surgeon, Sir Ganga Ram Hospital, New Delhi</a>"], "height": 570}], "scope": "GOOGLE", "business_status": "OPERATIONAL", "types": ["doctor", "health", "point_of_interest", "establishment"], "icon": "https://maps.gstatic.com/mapfiles/place_api/icons/v1/png_71/generic_business-71.png"}, {"rating": 5, "user_ratings_total": 2, "name": "Dr. Kapil Agarwal (Habilite.in)", "reference": "ChIJOzLttXTiDDkR__gpVP6k0cM", "geometry": {"location": {"lat": 28.553045, "lng": 77.19888999999999}, "viewport": {"northeast": {"lat": 28.5543488802915, "lng": 77.20035423029151}, "southwest": {"lat": 28.55165091970849, "lng": 77.19765626970849}}}, "opening_hours": {"open_now": true}, "place_id": "ChIJOzLttXTiDDkR__gpVP6k0cM", "plus_code": {"global_code": "7JWVH53X+6H", "compound_code": "H53X+6H New Delhi, Delhi, India"}, "vicinity": "C-7/186, Safdarjung Development Area, Hauz Khas, New Delhi", "scope": "GOOGLE", "business_status": "OPERATIONAL", "types": ["doctor", "health", "point_of_interest", "establishment"], "icon": "https://maps.gstatic.com/mapfiles/place_api/icons/v1/png_71/generic_business-71.png"}, {"rating": 4.5, "user_ratings_total": 73, "name": "Dr Asif Iqbal, Online Consultation, Best Skin Specialist in Delhi, Dermatologist, Skin Doctor, Hair Treatment, Laser Clinic South Delhi", "reference": "ChIJkaqqqg7iDDkRq0d8-klJGMk", "geometry": {"location": {"lat": 28.5528814, "lng": 77.20418029999999}, "viewport": {"northeast": {"lat": 28.5542388802915, "lng": 77.2055078302915}, "southwest": {"lat": 28.55154091970849, "lng": 77.20280986970849}}}, "opening_hours": {"open_now": true}, "place_id": "ChIJkaqqqg7iDDkRq0d8-klJGMk", "plus_code": {"global_code": "7JWVH633+5M", "compound_code": "H633+5M Green Park, New Delhi, Delhi, India"}, "vicinity": "Dr Asif Iqbal- A- 23, Beside Free Church, Green Park", "photos": [{"photo_reference": "ATtYBwLaKGYTcSqMEQo1JHjgQXD16dXRWky1TtsQ2n41UTK8hkZN3CXkIrwpdE4WwJcqPo9pXbLkRpKWXfcArBJ5q0oETzloDhjVaDMvRqckpYWFOzQmn1DdezgUjFvEeKSSsT6sbEDr4xyRQFjBXk1kt7-hC1P7MKnxQOyzLDrS-pDrW2g6", "width": 780, "html_attributions": ["<a href=\"https://maps.google.com/maps/contrib/114082337614876921608\">Dr Asif Iqbal, Best Skin Specialist in Delhi, Dermatologist, Skin Doctor, Hair Treatment, Laser Clinic South Delhi</a>"], "height": 1040}], "scope": "GOOGLE", "business_status": "OPERATIONAL", "types": ["doctor", "health", "point_of_interest", "establishment"], "icon": "https://maps.gstatic.com/mapfiles/place_api/icons/v1/png_71/generic_business-71.png"}, {"rating": 4.8, "user_ratings_total": 370, "name": "Neurology and Sleep Centre", "reference": "ChIJB0Pe-w7iDDkRIlVWrrQ_n1Q", "geometry": {"location": {"lat": 28.547305, "lng": 77.2044155}, "viewport": {"northeast": {"lat": 28.5487817802915, "lng": 77.2057723302915}, "southwest": {"lat": 28.54608381970849, "lng": 77.20307436970849}}}, "opening_hours": {"open_now": true}, "place_id": "ChIJB0Pe-w7iDDkRIlVWrrQ_n1Q", "plus_code": {"global_code": "7JWVG6W3+WQ", "compound_code": "G6W3+WQ New Delhi, Delhi, India"}, "vicinity": "L-23, Hauz Khas Enclave, New Delhi", "photos": [{"photo_reference": "ATtYBwLjLDfkVsQas-OYy_dytOvTYVwrfCiIrEqPNHiv00OXWPxncLONxcsWi5sif21WtzZVx9UUPMn2rrKFPecjiGE4fqcGhrHxwlYs1w855Okhk8zgg6Mjt34rNslFyGVwJEuakM9wZ8bGjoJn_mLDEAzf4qVg_kVRtMBLXcznDYWiz1yb", "width": 4600, "html_attributions": ["<a href=\"https://maps.google.com/maps/contrib/101709749835279893340\">Neurology and Sleep Centre</a>"], "height": 3144}], "scope": "GOOGLE", "business_status": "OPERATIONAL", "types": ["doctor", "health", "point_of_interest", "establishment"], "icon": "https://maps.gstatic.com/mapfiles/place_api/icons/v1/png_71/generic_business-71.png"}, {"rating": 4.6, "user_ratings_total": 22, "name": "The Skin Clinic, Best Laser Hair Removal In Delhi, Mesotherapy, Botox Treatment, Acne Doctor, Pimple Specialist South Delhi", "reference": "ChIJ_1kcvk3iDDkRSL6s1631iNQ", "geometry": {"location": {"lat": 28.5530051, "lng": 77.2042431}, "viewport": {"northeast": {"lat": 28.5543625802915, "lng": 77.20557163029152}, "southwest": {"lat": 28.55166461970849, "lng": 77.20287366970851}}}, "opening_hours": {"open_now": true}, "place_id": "ChIJ_1kcvk3iDDkRSL6s1631iNQ", "plus_code": {"global_code": "7JWVH633+6M", "compound_code": "H633+6M New Delhi, Delhi, India"}, "vicinity": "next to Free Church, A - 23, Green Park, New Delhi", "photos": [{"photo_reference": "ATtYBwKG6IiybZWQfAm97e2XbNzfWnBevxW4X0VAQ8ELumXqO02-RNGm64UERYaQupUJIs-UnzkowdfToyLWt2yjg8ClR9o7n98wS7G9EPuyUHZm0LhDgw9vUC1ZF-DlEF90OQ6UOMBShXpkZ71mHahQ06Br6JtX4Kk0qVObTar-7eG2RINL", "width": 873, "html_attributions": ["<a href=\"https://maps.google.com/maps/contrib/106136520676976784816\">The Skin Clinic, Best Laser Hair Removal In Delhi, Mesotherapy, Botox Treatment, Acne Doctor, Pimple Specialist South Delhi</a>"], "height": 554}], "scope": "GOOGLE", "business_status": "OPERATIONAL", "types": ["beauty_salon", "hair_care", "doctor", "health", "point_of_interest", "establishment"], "icon": "https://maps.gstatic.com/mapfiles/place_api/icons/v1/png_71/generic_business-71.png"}, {"rating": 4.7, "user_ratings_total": 142, "name": "Clove Dental", "reference": "ChIJszIJC3PiDDkRkCA7tHByqWM", "geometry": {"location": {"lat": 28.5556656, "lng": 77.20195369999999}, "viewport": {"northeast": {"lat": 28.5570045302915, "lng": 77.20335418029151}, "southwest": {"lat": 28.55430656970849, "lng": 77.2006562197085}}}, "opening_hours": {"open_now": true}, "place_id": "ChIJszIJC3PiDDkRkCA7tHByqWM", "plus_code": {"global_code": "7JWVH642+7Q", "compound_code": "H642+7Q New Delhi, Delhi, India"}, "vicinity": "S-37A,1st Floor, Above Singhvi Jewellers, Main Market,Green Park, New Delhi", "photos": [{"photo_reference": "ATtYBwI6vX8ryKgyYxPPbkPHP1H75yCeg-krR25XHrvdpV-JBISMnfbeOaW7JORI9LzjLrt936Kb3y4Ed08sLl_iF50OroSHTokY8fxGhYNXNBNE3YMdWMsBz6aAZd3F1QEsNMbsTptQZvlN_ZQ8WwNzP5oQQ827YtxtGyqAa0Zazm9oacDA", "width": 820, "html_attributions": ["<a href=\"https://maps.google.com/maps/contrib/115816342443664664046\">Clove Dental</a>"], "height": 312}], "scope": "GOOGLE", "business_status": "OPERATIONAL", "types": ["doctor", "dentist", "health", "point_of_interest", "establishment"], "icon": "https://maps.gstatic.com/mapfiles/place_api/icons/v1/png_71/generic_business-71.png"}, {"rating": 4.6, "user_ratings_total": 42, "name": "Best Orthopedic Surgeon / Doctor in Delhi NCR - Dr. Abhishek Mishra", "reference": "ChIJz7GZP63jDDkRo7mSS9LatqM", "geometry": {"location": {"lat": 28.5505743, "lng": 77.2070083}, "viewport": {"northeast": {"lat": 28.5518593802915, "lng": 77.20832583029151}, "southwest": {"lat": 28.5491614197085, "lng": 77.2056278697085}}}, "opening_hours": {"open_now": false}, "place_id": "ChIJz7GZP63jDDkRo7mSS9LatqM", "plus_code": {"global_code": "7JWVH624+6R", "compound_code": "H624+6R New Delhi, Delhi, India"}, "vicinity": "D-40, Near E, Block Market, Hauz Khas, New Delhi", "photos": [{"photo_reference": "ATtYBwKTk94fXaYDa5ASojbXGHH5c5-E2GZNSFd-tgS32OMoENcEKbOUPdryrKoT3W1npbjcTSmLQIzwqWHo5oWD3tGO51U7I-WrGyjBSyE0N_FwDFCMgzzJoRdYnkRrkjWlcwKeLoiexeTaolGl790AYL52NRS-f0nCvbGRvH8z8lWF-MjP", "width": 1280, "html_attributions": ["<a href=\"https://maps.google.com/maps/contrib/113762311913436521319\">Best Orthopedic Surgeon / Doctor in Delhi NCR - Dr. Abhishek Mishra</a>"], "height": 608}], "scope": "GOOGLE", "business_status": "OPERATIONAL", "types": ["doctor", "health", "point_of_interest", "establishment"], "icon": "https://maps.gstatic.com/mapfiles/place_api/icons/v1/png_71/generic_business-71.png"}]}