{"status": "OK", "next_page_token": "ATtYBwLg_aa7DsCvKSEtt3JK4cnJ3iE1Gs4-aE_gmeVdyUUhRKPIKL9dpg375gCpFX0ERR7C6D8HLMcFQtGwO8doh6t_js_482a76xuHJYCHXJNbS_F84lGPu_Xb_2kl608HYWaAQ3a67hUWeLEmkKJWtC5N-ApUtWcXMtq0KGQ1u10Uvnj1Cq-jVIRiIWdDc0BuwopHd2x4aZLhqH0GBqxL8i_73WhRFxLJNGq06UzzF8BeLVUl05Ske9WdgB8BqQE3t7yly0RpPjH2Vwkl798Xhn2FbVq-enNV4sa306b6GPHbK0exp7e5BIggfTCMC6fFdHbaf3lvd-i0UQvtyBXw5LEfr1uyQwgKJLl9VIUMy0GwcSTjMg5eEtLPAeCMpGP6PlFZczVPgUpFv8xqIlfszrpDMSB1OdG_TSYjfJgjpGteIDVi3C4Y3Ba2BvRUCSKQKL_wSormkEQDgtmK_hMAlhhmDXfZiAXsnPX9wVPv4grUTjPAkRmuK8IIxL-flZ-t34B24ho872wM3ibYpwkWDcsvIOeI0_4iPzN33yOujXsbLensvGztgXOkirTYi94Bv7cJUzz0Nqw4wM_gddxMGBOx2IyeL69PjQr5ZBBxJbOP4xEyStMY4Xx8pvy7MaJpTUI", "html_attributions": [], "results": [{"rating": 4.7, "user_ratings_total": 35, "name": "Dr Ashish Gupta Best Pediatrician Child Newborn Specialist Vaccination Clinic in South Delhi, Delhi NCR, Book ONLINE CONSULTATION", "reference": "ChIJG6JzehLiDDkRfH67scTiXzA", "geometry": {"location": {"lat": 28.5499861, "lng": 77.2071084}, "viewport": {"northeast": {"lat": 28.5513575302915, "lng": 77.20839293029151}, "southwest": {"lat": 28.54865956970849, "lng": 77.2056949697085}}}, "opening_hours": {"open_now": true}, "place_id": "ChIJG6JzehLiDDkRfH67scTiXzA", "plus_code": {"global_code": "7JWVG6X4+XR", "compound_code": "G6X4+XR New Delhi, Delhi, India"}, "vicinity": "C-23, Kharera, Hauz Khas, New Delhi", "photos": [{"photo_reference": "ATtYBwJ0xbcRwkGqJoASMAPjYLL3MesCa4yMyKRYtOa57puJGkXHR_1xprrWAP6-D7GHI5fdo-Dog-ywdPdrevTIGF7nyhbDN3ddIu3EXlf3R3yqlIeuKRw4uSY4FL9tegS5oMuy9RhWzoX_Pko_6fQpytCRpbw62vcEizxDiwKIPIDNKCrx", "width": 1280, "html_attributions": ["<a href=\"https://maps.google.com/maps/contrib/110607483679996311974\">Dr Ashish Gupta Best Pediatrician Child Newborn Specialist Vaccination Clinic in South Delhi, Delhi NCR, Book ONLINE CONSULTATION</a>"], "height": 719}], "scope": "GOOGLE", "business_status": "OPERATIONAL", "types": ["hospital", "doctor", "health", "point_of_interest", "establishment"], "icon": "https://maps.gstatic.com/mapfiles/place_api/icons/v1/png_71/generic_business-71.png"}, {"rating": 4.9, "user_ratings_total": 33, "name": "Wee Care Clinic Center for Pediatrics, Best Children Clinic in South Delhi, Best Newborn Specialist, Best Child Specialist, Autism, ADHD, Vaccination Clinic", "reference": "ChIJaUf4dw3jDDkRWC28C08Kvl0", "geometry": {"location": {"lat": 28.54998419999999, "lng": 77.20714629999999}, "viewport": {"northeast": {"lat": 28.5513614802915, "lng": 77.20841408029149}, "southwest": {"lat": 28.54866351970849, "lng": 77.20571611970848}}}, "opening_hours": {"open_now": true}, "place_id": "ChIJaUf4dw3jDDkRWC28C08Kvl0", "plus_code": {"global_code": "7JWVG6X4+XV", "compound_code": "G6X4+XV New Delhi, Delhi, India"}, "vicinity": "C23, Kharera, Hauz Khas, New Delhi", "photos": [{"photo_reference": "ATtYBwKmTbTTE9Z7lSZswpDqOy3QR5juSDqCKgjfhg_neHasCNw0iVm8gvAh1Gba2C3--xhP4e4ogWM-ccDTX2hQJzD_Y0jx3fNaNzWibqTvPJ_5kSLupKZPzpaav-HPg-6J-fJQL-5qMq8LYa4wKrKK6c7hIrLZwgVnZ-WWsIqp3-GWVbR4", "width": 1280, "html_attributions": ["<a href=\"https://maps.google.com/maps/contrib/109352609028460107997\">Wee Care Clinic Center for Pediatrics, Best Children Clinic in South Delhi, Best Newborn Specialist, Best Child Specialist, Autism, ADHD, Vaccination Clinic</a>"], "height": 719}], "scope": "GOOGLE", "business_status": "OPERATIONAL", "types": ["hospital", "doctor", "health", "point_of_interest", "establishment"], "icon": "https://maps.gstatic.com/mapfiles/place_api/icons/v1/png_71/generic_business-71.png"}, {"rating": 4.9, "user_ratings_total": 890, "name": "Dr. Lipy Gupta, Dermatologist in Delhi, Skin Specialist", "reference": "ChIJuSoNpnPiDDkRBsiccDIO-J0", "geometry": {"location": {"lat": 28.5560586, "lng": 77.2019888}, "viewport": {"northeast": {"lat": 28.5574170302915, "lng": 77.20329153029151}, "southwest": {"lat": 28.55471906970849, "lng": 77.2005935697085}}}, "opening_hours": {"open_now": false}, "place_id": "ChIJuSoNpnPiDDkRBsiccDIO-J0", "plus_code": {"global_code": "7JWVH642+CQ", "compound_code": "H642+CQ New Delhi, Delhi, India"}, "vicinity": "opposite Punjab Opticals, S-34 A Main Building, Green Park Family Medicine Clinic, opposite Punjab Opticals, Market Lane, Green Park, New Delhi", "photos": [{"photo_reference": "ATtYBwKSDu_3bZFltMDPlz0leCER7bPW9dOesCk9cpbmCMxv1EiK_gQ3g_Ujasfk1aTVBAGuEPBUfskx7Jzb5XRUrvyjMR8em7oiud9ntTk_L7t3c9TqrA6-eiMlQTZoF_wUNYdvAW8MyE1R9npn60VYLWcKuxma2Bou6Fu5hh2fTjJ4ZmVA", "width": 4928, "html_attributions": ["<a href=\"https://maps.google.com/maps/contrib/104682883486558801735\">Harish Upadhyay</a>"], "height": 3264}], "scope": "GOOGLE", "business_status": "OPERATIONAL", "types": ["beauty_salon", "hair_care", "doctor", "spa", "health", "point_of_interest", "establishment"], "icon": "https://maps.gstatic.com/mapfiles/place_api/icons/v1/png_71/generic_business-71.png"}, {"name": "Skin, Laser and Cosmetology Clinic", "reference": "ChIJzxpBp3PiDDkRjeu0E-QnzkY", "geometry": {"location": {"lat": 28.556076, "lng": 77.20205179999999}, "viewport": {"northeast": {"lat": 28.5574144302915, "lng": 77.20345493029151}, "southwest": {"lat": 28.5547164697085, "lng": 77.2007569697085}}}, "opening_hours": {"open_now": true}, "place_id": "ChIJzxpBp3PiDDkRjeu0E-QnzkY", "plus_code": {"global_code": "7JWVH642+CR", "compound_code": "H642+CR New Delhi, Delhi, India"}, "vicinity": "S-34, Green Park Extension, Green Park, New Delhi", "photos": [{"photo_reference": "ATtYBwKk5h3F8U7nO62nEiE1LIIoFT4AG083UGRQfz271h5o4-xGxbzIi4fLqHZOVs9FIL0ZYmpJ4Y6WH71JRFKvK3FpIWgSYcCC2KXSgS_rdLoCTgBmY2Hj9XkotNKBrVUyUw7de92KzeFISEp0BuSJPC8FBTrpp-TsGfZpxDurLpLB_cpM", "width": 3264, "html_attributions": ["<a href=\"https://maps.google.com/maps/contrib/100272851444565378303\">Skin, Laser and Cosmetology Clinic</a>"], "height": 2448}], "scope": "GOOGLE", "business_status": "OPERATIONAL", "types": ["beauty_salon", "hair_care", "doctor", "health", "point_of_interest", "establishment"], "icon": "https://maps.gstatic.com/mapfiles/place_api/icons/v1/png_71/generic_business-71.png"}, {"rating": 4.5, "user_ratings_total": 165, "name": "Kaya Clinic - Skin & Hair Care (Green Park, New Delhi)", "reference": "ChIJZdJ9p3PiDDkRjQjl_-zlIyA", "geometry": {"location": {"lat": 28.5564239, "lng": 77.20222629999999}, "viewport": {"northeast": {"lat": 28.55777468029151, "lng": 77.20356608029151}, "southwest": {"lat": 28.5550767197085, "lng": 77.2008681197085}}}, "opening_hours": {"open_now": true}, "place_id": "ChIJZdJ9p3PiDDkRjQjl_-zlIyA", "plus_code": {"global_code": "7JWVH642+HV", "compound_code": "H642+HV New Delhi, Delhi, India"}, "vicinity": "Main Market, S-36, 1st Floor, near Evergreen Sweet, Green Park, New Delhi", "photos": [{"photo_reference": "ATtYBwLIHFil9BUxfhkg1Jh1-nKiwBwlR_auJZu_Ft92a5rK92a7D1KUDRuUe-36fokyIUF7L_svXYobAgGOc1mSVd2AGuh0WJBhu6vYTyMZS4FeD4flZCaFRc4M6RbbgIYNy9Tzq-MEkUfB1Rn6BCemAbBw1QOi9GKqCGv74wWJSZoA4MIl", "width": 550, "html_attributions": ["<a href=\"https://maps.google.com/maps/contrib/107908738353604172058\">Kaya Clinic - Skin &amp; Hair Care (Green Park, New Delhi)</a>"], "height": 550}], "scope": "GOOGLE", "business_status": "OPERATIONAL", "types": ["beauty_salon", "hair_care", "doctor", "health", "point_of_interest", "establishment"], "icon": "https://maps.gstatic.com/mapfiles/place_api/icons/v1/png_71/generic_business-71.png"}, {"rating": 4.4, "user_ratings_total": 7, "name": "Dr. Morepen NOW - ECP Treatment", "reference": "ChIJiZWW9BLiDDkR5yuInjtLymI", "geometry": {"location": {"lat": 28.5509958, "lng": 77.20760840000001}, "viewport": {"northeast": {"lat": 28.5523964802915, "lng": 77.2089796802915}, "southwest": {"lat": 28.5496985197085, "lng": 77.20628171970849}}}, "opening_hours": {"open_now": false}, "place_id": "ChIJiZWW9BLiDDkR5yuInjtLymI", "plus_code": {"global_code": "7JWVH625+92", "compound_code": "H625+92 New Delhi, Delhi, India"}, "vicinity": "E-29, Main Market, Block E, Hauz Khas, New Delhi", "photos": [{"photo_reference": "ATtYBwLk-8u-VubJqdISScFoZO7D7PBTVPMkbaldMT-DYeRQ95Li1ng1kWlJsuvBcc6l1gAbQ8xBDSm6zoLoiyPPt-hro9s91IWL1uaoBnY_hTiurVtA1LvF0SqR4uCtp4ZGibwi_p_hghpIdj2Af4ZjpQZchu_7cniDurpRQrzo7UdJmUKP", "width": 5472, "html_attributions": ["<a href=\"https://maps.google.com/maps/contrib/117283380368256966430\">Dr. Morepen NOW - ECP Treatment</a>"], "height": 3648}], "scope": "GOOGLE", "business_status": "OPERATIONAL", "types": ["hospital", "doctor", "school", "health", "point_of_interest", "establishment"], "icon": "https://maps.gstatic.com/mapfiles/place_api/icons/v1/png_71/hospital-71.png"}, {"rating": 5, "user_ratings_total": 9, "name": "Dr. Mankul Goyal Skin & Hair Specialist", "reference": "ChIJoTtyuRLiDDkRafEZnys_r7c", "geometry": {"location": {"lat": 28.552631, "lng": 77.207173}, "viewport": {"northeast": {"lat": 28.5539567302915, "lng": 77.2085723802915}, "southwest": {"lat": 28.5512587697085, "lng": 77.2058744197085}}}, "opening_hours": {"open_now": false}, "place_id": "ChIJoTtyuRLiDDkRafEZnys_r7c", "plus_code": {"global_code": "7JWVH634+3V", "compound_code": "H634+3V New Delhi, Delhi, India"}, "vicinity": "D-72, Hauz Khas, New Delhi", "scope": "GOOGLE", "business_status": "OPERATIONAL", "types": ["doctor", "health", "point_of_interest", "establishment"], "icon": "https://maps.gstatic.com/mapfiles/place_api/icons/v1/png_71/generic_business-71.png"}, {"rating": 4.4, "user_ratings_total": 7, "name": "Homeocare", "reference": "ChIJP23krnPiDDkRVd4TIvZ7mPg", "geometry": {"location": {"lat": 28.556477, "lng": 77.202636}, "viewport": {"northeast": {"lat": 28.5578150802915, "lng": 77.2040368302915}, "southwest": {"lat": 28.55511711970849, "lng": 77.20133886970848}}}, "place_id": "ChIJP23krnPiDDkRVd4TIvZ7mPg", "plus_code": {"global_code": "7JWVH643+H3", "compound_code": "H643+H3 New Delhi, Delhi, India"}, "vicinity": "G-54, Block G, Green Park Extension, Green Park, New Delhi", "photos": [{"photo_reference": "ATtYBwJ8BOXg19k7GQ4b9tg5SgZIXUotgiQBbRCQMOPPbBaXSfw6V9OvDxM_yZOAdIacwCiibXLWtsyP1NiC_PYtx3hZ8dGrrTLt0E9ix7n9a5Zyu_0ZtTqmtAi_GTn6m-59ZUYNn9Fg-tRPe1lpKoT-IUDdi4BMnDbM48PByNpYzWDWElMv", "width": 4160, "html_attributions": ["<a href=\"https://maps.google.com/maps/contrib/111445576251694251583\">Prabhat Kumar</a>"], "height": 3120}], "scope": "GOOGLE", "business_status": "OPERATIONAL", "types": ["doctor", "health", "point_of_interest", "establishment"], "icon": "https://maps.gstatic.com/mapfiles/place_api/icons/v1/png_71/generic_business-71.png"}, {"rating": 4.8, "user_ratings_total": 56, "name": "Clove Dental", "reference": "ChIJB8tlsRLiDDkRsRXfkjEHqFg", "geometry": {"location": {"lat": 28.553153, "lng": 77.206988}, "viewport": {"northeast": {"lat": 28.5545579302915, "lng": 77.2083805302915}, "southwest": {"lat": 28.5518599697085, "lng": 77.20568256970849}}}, "opening_hours": {"open_now": true}, "place_id": "ChIJB8tlsRLiDDkRsRXfkjEHqFg", "plus_code": {"global_code": "7JWVH634+7Q", "compound_code": "H634+7Q New Delhi, Delhi, India"}, "vicinity": "H1-A, Main Market Road, Opp Neeli Masjid, Hauz Khas, New Delhi", "photos": [{"photo_reference": "ATtYBwK4pFyZ5g32YLizmlxMKnRmNb5v7w8nJyIomWf472d9hVAUL4gDCLg1_0l9VKEdJKfuhfpzMFaKSq_yqDv5q06ExHTCnzQkjewZgHtd8DsDi8NytrY3_b6Mg6g0LgQ3nGGhvc7IBFlnG1hyOpwCyWBlBLnHr7RSIcJNVS6M_WRFUrQG", "width": 753, "html_attributions": ["<a href=\"https://maps.google.com/maps/contrib/116376640745253660727\">Clove Dental</a>"], "height": 363}], "scope": "GOOGLE", "business_status": "OPERATIONAL", "types": ["doctor", "dentist", "health", "point_of_interest", "establishment"], "icon": "https://maps.gstatic.com/mapfiles/place_api/icons/v1/png_71/generic_business-71.png"}, {"rating": 5, "user_ratings_total": 9, "name": "HomoeoCARE - Homoeopathic Clinic", "reference": "ChIJxXii03PiDDkRPUADB_x48uI", "geometry": {"location": {"lat": 28.5565091, "lng": 77.20262389999999}, "viewport": {"northeast": {"lat": 28.5578751302915, "lng": 77.20389718029149}, "southwest": {"lat": 28.5551771697085, "lng": 77.20119921970849}}}, "opening_hours": {"open_now": true}, "place_id": "ChIJxXii03PiDDkRPUADB_x48uI", "plus_code": {"global_code": "7JWVH643+J2", "compound_code": "H643+J2 New Delhi, Delhi, India"}, "vicinity": "opp. Evergreen sweet shop, G-55, opp. Evergreen sweet shop, Block G, Green Park, New Delhi", "photos": [{"photo_reference": "ATtYBwINJ7dmNodq2syIPoCrQ3Ftz7fbhE3l2C55_aDc7dgHLDVSatW6rxR6G6RUh2bFXsfEJjDlJ-5rfb4wDABcW5BexfsayR9fHu1y2_OXdQDhyxE98Izn7OQQ4mWx4POLfUUAbPNs7YkiAjA6qt8OUbCOFn1GyrSsyth276sCAUi88U0p", "width": 1280, "html_attributions": ["<a href=\"https://maps.google.com/maps/contrib/105816429967478860707\">HomoeoCARE - Homoeopathic Clinic</a>"], "height": 766}], "scope": "GOOGLE", "business_status": "OPERATIONAL", "types": ["doctor", "health", "point_of_interest", "establishment"], "icon": "https://maps.gstatic.com/mapfiles/place_api/icons/v1/png_71/generic_business-71.png"}, {"rating": 4.4, "user_ratings_total": 9, "name": "Dr. Himanshu Pande", "reference": "ChIJz1lz9hLiDDkRMSlZYHj82Aw", "geometry": {"location": {"lat": 28.550853, "lng": 77.207844}, "viewport": {"northeast": {"lat": 28.55214903029151, "lng": 77.2091721302915}, "southwest": {"lat": 28.5494510697085, "lng": 77.20647416970849}}}, "opening_hours": {"open_now": false}, "place_id": "ChIJz1lz9hLiDDkRMSlZYHj82Aw", "plus_code": {"global_code": "7JWVH625+84", "compound_code": "H625+84 New Delhi, Delhi, India"}, "vicinity": "Dr. Morepen NOW Heart Health Centre, E-29 Hauz Khas, New Delhi", "photos": [{"photo_reference": "ATtYBwIEuTJq0IclorJm1y5m_RQXY02fRk4a2yLt1qxdf85PIRTC0B7IcnaTX-B1nZMW5HkTnn6Nbc10qFBLbVTgoXQmUDc_szkch7QzIKg5hdIG-Xr42OJ0MnftA2z9PNH_AHix1Gkg_li0fGMETO3jsIQbM4iRZgvD2DzdKj-ax7DNPNMT", "width": 750, "html_attributions": ["<a href=\"https://maps.google.com/maps/contrib/104422845867191738831\">Dr. Himanshu Pande</a>"], "height": 500}], "scope": "GOOGLE", "business_status": "OPERATIONAL", "types": ["hospital", "doctor", "health", "point_of_interest", "establishment"], "icon": "https://maps.gstatic.com/mapfiles/place_api/icons/v1/png_71/generic_business-71.png"}, {"rating": 4.6, "user_ratings_total": 32, "name": "Metamorphosis Clinic - Skin & Hair Specialist in Green Park, New Delhi | Dermatologist in New Delhi", "reference": "ChIJBQg9tHPiDDkReGxj2K-SRp0", "geometry": {"location": {"lat": 28.5572105, "lng": 77.2028148}, "viewport": {"northeast": {"lat": 28.5591958302915, "lng": 77.2042302802915}, "southwest": {"lat": 28.55649786970849, "lng": 77.20153231970849}}}, "opening_hours": {"open_now": true}, "place_id": "ChIJBQg9tHPiDDkReGxj2K-SRp0", "plus_code": {"global_code": "7JWVH643+V4", "compound_code": "H643+V4 New Delhi, Delhi, India"}, "vicinity": "below Cocoberry, G-47, Green Park Main, Market, New Delhi", "photos": [{"photo_reference": "ATtYBwLMmO3EZsk4_jZeE4yHjhVVbVLX3Aa3Ii7b74C-brMfw7ym-TujnxoukQQpz_HjkeCLR66Xud049iPC1jJh60itHXCJHF-9zouhEc7yFWe39Pcepuc9pfgMWiypwUyCFQAvPoIcuzf31rI17Bwuxv4FTsmnuJuEkH24wkgcnhMVXoed", "width": 960, "html_attributions": ["<a href=\"https://maps.google.com/maps/contrib/103441786130471451141\">Metamorphosis Clinic - Skin &amp; Hair Specialist in Green Park, New Delhi | Dermatologist in New Delhi</a>"], "height": 1280}], "scope": "GOOGLE", "business_status": "OPERATIONAL", "types": ["beauty_salon", "hair_care", "doctor", "health", "point_of_interest", "establishment"], "icon": "https://maps.gstatic.com/mapfiles/place_api/icons/v1/png_71/generic_business-71.png"}, {"rating": 4.1, "user_ratings_total": 14, "name": "Priority Hearing, Green Park", "reference": "ChIJgYtWVfbhDDkR7X72YBZBgyI", "geometry": {"location": {"lat": 28.5567138, "lng": 77.2042206}, "viewport": {"northeast": {"lat": 28.5581249302915, "lng": 77.20561293029151}, "southwest": {"lat": 28.5554269697085, "lng": 77.20291496970849}}}, "opening_hours": {"open_now": true}, "place_id": "ChIJgYtWVfbhDDkR7X72YBZBgyI", "plus_code": {"global_code": "7JWVH643+MM", "compound_code": "H643+MM New Delhi, Delhi, India"}, "vicinity": "near Central Bank, E-12, Green Park Main, Green Park, New Delhi", "photos": [{"photo_reference": "ATtYBwLtE9jh1DCAtiOfaZqQKOxAgWtQeWb9X6Fk5fmnNmkcma0rxREiWI1wa5tkDDsXNrIQAaH7w1A4AbC1BUuyRR9vKSQsWlnfEuRe9a9AtQWeNVLcy9N7hYEd8-BcZef6Xt78Z0Qn8eX-F3dcxzZlnPlr_pk4HpiSTzKIlCJzhD2L36cO", "width": 1420, "html_attributions": ["<a href=\"https://maps.google.com/maps/contrib/112540900528991748488\">Priority Hearing, Green Park</a>"], "height": 799}], "scope": "GOOGLE", "business_status": "OPERATIONAL", "types": ["doctor", "health", "point_of_interest", "store", "establishment"], "icon": "https://maps.gstatic.com/mapfiles/place_api/icons/v1/png_71/generic_business-71.png"}, {"rating": 4.2, "user_ratings_total": 9, "name": "Dr. Manisha Raza", "reference": "ChIJ_y4L9hLiDDkRkkJw0saEdLg", "geometry": {"location": {"lat": 28.5530681, "lng": 77.2081184}, "viewport": {"northeast": {"lat": 28.5544528802915, "lng": 77.20939463029151}, "southwest": {"lat": 28.5517549197085, "lng": 77.2066966697085}}}, "opening_hours": {"open_now": false}, "place_id": "ChIJ_y4L9hLiDDkRkkJw0saEdLg", "plus_code": {"global_code": "7JWVH635+66", "compound_code": "H635+66 New Delhi, Delhi, India"}, "vicinity": "E-29, Hauz Khas Road, Main Market, Block X, Hauz Khas, New Delhi", "photos": [{"photo_reference": "ATtYBwJnBMrA2rtAl4jbuWyAm3pxgw-fjpMfNL0v8-3gkbHOp4F7buiW0LrP102HT6hqJsm8wtu7Klr48L15-wOoJzowmu0wgmM5VrwoLuqDKQifqOqjvFNjgJplXafuz0eeNYL1fotns6Vr0HZzFfV84ae0COtTg41krcUTgbduJaqdKzF7", "width": 750, "html_attributions": ["<a href=\"https://maps.google.com/maps/contrib/117263217490993866633\">Dr. Manisha Raza</a>"], "height": 500}], "scope": "GOOGLE", "business_status": "OPERATIONAL", "types": ["hospital", "doctor", "health", "point_of_interest", "establishment"], "icon": "https://maps.gstatic.com/mapfiles/place_api/icons/v1/png_71/generic_business-71.png"}, {"rating": 4, "user_ratings_total": 47, "name": "South Delhi Urology Clinic", "reference": "ChIJSyxFzBLiDDkRsWd8ZuQ4wFs", "geometry": {"location": {"lat": 28.5533993, "lng": 77.2080194}, "viewport": {"northeast": {"lat": 28.5547244302915, "lng": 77.20943633029151}, "southwest": {"lat": 28.55202646970849, "lng": 77.2067383697085}}}, "opening_hours": {"open_now": false}, "place_id": "ChIJSyxFzBLiDDkRsWd8ZuQ4wFs", "plus_code": {"global_code": "7JWVH635+96", "compound_code": "H635+96 New Delhi, Delhi, India"}, "vicinity": "X/17, Block X, Hauz Khas, New Delhi", "photos": [{"photo_reference": "ATtYBwJTSCsDBZeOAAt8Fvp99Ck2a360UDBaPiV0GCR2CaDjskeMFuwl22s5mu64DEIPEk6XdUCPtnaWZoMVKckieomkU4C5lMh-0FT5uvIFvWI2cIlU8_sWkXWhMLvMLzNrgOvV6ENsTBp-QL24fwu-Ys5ctfcljKILgxSruyBUJv_ajTe7", "width": 1920, "html_attributions": ["<a href=\"https://maps.google.com/maps/contrib/107007408724261261299\">manu chauhan</a>"], "height": 1080}], "scope": "GOOGLE", "business_status": "OPERATIONAL", "types": ["doctor", "health", "point_of_interest", "establishment"], "icon": "https://maps.gstatic.com/mapfiles/place_api/icons/v1/png_71/generic_business-71.png"}, {"rating": 4.3, "user_ratings_total": 27, "name": "Dr. Gorav Gupta", "reference": "ChIJVzkI9A_iDDkR16bkbx2n260", "geometry": {"location": {"lat": 28.5428373, "lng": 77.2037086}, "viewport": {"northeast": {"lat": 28.5441857302915, "lng": 77.2050643302915}, "southwest": {"lat": 28.5414877697085, "lng": 77.20236636970849}}}, "place_id": "ChIJVzkI9A_iDDkR16bkbx2n260", "plus_code": {"global_code": "7JWVG6V3+4F", "compound_code": "G6V3+4F New Delhi, Delhi, India"}, "vicinity": "2/6, Sarvapriya Vihar, New Delhi", "photos": [{"photo_reference": "ATtYBwJTC86HlVLQcLBkcp4Q5Rq6BbTh0IuyKVqO61zZn7i3wACtrWOJ78asPCJqWureHru5JFANDL5ZFuhFXqRXmppR1ooVNsYGVcUWQDFNsdQ0xgssuJeHFtj4_EB9ztSNlEZdq9xNzolPlJD35tUy4bzrZ2V1wIKhNIFYsWkWij34e9-2", "width": 524, "html_attributions": ["<a href=\"https://maps.google.com/maps/contrib/113974315335338364155\">Dr. Gorav Gupta</a>"], "height": 271}], "scope": "GOOGLE", "business_status": "OPERATIONAL", "types": ["doctor", "health", "point_of_interest", "establishment"], "icon": "https://maps.gstatic.com/mapfiles/place_api/icons/v1/png_71/generic_business-71.png"}, {"rating": 3.3, "user_ratings_total": 15, "name": "Dr. Yash Gulati Clinics", "reference": "ChIJY9x9W3LiDDkR5BpqGKNycx8", "geometry": {"location": {"lat": 28.5569124, "lng": 77.2043757}, "viewport": {"northeast": {"lat": 28.5581890302915, "lng": 77.20570778029152}, "southwest": {"lat": 28.55549106970849, "lng": 77.2030098197085}}}, "opening_hours": {"open_now": false}, "place_id": "ChIJY9x9W3LiDDkR5BpqGKNycx8", "plus_code": {"global_code": "7JWVH643+QQ", "compound_code": "H643+QQ New Delhi, Delhi, India"}, "vicinity": "near YES Bank, E -12, Green Park Main, Green Park, New Delhi", "photos": [{"photo_reference": "ATtYBwIRZS1pUkFRBSxZxcXP2NBi-utfto1ZiD6ph9PeL6cFThvfWgyFifwdMbwCaOP26docO9cKH1H_9D74BMd7PGiQCiNsm0tSH9Vz6KsQKzv3loRUDNJQjEi0U6g4OhFvS14MF_O1khFI1H62agA5dPzvsri6e52L0S1zoWC7CKegCjMV", "width": 4608, "html_attributions": ["<a href=\"https://maps.google.com/maps/contrib/116888889030604677897\">Nitin Chandra</a>"], "height": 3456}], "scope": "GOOGLE", "business_status": "OPERATIONAL", "types": ["doctor", "health", "point_of_interest", "establishment"], "icon": "https://maps.gstatic.com/mapfiles/place_api/icons/v1/png_71/generic_business-71.png"}, {"rating": 4.7, "user_ratings_total": 9, "name": "Dr. Rajeev Seth Clinic", "reference": "ChIJ5yxDZnLiDDkRA6JGUyySSl4", "geometry": {"location": {"lat": 28.5568728, "lng": 77.20496849999999}, "viewport": {"northeast": {"lat": 28.5581223302915, "lng": 77.2063003802915}, "southwest": {"lat": 28.55542436970849, "lng": 77.20360241970849}}}, "opening_hours": {"open_now": true}, "place_id": "ChIJ5yxDZnLiDDkRA6JGUyySSl4", "plus_code": {"global_code": "7JWVH643+PX", "compound_code": "H643+PX New Delhi, Delhi, India"}, "vicinity": "near Central Bank, E-10, near Central Bank, Market, Green Park, New Delhi", "scope": "GOOGLE", "business_status": "OPERATIONAL", "types": ["doctor", "health", "point_of_interest", "establishment"], "icon": "https://maps.gstatic.com/mapfiles/place_api/icons/v1/png_71/generic_business-71.png"}, {"rating": 4.9, "user_ratings_total": 34, "name": "Dental Tree", "reference": "ChIJ_4lOuHPiDDkRztHtmg8kxYU", "geometry": {"location": {"lat": 28.5576793, "lng": 77.2029233}, "viewport": {"northeast": {"lat": 28.5590413802915, "lng": 77.2042069802915}, "southwest": {"lat": 28.5563434197085, "lng": 77.2015090197085}}}, "opening_hours": {"open_now": true}, "place_id": "ChIJ_4lOuHPiDDkRztHtmg8kxYU", "plus_code": {"global_code": "7JWVH653+35", "compound_code": "H653+35 New Delhi, Delhi, India"}, "vicinity": "opp. Geetanjali Salon, G-42, 1st Floor, opp. Geetanjali Salon, Market, Block G, Green Park Extension, Green Park, New Delhi", "photos": [{"photo_reference": "ATtYBwJrHjw4e_i-IRIeyPr8Mcmdeps14E9bH1e16DQWiKQlz2gYA0aT1PzD0GgU88XFZ1s4QzeFFgLLZ26Lw9NPHhW7HcZwRpqF9YYVlj0CBku2uf5XQEmjCX97FiNfj05ecrm6wCsNjm7vK3r0UO7A1l6BqKoTahS8u263uHqAnv-dRMw", "width": 3319, "html_attributions": ["<a href=\"https://maps.google.com/maps/contrib/109517663871674694980\">Dental Tree</a>"], "height": 1957}], "scope": "GOOGLE", "business_status": "OPERATIONAL", "types": ["dentist", "doctor", "health", "point_of_interest", "establishment"], "icon": "https://maps.gstatic.com/mapfiles/place_api/icons/v1/png_71/generic_business-71.png"}, {"rating": 4.1, "user_ratings_total": 20, "name": "Skin Plus Clinic", "reference": "ChIJPyu_cQ3iDDkR3ItAKFME07k", "geometry": {"location": {"lat": 28.552454, "lng": 77.208917}, "viewport": {"northeast": {"lat": 28.5537256802915, "lng": 77.21020938029152}, "southwest": {"lat": 28.5510277197085, "lng": 77.2075114197085}}}, "opening_hours": {"open_now": true}, "place_id": "ChIJPyu_cQ3iDDkR3ItAKFME07k", "plus_code": {"global_code": "7JWVH625+XH", "compound_code": "H625+XH New Delhi, Delhi, India"}, "vicinity": "A-24, Hauz Khas, Beside HDFC Bank, New Delhi", "photos": [{"photo_reference": "ATtYBwLHt0plUMfFQ1inmD1dXW3hpTwEhXtREXeFASfjMA_Kn1JkaX98iUX27RP0ofvKqhl9RuuhZagnh6KM9OH5NqK5pS5WnU8SvNr7P_BQ1tj9-72-Ji1bLOC7iSm-MaPf2ygsEavZXuO9VTI0VzoL2xTh6ZUhGXPKUJYR1Lyu3Yf0yWF6", "width": 5184, "html_attributions": ["<a href=\"https://maps.google.com/maps/contrib/100549606698659093010\">Skin Plus Clinic</a>"], "height": 3456}], "scope": "GOOGLE", "business_status": "OPERATIONAL", "types": ["beauty_salon", "hair_care", "doctor", "health", "point_of_interest", "establishment"], "icon": "https://maps.gstatic.com/mapfiles/place_api/icons/v1/png_71/generic_business-71.png"}]}