{"status": "OK", "next_page_token": "ATtYBwJv9XykFIvdyHtb3K9-sFlaiJZVRL8JnwGSsJP_ITJwwlz6N2tnG_vvnErmtQozcQgC6cgABumRtNl1sUq66rZ-E37ycKpj_pKa9Pzv4eIBu0eT1wqzCHmKv_wvjk_cSBajLpe9acqBEY41h1m7pku5JpBGX7gk1zLZimG2WPw_OfKMgh0FTAlDf4xo12IxjgVKhjQ0-IcNRdeIhsKHh2-4DL7yA7z8O9LnPIrxfMkHscRTUsxyHBXUSdbEd7xomG1hPloHvbRttYRg7G4f7wSTL2f0XD_eo-j-pX9SsGEL0jb3ARxbH1MCWNMSndoJv2okrkKAA1GXRS-gHd9DdltLGrmB67bdR5-yAHC0-P_49JTkjU8MT8pvEb_glWR4zNugXXckcXiq_CMRloyFXU7jTj3RsyLEYWnzgNMQbBRrWu9UNMW3mbuMy44uKtXZIz7aIAeg89OmscIAbAcKxnATVQEGYF6Jd1U0Z_fz6RAka-Rkjt0pKXSwQN772CH3VbEoCTEeiy4Ywy6MCTAEViBSAmKBleX85GUbC8SlGUYUpzKAO5N__IoOp5rGSAuiMrsY-D0LsQCqrbhITOYhzKyMU7lDDwiN8SppnetRiGcgm1vdfPp1Y9vYdNTYJr_3vL4", "html_attributions": [], "results": [{"rating": 5, "user_ratings_total": 1, "name": "Dr Rajat Ray", "reference": "ChIJBQaVuWXiDDkRSz6vOgQWD4c", "geometry": {"location": {"lat": 28.5674368, "lng": 77.20969149999999}, "viewport": {"northeast": {"lat": 28.5688021802915, "lng": 77.21094868029151}, "southwest": {"lat": 28.5661042197085, "lng": 77.20825071970849}}}, "place_id": "ChIJBQaVuWXiDDkRSz6vOgQWD4c", "plus_code": {"global_code": "7JWVH685+XV", "compound_code": "H685+XV New Delhi, Delhi, India"}, "vicinity": "AIIMS Campus, Ansari Nagar East, New Delhi", "scope": "GOOGLE", "business_status": "OPERATIONAL", "types": ["doctor", "health", "point_of_interest", "establishment"], "icon": "https://maps.gstatic.com/mapfiles/place_api/icons/v1/png_71/generic_business-71.png"}, {"rating": 4.4, "user_ratings_total": 8, "name": "Dr. NP Gupta", "reference": "ChIJZzntsGXiDDkRcLqLHKmdi-c", "geometry": {"location": {"lat": 28.56748949999999, "lng": 77.209693}, "viewport": {"northeast": {"lat": 28.5688428802915, "lng": 77.2109502802915}, "southwest": {"lat": 28.5661449197085, "lng": 77.20825231970848}}}, "opening_hours": {"open_now": true}, "place_id": "ChIJZzntsGXiDDkRcLqLHKmdi-c", "plus_code": {"global_code": "7JWVH685+XV", "compound_code": "H685+XV New Delhi, Delhi, India"}, "vicinity": "AIIMS Campus, Ansari Nagar East, New Delhi", "photos": [{"photo_reference": "ATtYBwKdgO0c7PDcHo-nymRvPGVHmLe0T4-5T2yyFmnZJTzQlxrAwad8ijlilwEM_Vd8TqxGAhQatvS_irAWbARfWHP6LgkGp3VEza4qtLSDxhppvyoGIpc_g_oE9U2Yq-hqBj8-xXbTYcY7ZQwv4G9bCP-N0YjNX5J2L3-OB9Flbn-ljdk7", "width": 720, "html_attributions": ["<a href=\"https://maps.google.com/maps/contrib/104994158002686005125\">Raj Kumar</a>"], "height": 1280}], "scope": "GOOGLE", "business_status": "OPERATIONAL", "types": ["doctor", "health", "point_of_interest", "establishment"], "icon": "https://maps.gstatic.com/mapfiles/place_api/icons/v1/png_71/generic_business-71.png"}, {"rating": 4.5, "user_ratings_total": 27, "name": "NephroPlus Dialysis center at Adiva Super Speciality Hospital", "reference": "ChIJm7uNB27iDDkRGilPwM7P7qM", "geometry": {"location": {"lat": 28.561622, "lng": 77.204455}, "viewport": {"northeast": {"lat": 28.5629745302915, "lng": 77.20578668029151}, "southwest": {"lat": 28.5602765697085, "lng": 77.2030887197085}}}, "opening_hours": {"open_now": true}, "place_id": "ChIJm7uNB27iDDkRGilPwM7P7qM", "plus_code": {"global_code": "7JWVH663+JQ", "compound_code": "H663+JQ New Delhi, Delhi, India"}, "vicinity": "C 1/C, Green Park Extension,, 4th floor, New Delhi", "photos": [{"photo_reference": "ATtYBwIqN2PwqjJiZfvrr3CQv2WOOEwxTXXZcgYwGG17xhQOXKfDZpssePkbckYoNR_VE586gyzZzJ-fDzBABH3znKLWREnOATyv-egkMjumGtxnZw-DGp1S5oc92PLTBItpP1HKtMvmEWWWuaemlpjZTVuQNEPumfyhiUUkqm-zNpLBr4kI", "width": 400, "html_attributions": ["<a href=\"https://maps.google.com/maps/contrib/112039378613388448147\">NephroPlus Dialysis center at Adiva Super Speciality Hospital</a>"], "height": 400}], "scope": "GOOGLE", "business_status": "OPERATIONAL", "types": ["hospital", "doctor", "health", "point_of_interest", "establishment"], "icon": "https://maps.gstatic.com/mapfiles/place_api/icons/v1/png_71/generic_business-71.png"}, {"name": "Diagnostics", "reference": "ChIJI1FsNnHiDDkRrWzfRrcw-Sk", "geometry": {"location": {"lat": 28.5604011, "lng": 77.2006114}, "viewport": {"northeast": {"lat": 28.5619442302915, "lng": 77.20210823029149}, "southwest": {"lat": 28.5592462697085, "lng": 77.19941026970848}}}, "opening_hours": {"open_now": true}, "place_id": "ChIJI1FsNnHiDDkRrWzfRrcw-Sk", "plus_code": {"global_code": "7JWVH662+56", "compound_code": "H662+56 New Delhi, Delhi, India"}, "vicinity": "23/1, Ground Floor, Main Road, Green Park Extension Road, Block B 7, Arjun Nagar, Safdarjung Enclave, New Delhi", "scope": "GOOGLE", "business_status": "OPERATIONAL", "types": ["doctor", "health", "point_of_interest", "establishment"], "icon": "https://maps.gstatic.com/mapfiles/place_api/icons/v1/png_71/generic_business-71.png"}, {"rating": 4.8, "user_ratings_total": 21, "name": "Dr. Deepak Agrawal", "reference": "ChIJzXM4zS39DDkRBMSDxrsn1Pg", "geometry": {"location": {"lat": 28.5666339, "lng": 77.2105461}, "viewport": {"northeast": {"lat": 28.56955304999999, "lng": 77.2122110302915}, "southwest": {"lat": 28.56566085000001, "lng": 77.20951306970849}}}, "place_id": "ChIJzXM4zS39DDkRBMSDxrsn1Pg", "plus_code": {"global_code": "7JWVH686+M6", "compound_code": "H686+M6 New Delhi, Delhi, India"}, "vicinity": "AIIMS Campus, Ansari Nagar East, New Delhi", "scope": "GOOGLE", "business_status": "OPERATIONAL", "types": ["doctor", "health", "point_of_interest", "establishment"], "icon": "https://maps.gstatic.com/mapfiles/place_api/icons/v1/png_71/generic_business-71.png"}, {"rating": 4.3, "user_ratings_total": 31, "name": "AIIMS NEURO", "reference": "ChIJh11U6mXiDDkRV8z3OgD42UQ", "geometry": {"location": {"lat": 28.5666262, "lng": 77.2105325}, "viewport": {"northeast": {"lat": 28.5679758302915, "lng": 77.21186828029151}, "southwest": {"lat": 28.5652778697085, "lng": 77.2091703197085}}}, "opening_hours": {"open_now": true}, "place_id": "ChIJh11U6mXiDDkRV8z3OgD42UQ", "plus_code": {"global_code": "7JWVH686+M6", "compound_code": "H686+M6 New Delhi, Delhi, India"}, "vicinity": "AIIMS Campus, Ansari Nagar East, New Delhi", "photos": [{"photo_reference": "ATtYBwLx9HdRPp9u0a04NOhAsWVO9ByMZic9k7xIZWjNfSsOjJ7SMcxlZ4vL_-Yi0SBkv_Pd2XpuUu_otTwDZSYdLsXyHirhq3-M0Wi5X_kBAGjEDeZm94MUkj48-XlCJRh8Yp-el9B6-c3WOXBCTw3M1qSiu5T-9h_nHrdMcHMBV1plG2dE", "width": 4160, "html_attributions": ["<a href=\"https://maps.google.com/maps/contrib/113054510031012608588\">Deepak Verma</a>"], "height": 3120}], "scope": "GOOGLE", "business_status": "OPERATIONAL", "types": ["doctor", "health", "point_of_interest", "establishment"], "icon": "https://maps.gstatic.com/mapfiles/place_api/icons/v1/png_71/generic_business-71.png"}, {"rating": 5, "user_ratings_total": 4, "name": "Dr. Madhurima Sharma", "reference": "ChIJq6qqqosdDTkROB2m4ctFo2o", "geometry": {"location": {"lat": 28.5593718, "lng": 77.2030413}, "viewport": {"northeast": {"lat": 28.5607069302915, "lng": 77.2044652802915}, "southwest": {"lat": 28.5580089697085, "lng": 77.2017673197085}}}, "opening_hours": {"open_now": true}, "place_id": "ChIJq6qqqosdDTkROB2m4ctFo2o", "plus_code": {"global_code": "7JWVH653+P6", "compound_code": "H653+P6 New Delhi, Delhi, India"}, "vicinity": "F-11, Green Park Extension, Green Park, New Delhi", "scope": "GOOGLE", "business_status": "OPERATIONAL", "types": ["doctor", "health", "point_of_interest", "establishment"], "icon": "https://maps.gstatic.com/mapfiles/place_api/icons/v1/png_71/generic_business-71.png"}, {"rating": 4.6, "user_ratings_total": 18, "name": "Health Sanctuary - Weight Loss, Anti-Aging & Ayurveda", "reference": "ChIJ79n_aXjiDDkRJoo0t6UflW4", "geometry": {"location": {"lat": 28.5597137, "lng": 77.198813}, "viewport": {"northeast": {"lat": 28.5610346302915, "lng": 77.20024083029149}, "southwest": {"lat": 28.5583366697085, "lng": 77.19754286970849}}}, "opening_hours": {"open_now": true}, "place_id": "ChIJ79n_aXjiDDkRJoo0t6UflW4", "plus_code": {"global_code": "7JWVH55X+VG", "compound_code": "H55X+VG New Delhi, Delhi, India"}, "vicinity": "A1, 19, Safdarjung Enclave, New Delhi", "photos": [{"photo_reference": "ATtYBwK0MuqAkJgFMuZuKWH_iK2TOXsWzOidRQ15JN7zLTLmyBpawxpis-vURNQqIi8mbM6V8aL1yO5N6_FYv6uOwXbSUESFOystRL_vPdSlDYtlF0-2vh9G8uGTdA0LlwjiQlOiix24p27bR4dk5Y6wUkIZebq3XZGVIbNI3h9ZY_27YWhX", "width": 470, "html_attributions": ["<a href=\"https://maps.google.com/maps/contrib/105897808910793729839\">Health Sanctuary - Weight Loss, Anti-Aging &amp; Ayurveda</a>"], "height": 544}], "scope": "GOOGLE", "business_status": "OPERATIONAL", "types": ["beauty_salon", "hair_care", "doctor", "health", "point_of_interest", "establishment"], "icon": "https://maps.gstatic.com/mapfiles/place_api/icons/v1/png_71/generic_business-71.png"}, {"rating": 4.5, "user_ratings_total": 8, "name": "Shah Dental", "reference": "ChIJlUvVxnHiDDkRc6qbq8Ur6W4", "geometry": {"location": {"lat": 28.559401, "lng": 77.201914}, "viewport": {"northeast": {"lat": 28.5607578302915, "lng": 77.20322233029151}, "southwest": {"lat": 28.55805986970849, "lng": 77.20052436970849}}}, "opening_hours": {"open_now": true}, "place_id": "ChIJlUvVxnHiDDkRc6qbq8Ur6W4", "plus_code": {"global_code": "7JWVH652+QQ", "compound_code": "H652+QQ New Delhi, Delhi, India"}, "vicinity": "block u, U-2, Green Park Main, Green Park, New Delhi", "photos": [{"photo_reference": "ATtYBwKEUX_qdWRW7pgks1-_U39ODTN73bTThZnFVfQEim273dsu249FuGa7eumgHKUq3S0hnT6iXNuFB7GALqDjXvEYphNbmMWMNaZNbquUuzgb7jWevVRu4xkGEOjDCxQpReM494BRSVgPI7zRy9vJjziR-rAQkcpkRz5hcFCVE_85JXjC", "width": 468, "html_attributions": ["<a href=\"https://maps.google.com/maps/contrib/110064099221626952275\">Shah Dental</a>"], "height": 472}], "scope": "GOOGLE", "business_status": "OPERATIONAL", "types": ["doctor", "dentist", "health", "point_of_interest", "establishment"], "icon": "https://maps.gstatic.com/mapfiles/place_api/icons/v1/png_71/generic_business-71.png"}, {"rating": 4.2, "user_ratings_total": 73, "name": "LifeLine Laboratory- Best Diagnostic Center in Delhi", "reference": "ChIJu6Kp13PiDDkREpDUPm-kqfQ", "geometry": {"location": {"lat": 28.56007899999999, "lng": 77.2046567}, "viewport": {"northeast": {"lat": 28.5613992302915, "lng": 77.20599748029151}, "southwest": {"lat": 28.5587012697085, "lng": 77.2032995197085}}}, "opening_hours": {"open_now": true}, "place_id": "ChIJu6Kp13PiDDkREpDUPm-kqfQ", "plus_code": {"global_code": "7JWVH663+2V", "compound_code": "H663+2V New Delhi, Delhi, India"}, "vicinity": "H-11, Green Park Extension Road, Green Park, New Delhi", "photos": [{"photo_reference": "ATtYBwIOyrfUnxz4o_Dfk3S3IPDcJhBOp_ThguO39ZSFcxw6Pm1t9YJyL-jbq_yPQSMzs8f7o7APVR6hQYX5x_aZeIZ_CmgnzREBSSLwbvQ11MsQq6A-BQT-cWX2-WFufZZZvCZGpLfoV0OYAh3S4JhEKKh8bbqiomcSjRNehy-rloYdVMBc", "width": 800, "html_attributions": ["<a href=\"https://maps.google.com/maps/contrib/106926746485659635310\">LifeLine Laboratory- Best Diagnostic Center in Delhi</a>"], "height": 600}], "scope": "GOOGLE", "business_status": "OPERATIONAL", "types": ["doctor", "health", "point_of_interest", "establishment"], "icon": "https://maps.gstatic.com/mapfiles/place_api/icons/v1/png_71/generic_business-71.png"}, {"rating": 5, "user_ratings_total": 2, "name": "SRL Lab", "reference": "ChIJNw5eP27iDDkR1t3h8ecUaZg", "geometry": {"location": {"lat": 28.5610337, "lng": 77.2074414}, "viewport": {"northeast": {"lat": 28.5623877302915, "lng": 77.20874383029151}, "southwest": {"lat": 28.5596897697085, "lng": 77.20604586970849}}}, "opening_hours": {"open_now": true}, "place_id": "ChIJNw5eP27iDDkR1t3h8ecUaZg", "plus_code": {"global_code": "7JWVH664+CX", "compound_code": "H664+CX New Delhi, Delhi, India"}, "vicinity": "2, Sri Aurobindo Marg, Block Q, Green Park Extension, Green Park, New Delhi", "photos": [{"photo_reference": "ATtYBwIpZltkMC_cpxW0_7Wv5S3aQB2iKG78OVZPr4BVPGJni1GTO6RCXlbuvSuy8kw92XiA_ln0sLrFuoQAspEY8Wgp6UWVpe9jSFaQoyvKdUVXN8f1_hpRzlhqvpb53fbtjbr501ZSWMP1GM_LToEyj5pnLE0sPl6v0P62dEft5Ak1X1ar", "width": 3264, "html_attributions": ["<a href=\"https://maps.google.com/maps/contrib/116216670990121613163\">adismax</a>"], "height": 2448}], "scope": "GOOGLE", "business_status": "OPERATIONAL", "types": ["doctor", "health", "point_of_interest", "establishment"], "icon": "https://maps.gstatic.com/mapfiles/place_api/icons/v1/png_71/generic_business-71.png"}, {"rating": 4, "user_ratings_total": 1, "name": "Dr Vandana Lal", "reference": "ChIJC-xqj23iDDkRq2HE4gUneS0", "geometry": {"location": {"lat": 28.560706, "lng": 77.206997}, "viewport": {"northeast": {"lat": 28.5620440302915, "lng": 77.20843243029151}, "southwest": {"lat": 28.5593460697085, "lng": 77.2057344697085}}}, "place_id": "ChIJC-xqj23iDDkRq2HE4gUneS0", "plus_code": {"global_code": "7JWVH664+7Q", "compound_code": "H664+7Q New Delhi, Delhi, India"}, "vicinity": "opp. Sri Aurobindo Marg, J 5, Green Park, opp. Sri Aurobindo Marg, New Delhi", "scope": "GOOGLE", "business_status": "OPERATIONAL", "types": ["doctor", "health", "point_of_interest", "establishment"], "icon": "https://maps.gstatic.com/mapfiles/place_api/icons/v1/png_71/generic_business-71.png"}, {"rating": 4, "user_ratings_total": 61, "name": "LabsAdvisor Delhi", "reference": "ChIJ77pELG7iDDkRYiO2YcQS51U", "geometry": {"location": {"lat": 28.5590622, "lng": 77.20339589999999}, "viewport": {"northeast": {"lat": 28.5606955802915, "lng": 77.20497163029151}, "southwest": {"lat": 28.55799761970849, "lng": 77.20227366970849}}}, "opening_hours": {"open_now": true}, "place_id": "ChIJ77pELG7iDDkRYiO2YcQS51U", "plus_code": {"global_code": "7JWVH653+J9", "compound_code": "H653+J9 Green Park Extension, Green Park, New Delhi, Delhi, India"}, "vicinity": "T22A, Second Floor, Green Park Extension", "photos": [{"photo_reference": "ATtYBwJ1DI7jxRvF3-baKS3vjEBGpbt2aSESWhh9BaqmTlUpLJyl5DuM5v6wy21TezBeVTXH73kZlg0CTSa7iqYzncHoirzhNbXF0jCMRn73K69v73R2lJhNkt0I8fXv2_1ZnQyl7PDoJKKe_cXYF7IELhYH2Zw1WyBTyjPIOoRbwsaunvfa", "width": 3120, "html_attributions": ["<a href=\"https://maps.google.com/maps/contrib/111722925896062415633\">Sumit Kushwaha</a>"], "height": 4160}], "scope": "GOOGLE", "business_status": "OPERATIONAL", "types": ["doctor", "health", "point_of_interest", "establishment"], "icon": "https://maps.gstatic.com/mapfiles/place_api/icons/v1/png_71/generic_business-71.png"}, {"rating": 4.8, "user_ratings_total": 635, "name": "Green Park Dental Clinic", "reference": "ChIJzaHo3nHiDDkR0O3Cj0tq52E", "geometry": {"location": {"lat": 28.559819, "lng": 77.205894}, "viewport": {"northeast": {"lat": 28.5611328302915, "lng": 77.20723298029151}, "southwest": {"lat": 28.5584348697085, "lng": 77.2045350197085}}}, "opening_hours": {"open_now": false}, "place_id": "ChIJzaHo3nHiDDkR0O3Cj0tq52E", "plus_code": {"global_code": "7JWVH654+W9", "compound_code": "H654+W9 New Delhi, Delhi, India"}, "vicinity": "H-4, 1st Floor, Green Park Extension Marg, Block H, Green Park Extension, Green Park, New Delhi", "photos": [{"photo_reference": "ATtYBwKX-DgVqnwoxfafy9VbCeoUSXCSwoRT4-hd5c142I0Q_PnX2F0iLca7MgnDOwQE-mZ8V5KJ3HPxuQdT8fEpLd-niU4UZk0gICLAS_N3_wap6fP5j8jA_ErlthW0oyaiNkOxSGGJoxo2CcMQsM0NsRh0zWnGZf1nkRPHHB9Y70HNPgfY", "width": 960, "html_attributions": ["<a href=\"https://maps.google.com/maps/contrib/104741909983352491404\">Green Park Dental Clinic</a>"], "height": 540}], "scope": "GOOGLE", "business_status": "OPERATIONAL", "types": ["doctor", "dentist", "health", "point_of_interest", "establishment"], "icon": "https://maps.gstatic.com/mapfiles/place_api/icons/v1/png_71/generic_business-71.png"}, {"rating": 2.6, "user_ratings_total": 8, "name": "Dr Lal PathLabs", "reference": "ChIJTfc3sHgdDTkRrX49AvF0KCg", "geometry": {"location": {"lat": 28.5754031, "lng": 77.1881859}, "viewport": {"northeast": {"lat": 28.5767524302915, "lng": 77.1895847302915}, "southwest": {"lat": 28.5740544697085, "lng": 77.1868867697085}}}, "opening_hours": {"open_now": true}, "place_id": "ChIJTfc3sHgdDTkRrX49AvF0KCg", "plus_code": {"global_code": "7JWVH5GQ+57", "compound_code": "H5GQ+57 New Delhi, Delhi, India"}, "vicinity": "Vikram Chemist, 55,Netaji Nagar Market ,Behind 14, Netaji Nagar, New Delhi", "photos": [{"photo_reference": "ATtYBwIzIv-U5iErz3mVGLE8MfKgMq4RtVWZzZN9kxiVP2_FewpoR8tr_nMNd5HhH54PffLFc0Oh2-33XxreA6Qh7UInMzOkOY48Vawg1miYGSvkvTL6B2LW3CVSwREEwowNspdU-YfTXorZtgxNJb62Orw7wtNlKC7INoNEBgKn1awq26o4", "width": 4000, "html_attributions": ["<a href=\"https://maps.google.com/maps/contrib/105922310057762336030\">Ankur Meshram</a>"], "height": 3000}], "scope": "GOOGLE", "business_status": "OPERATIONAL", "types": ["doctor", "health", "point_of_interest", "establishment"], "icon": "https://maps.gstatic.com/mapfiles/place_api/icons/v1/png_71/generic_business-71.png"}, {"rating": 4.5, "user_ratings_total": 10, "name": "Dr Shobha, Liposuction, Vaginal Tightening, Vaginoplasty, Hymenoplasty,GYnecomastia Surgeon", "reference": "ChIJd-3rnjD9DDkRR1NG6QLo0f8", "geometry": {"location": {"lat": 28.5582047, "lng": 77.20392989999999}, "viewport": {"northeast": {"lat": 28.5595658802915, "lng": 77.20521908029151}, "southwest": {"lat": 28.55686791970849, "lng": 77.20252111970849}}}, "place_id": "ChIJd-3rnjD9DDkRR1NG6QLo0f8", "plus_code": {"global_code": "7JWVH653+7H", "compound_code": "H653+7H Delhi, India"}, "vicinity": "Dr Shobha Jindal Clinic, C-5, Green Park Extension, Green Park, South Delhi, Delhi, Delhi", "photos": [{"photo_reference": "ATtYBwLwwnHg2XJIuPhOYiApG0pQ_QcTbZlSuZ_gvNnhCnZ6ivyRBVeP6I0g273FPKT_deejegvlUiNz1C3062QIdm79FD41M2a473EwxcAgbpM8RmJH6AR03wiZWFOowsQ_MTXsO-XqlLa2RpT314bLZ2WDBE_vpydOCmHJBv5RH9auz-iU", "width": 600, "html_attributions": ["<a href=\"https://maps.google.com/maps/contrib/101865070820408429966\">Dr Shobha, Liposuction, Vaginal Tightening, Vaginoplasty, Hymenoplasty,GYnecomastia Surgeon</a>"], "height": 400}], "scope": "GOOGLE", "business_status": "OPERATIONAL", "types": ["beauty_salon", "hair_care", "doctor", "health", "point_of_interest", "establishment"], "icon": "https://maps.gstatic.com/mapfiles/place_api/icons/v1/png_71/generic_business-71.png"}, {"rating": 2.7, "user_ratings_total": 48, "name": "Oncquest Laboratories Ltd.", "reference": "ChIJs7bwAXriDDkR7E_rNqQIzCc", "geometry": {"location": {"lat": 28.5594239, "lng": 77.19412489999999}, "viewport": {"northeast": {"lat": 28.5607298302915, "lng": 77.19546848029151}, "southwest": {"lat": 28.5580318697085, "lng": 77.19277051970849}}}, "opening_hours": {"open_now": true}, "place_id": "ChIJs7bwAXriDDkR7E_rNqQIzCc", "plus_code": {"global_code": "7JWVH55V+QJ", "compound_code": "H55V+QJ New Delhi, Delhi, India"}, "vicinity": "opp. St. Thomas Church, B2/1A, Africa Avenue Road, opp. St. Thomas Church, Safdarjung Enclave, New Delhi", "photos": [{"photo_reference": "ATtYBwLzP005FoC9y2NPwwcRiEL_6VQio7YiCEnxLBv9V5fO9eSMthGzmgsjDIa7WWsS7r3enjFkrHkLFupxrZuE_wsXDmlndK1u5CKEENhOQpK_W9bk6J4ml2VHPlZVWJkdRuEXd3-kJwUUZH8DqVP5eoLHJ7g4xzWCQeRLT3OIDorOe4ST", "width": 1512, "html_attributions": ["<a href=\"https://maps.google.com/maps/contrib/100439376176374479050\">Oncquest Laboratories Ltd.</a>"], "height": 1512}], "scope": "GOOGLE", "business_status": "OPERATIONAL", "types": ["doctor", "health", "point_of_interest", "establishment"], "icon": "https://maps.gstatic.com/mapfiles/place_api/icons/v1/png_71/generic_business-71.png"}, {"rating": 5, "user_ratings_total": 3, "name": "Dr. Mahendru, Plastic Surgeon, Cosmetic Surgeon", "reference": "ChIJtYDcFJgBDTkRVhsRNPFBANQ", "geometry": {"location": {"lat": 28.55847, "lng": 77.204309}, "viewport": {"northeast": {"lat": 28.5598784302915, "lng": 77.2056787802915}, "southwest": {"lat": 28.5571804697085, "lng": 77.20298081970849}}}, "place_id": "ChIJtYDcFJgBDTkRVhsRNPFBANQ", "plus_code": {"global_code": "7JWVH653+9P", "compound_code": "H653+9P New Delhi, Delhi, India"}, "vicinity": "C-5, Green Park Extension, Green Park, New Delhi", "scope": "GOOGLE", "business_status": "OPERATIONAL", "types": ["doctor", "health", "point_of_interest", "establishment"], "icon": "https://maps.gstatic.com/mapfiles/place_api/icons/v1/png_71/generic_business-71.png"}, {"rating": 5, "user_ratings_total": 2, "name": "Green Cross Path Lab", "reference": "ChIJaVVl3G7iDDkR9JJRTovpIb8", "geometry": {"location": {"lat": 28.56213, "lng": 77.2108405}, "viewport": {"northeast": {"lat": 28.5634929802915, "lng": 77.21214363029151}, "southwest": {"lat": 28.5607950197085, "lng": 77.2094456697085}}}, "opening_hours": {"open_now": true}, "place_id": "ChIJaVVl3G7iDDkR9JJRTovpIb8", "plus_code": {"global_code": "7JWVH666+V8", "compound_code": "H666+V8 Gautam Nagar, New Delhi, Delhi, India"}, "vicinity": "Kalinga Medicos(Medicines, Surgicals, Anticancer Drugs), Sudarshan Cinema Road, Gautam Nagar", "photos": [{"photo_reference": "ATtYBwKDQ2aw9hPeRRCenueNi1H2mZFfxmSHwYoHp9IYimHVMWj_oSBw-17phkoxtanPAXf46EbYspgpcuJsYUdFshrQPU1LeUBt05K2QVZGttFk6H-vU2YPlZELWRovVRcjLCBdPR-7-5T2Dc-xgxRgcAdhyu1iuIfOzX9Bjok1IIJP8kpi", "width": 720, "html_attributions": ["<a href=\"https://maps.google.com/maps/contrib/105977171671909168441\">sonu sharma</a>"], "height": 960}], "scope": "GOOGLE", "business_status": "OPERATIONAL", "types": ["doctor", "health", "point_of_interest", "establishment"], "icon": "https://maps.gstatic.com/mapfiles/place_api/icons/v1/png_71/generic_business-71.png"}, {"rating": 4.3, "user_ratings_total": 300, "name": "AIIMS Jai Prakash Narayan Apex Trauma Center", "reference": "ChIJ1Rtr23viDDkRsW5Mv1XZ78k", "geometry": {"location": {"lat": 28.5681895, "lng": 77.20068789999999}, "viewport": {"northeast": {"lat": 28.57071154999999, "lng": 77.2038933}, "southwest": {"lat": 28.56660575, "lng": 77.1978729}}}, "opening_hours": {"open_now": true}, "place_id": "ChIJ1Rtr23viDDkRsW5Mv1XZ78k", "plus_code": {"global_code": "7JWVH692+77", "compound_code": "H692+77 New Delhi, Delhi, India"}, "vicinity": "Ring Road, Raj Nagar, Safdarjung Enclave, New Delhi", "photos": [{"photo_reference": "ATtYBwL7ACydOYk0DliPEfdphlwGDcOCvZ8ItGBEIU3rQu03pn4y8QAJdLquS5DCtgbfzLxFcK0UyTa8KAMxrrHeO2O_UuuTk7pvOkqdd8q1qNaiP984YePH2SEWOp8sh4EwZMGVf-psZpXIratn4iJg6e4-UJkVJ7PNsnHy0vhH8f5pPsva", "width": 4160, "html_attributions": ["<a href=\"https://maps.google.com/maps/contrib/109186602975993576000\">Ranganathan Duraisamy</a>"], "height": 3120}], "scope": "GOOGLE", "business_status": "OPERATIONAL", "types": ["hospital", "doctor", "health", "point_of_interest", "establishment"], "icon": "https://maps.gstatic.com/mapfiles/place_api/icons/v1/png_71/hospital-71.png"}]}