{"status": "OK", "next_page_token": "ATtYBwLKWhazXTIPtffcGYThmeODd-jpMljuitcVFB2GTXqQIkIw8r5QJKT9CJKzMlW3S0YmvmG3zlq4UROLXbWtL2r2K2pvUruU1T-6trh3PMa_gPa9rOof_ARm3LSFWF4XaD7i8EZBJfg-_27D_AfY1jJLW9iXmZwQVAnv1-lIhfDuMdIsKWtZabcf20UzKqUAv29C7yMo2wMeOzPsP-eEoXqJdclSrpKxKaj7k1vYWs-ckZXPCXY5j4FQP6YZcuwbMybzXjTohDa0ZipCPcyG2-bvfp5tQwdR2DnXPRdguFqHkQXBnriY2QfsZQumNqn1sMz0jchr5h8L0yc5mBmwm-m8ZJkdx3FQkf6dw6H-f4L_IeCN-Hoc4B1kXkAhQVu9YK1YzzkUVmwBI6Q4XXLKLPIHY2YD2Hmc1eVJ6Rft97pfKfhVLin5oF0GpH6C_y6USfbIURkrLmKO3i0o2Cb3zc4UQCmAIs83kltGmOImi7imaiK99fdEeoHvKPsMXuuP1F8kl7qZDD9wedAgNDybi0zTxmszdiXeYtnpt24bUJMk71FLb7IBUTKcs8pDec7onzSuz4ctzXprr-mX7WBl3ollAtw2Ff43t_pUS6ZsflsEZDtnSn9jYDPyTDJe-NLD3W0", "html_attributions": [], "results": [{"rating": 4.9, "user_ratings_total": 40, "name": "Dr Mithilesh Kumar, Best Headache Treatment,Cancer Pain Doctor,Joint Pain,Back Pain Specialist Delhi", "reference": "ChIJsXq2RqECDTkRWOCu2D4bVHE", "geometry": {"location": {"lat": 28.638996, "lng": 77.18993400000001}, "viewport": {"northeast": {"lat": 28.6403679802915, "lng": 77.1912990302915}, "southwest": {"lat": 28.63767001970849, "lng": 77.1886010697085}}}, "opening_hours": {"open_now": true}, "place_id": "ChIJsXq2RqECDTkRWOCu2D4bVHE", "plus_code": {"global_code": "7JWVJ5QQ+HX", "compound_code": "J5QQ+HX Delhi, India"}, "vicinity": "Sir Ganga Ram Hospital, Department Of Anaesthesia, 5th Floor, SSRB, Old Rajinder Nagar, Central Delhi, Delhi, Delhi", "photos": [{"photo_reference": "ATtYBwJbNORyxKkrOkoQysF15e97mtqex2eK_2C1Lhw2BuSAmBoA5mHOJTDn9LPa3MGVNgzo7FyWNkueYeaMSUfTkeIVI6xSw9YZ022S5VEdvFDaMLLil9dyu8-CLDOmkgKDryxyDROOb0ifgSWfyuaz67XD4fuh9alk56LIwsgGwGqQUN2l", "width": 1080, "html_attributions": ["<a href=\"https://maps.google.com/maps/contrib/110594509550449163486\">Dr Mithilesh Kumar, Best Headache Treatment,Cancer Pain Doctor,Joint Pain,Back Pain Specialist Delhi</a>"], "height": 1065}], "scope": "GOOGLE", "business_status": "OPERATIONAL", "types": ["doctor", "health", "point_of_interest", "establishment"], "icon": "https://maps.gstatic.com/mapfiles/place_api/icons/v1/png_71/generic_business-71.png"}, {"rating": 4, "user_ratings_total": 100, "name": "Doctor's Hostel, Dr RML Hospital", "reference": "ChIJTbWqA1T9DDkRhSgJfOlRpKI", "geometry": {"location": {"lat": 28.626916, "lng": 77.19973639999999}, "viewport": {"northeast": {"lat": 28.6283522302915, "lng": 77.20093128029151}, "southwest": {"lat": 28.6256542697085, "lng": 77.19823331970849}}}, "place_id": "ChIJTbWqA1T9DDkRhSgJfOlRpKI", "plus_code": {"global_code": "7JWVJ5GX+QV", "compound_code": "J5GX+QV New Delhi, Delhi, India"}, "vicinity": "gate no 6, Ram Manohar Lohia Hospital, Type III, President's Estate, New Delhi", "photos": [{"photo_reference": "ATtYBwK6AW0w2WSdATyxyBr0MM2Q_MrO6cEciidbg1gLtXoEqF7RaM2fRyecH1h2oFVMk06_hxOWJi7f9L_th5d3Pnn5P9f7tDcsy6STfdIl_yn74kHtrkg7rU3eEUpEfn2wDMXIcBMFmj4ny-GkVIrz0WUI8i5brjXjaZB_IAljRb-5T6qr", "width": 4224, "html_attributions": ["<a href=\"https://maps.google.com/maps/contrib/109496491644315284767\">Hemant Tatawat</a>"], "height": 2368}], "scope": "GOOGLE", "business_status": "OPERATIONAL", "types": ["doctor", "health", "point_of_interest", "establishment"], "icon": "https://maps.gstatic.com/mapfiles/place_api/icons/v1/png_71/generic_business-71.png"}, {"rating": 5, "user_ratings_total": 1, "name": "Physiotherapy Tom Ji", "reference": "ChIJsZaS2eX9DDkRO-XVeJfjJEQ", "geometry": {"location": {"lat": 28.627196, "lng": 77.1979662}, "viewport": {"northeast": {"lat": 28.6285354802915, "lng": 77.19932158029151}, "southwest": {"lat": 28.6258375197085, "lng": 77.1966236197085}}}, "place_id": "ChIJsZaS2eX9DDkRO-XVeJfjJEQ", "plus_code": {"global_code": "7JWVJ5GX+V5", "compound_code": "J5GX+V5 New Delhi, Delhi, India"}, "vicinity": "K1, Hasting Square, Type 2, President's Estate, New Delhi", "scope": "GOOGLE", "business_status": "OPERATIONAL", "types": ["doctor", "health", "point_of_interest", "establishment"], "icon": "https://maps.gstatic.com/mapfiles/place_api/icons/v1/png_71/generic_business-71.png"}, {"rating": 5, "user_ratings_total": 1, "name": "Paditji Gole market for accupunture", "reference": "ChIJ1_u-BFD9DDkRRYnJMQRfDPk", "geometry": {"location": {"lat": 28.6330687, "lng": 77.2055881}, "viewport": {"northeast": {"lat": 28.6344190302915, "lng": 77.2069048302915}, "southwest": {"lat": 28.63172106970849, "lng": 77.20420686970849}}}, "place_id": "ChIJ1_u-BFD9DDkRRYnJMQRfDPk", "plus_code": {"global_code": "7JWVJ6M4+66", "compound_code": "J6M4+66 New Delhi, Delhi, India"}, "vicinity": "83, Bhai Vir Singh Marg, Sector 4, Gole Market, New Delhi", "scope": "GOOGLE", "business_status": "OPERATIONAL", "types": ["doctor", "health", "point_of_interest", "establishment"], "icon": "https://maps.gstatic.com/mapfiles/place_api/icons/v1/png_71/generic_business-71.png"}, {"name": "Laxmi Shah Diagnostic Center", "reference": "ChIJR7mS6E_9DDkRbS0cMqDkseM", "geometry": {"location": {"lat": 28.6326799, "lng": 77.2066024}, "viewport": {"northeast": {"lat": 28.6339699302915, "lng": 77.2079482802915}, "southwest": {"lat": 28.6312719697085, "lng": 77.2052503197085}}}, "place_id": "ChIJR7mS6E_9DDkRbS0cMqDkseM", "plus_code": {"global_code": "7JWVJ6M4+3J", "compound_code": "J6M4+3J New Delhi, Delhi, India"}, "vicinity": "49, Baird Lane, Gole Market, New Delhi", "scope": "GOOGLE", "business_status": "OPERATIONAL", "types": ["doctor", "health", "point_of_interest", "establishment"], "icon": "https://maps.gstatic.com/mapfiles/place_api/icons/v1/png_71/generic_business-71.png"}, {"name": "Mohan Lal Doctor Clinic", "reference": "ChIJY5NmdID9DDkRl6OrQaW8ffo", "geometry": {"location": {"lat": 28.6326391, "lng": 77.2067672}, "viewport": {"northeast": {"lat": 28.63394613029151, "lng": 77.2081139802915}, "southwest": {"lat": 28.6312481697085, "lng": 77.2054160197085}}}, "opening_hours": {"open_now": true}, "place_id": "ChIJY5NmdID9DDkRl6OrQaW8ffo", "plus_code": {"global_code": "7JWVJ6M4+3P", "compound_code": "J6M4+3P New Delhi, Delhi, India"}, "vicinity": "49 G, Jain Mandir Marg, Sector 4, Gole Market, New Delhi", "scope": "GOOGLE", "business_status": "OPERATIONAL", "types": ["doctor", "health", "point_of_interest", "establishment"], "icon": "https://maps.gstatic.com/mapfiles/place_api/icons/v1/png_71/generic_business-71.png"}, {"name": "Pearl White Dental Clinic", "reference": "ChIJ8QWbyKX9DDkR_5Xo01SRbqo", "geometry": {"location": {"lat": 28.6332557, "lng": 77.2071146}, "viewport": {"northeast": {"lat": 28.6346046302915, "lng": 77.20846418029151}, "southwest": {"lat": 28.6319066697085, "lng": 77.20576621970851}}}, "opening_hours": {"open_now": true}, "place_id": "ChIJ8QWbyKX9DDkR_5Xo01SRbqo", "plus_code": {"global_code": "7JWVJ6M4+8R", "compound_code": "J6M4+8R New Delhi, Delhi, India"}, "vicinity": "G02, House Number 135, Gali Number 267, Gole Market, New Delhi", "scope": "GOOGLE", "business_status": "OPERATIONAL", "types": ["doctor", "health", "point_of_interest", "establishment"], "icon": "https://maps.gstatic.com/mapfiles/place_api/icons/v1/png_71/generic_business-71.png"}, {"name": "Dr k praveen david", "reference": "ChIJIVpQ6aD9DDkRQCX9i5cLk7E", "geometry": {"location": {"lat": 28.6321403, "lng": 77.20764199999999}, "viewport": {"northeast": {"lat": 28.6336709802915, "lng": 77.2090103302915}, "southwest": {"lat": 28.6309730197085, "lng": 77.2063123697085}}}, "place_id": "ChIJIVpQ6aD9DDkRQCX9i5cLk7E", "plus_code": {"global_code": "7JWVJ6J5+V3", "compound_code": "J6J5+V3 New Delhi, Delhi, India"}, "vicinity": "58, Shaheed Bhagat Singh Marg, Sector 3, DIZ Area, Gole Market, New Delhi", "scope": "GOOGLE", "business_status": "OPERATIONAL", "types": ["doctor", "health", "point_of_interest", "establishment"], "icon": "https://maps.gstatic.com/mapfiles/place_api/icons/v1/png_71/generic_business-71.png"}, {"rating": 5, "user_ratings_total": 3, "name": "Rapid Cure Homoeopathic Clinic : Homeopathic Clinic|Doctor in CP,Karol Bagh", "reference": "ChIJ2etq6V79DDkRvTTzimwkgec", "geometry": {"location": {"lat": 28.6334139, "lng": 77.20763459999999}, "viewport": {"northeast": {"lat": 28.6347590802915, "lng": 77.20904303029148}, "southwest": {"lat": 28.6320611197085, "lng": 77.20634506970848}}}, "opening_hours": {"open_now": true}, "place_id": "ChIJ2etq6V79DDkRvTTzimwkgec", "plus_code": {"global_code": "7JWVJ6M5+93", "compound_code": "J6M5+93 Connaught Place, New Delhi, Delhi, India"}, "vicinity": "Shop no 63 Shaheed Bhagat Singh Market, near Gole maket, Connaught Place", "photos": [{"photo_reference": "ATtYBwIEWM11nuQdjE-wEE9HcZqA8TGToBuBiC55UlKFkRJ0xP12CXsY--lAddECsLYJPqg7J-z-Hku2TfiXGOk63dqwL9RkZxcXxWwAX9WcUlOV2MmnwwhOMhncoiCKw4N6gLElB_d4xDSHQ1MM4N40i6Ck_il1hYrxdLTcCd6CidOHzi-H", "width": 1079, "html_attributions": ["<a href=\"https://maps.google.com/maps/contrib/113506014504755799316\">Rapid Cure Homoeopathic Clinic : Homeopathic Clinic|Doctor in CP,Karol Bagh</a>"], "height": 1057}], "scope": "GOOGLE", "business_status": "OPERATIONAL", "types": ["doctor", "health", "point_of_interest", "establishment"], "icon": "https://maps.gstatic.com/mapfiles/place_api/icons/v1/png_71/generic_business-71.png"}, {"name": "Hitkari Ayurvedic Chikitsa", "reference": "ChIJWadpkU_9DDkRhoL3otN9JwI", "geometry": {"location": {"lat": 28.6329531, "lng": 77.20788089999999}, "viewport": {"northeast": {"lat": 28.6342994302915, "lng": 77.2092763802915}, "southwest": {"lat": 28.6316014697085, "lng": 77.20657841970849}}}, "opening_hours": {"open_now": true}, "place_id": "ChIJWadpkU_9DDkRhoL3otN9JwI", "plus_code": {"global_code": "7JWVJ6M5+55", "compound_code": "J6M5+55 New Delhi, Delhi, India"}, "vicinity": "DIZ Area, 32-A, Sector 4, Gole Market, New Delhi", "photos": [{"photo_reference": "ATtYBwIEteL7VjdNdYtP31oI3HMPiWJpffKYL-xS2sJRZRtxJXNji7Y6pTalPN-d-uiK3O7odP-syhZBW0hHDXewcBWQyhu1hJyBWyLQcQ7m0m8uRd0D5vnfO_dg9zzZdYxF05MZcXGm1rvY1tL--ZwI3IN-4oN6aCetQ5C3USGx3cgNAFw9", "width": 1238, "html_attributions": ["<a href=\"https://maps.google.com/maps/contrib/115321667451618056850\">Hitkari Ayurvedic Chikitsa</a>"], "height": 422}], "scope": "GOOGLE", "business_status": "OPERATIONAL", "types": ["doctor", "health", "point_of_interest", "establishment"], "icon": "https://maps.gstatic.com/mapfiles/place_api/icons/v1/png_71/generic_business-71.png"}, {"rating": 3, "user_ratings_total": 2, "name": "Manis Arora (B.A.M.S)", "reference": "ChIJtyrrkU_9DDkRWNz4z79A9FY", "geometry": {"location": {"lat": 28.6331847, "lng": 77.2078432}, "viewport": {"northeast": {"lat": 28.6344893302915, "lng": 77.20918748029152}, "southwest": {"lat": 28.6317913697085, "lng": 77.2064895197085}}}, "opening_hours": {"open_now": true}, "place_id": "ChIJtyrrkU_9DDkRWNz4z79A9FY", "plus_code": {"global_code": "7JWVJ6M5+74", "compound_code": "J6M5+74 New Delhi, Delhi, India"}, "vicinity": "Sector 4, Gole Market, New Delhi", "scope": "GOOGLE", "business_status": "OPERATIONAL", "types": ["doctor", "health", "point_of_interest", "establishment"], "icon": "https://maps.gstatic.com/mapfiles/place_api/icons/v1/png_71/generic_business-71.png"}, {"rating": 4.5, "user_ratings_total": 2, "name": "Kashyap Dr N K", "reference": "ChIJw8BJXKviDDkRDJf57bkYDjo", "geometry": {"location": {"lat": 28.620464, "lng": 77.19982019999999}, "viewport": {"northeast": {"lat": 28.6218113802915, "lng": 77.2012000802915}, "southwest": {"lat": 28.6191134197085, "lng": 77.19850211970848}}}, "place_id": "ChIJw8BJXKviDDkRDJf57bkYDjo", "vicinity": "86, North Avenue, Block B, Chanakyapuri, New Delhi", "scope": "GOOGLE", "business_status": "OPERATIONAL", "types": ["doctor", "health", "point_of_interest", "establishment"], "icon": "https://maps.gstatic.com/mapfiles/place_api/icons/v1/png_71/generic_business-71.png"}, {"rating": 5, "user_ratings_total": 2, "name": "Metropolis Healthcare Ltd", "reference": "ChIJN9UfvKoCDTkR22R_J_xcISk", "geometry": {"location": {"lat": 28.622234, "lng": 77.19344699999999}, "viewport": {"northeast": {"lat": 28.6234422802915, "lng": 77.1950958802915}, "southwest": {"lat": 28.6207443197085, "lng": 77.1923979197085}}}, "opening_hours": {"open_now": true}, "place_id": "ChIJN9UfvKoCDTkR22R_J_xcISk", "plus_code": {"global_code": "7JWVJ5CV+V9", "compound_code": "J5CV+V9 New Delhi, Delhi, India"}, "vicinity": "20,Kalyan Vihar, Polo Road", "photos": [{"photo_reference": "ATtYBwLbLMseTABSFvtFeg2YAFXKP-gBSnQt5FvJagL_u0kaRMlj6bEI_AasS-ALA7lh74s1nHLSdzj_S59DsNAKBCcoGoMWNo4SruULIj-HdQPGAhvokjBvsvlBNRj33jShhB5maloOudphAc21rT6Hf0oLIdlPyzfAMZDl6Pcy4brD8muG", "width": 3120, "html_attributions": ["<a href=\"https://maps.google.com/maps/contrib/104694024988472272273\">Dr. Rajneesh K Singh</a>"], "height": 4160}], "scope": "GOOGLE", "business_status": "OPERATIONAL", "types": ["doctor", "health", "point_of_interest", "establishment"], "icon": "https://maps.gstatic.com/mapfiles/place_api/icons/v1/png_71/generic_business-71.png"}, {"rating": 4, "user_ratings_total": 1, "name": "Metropolis Healthcare Ltd", "reference": "ChIJL2Q8R68CDTkR-I61ctGoOSQ", "geometry": {"location": {"lat": 28.630693, "lng": 77.187768}, "viewport": {"northeast": {"lat": 28.6320523302915, "lng": 77.1890932802915}, "southwest": {"lat": 28.6293543697085, "lng": 77.1863953197085}}}, "opening_hours": {"open_now": true}, "place_id": "ChIJL2Q8R68CDTkR-I61ctGoOSQ", "plus_code": {"global_code": "7JWVJ5JQ+74", "compound_code": "J5JQ+74 New Delhi, Delhi, India"}, "vicinity": "A-116 , Dda Flat, Near Gandhi Market, Mata Sundari Road", "scope": "GOOGLE", "business_status": "OPERATIONAL", "types": ["doctor", "health", "point_of_interest", "establishment"], "icon": "https://maps.gstatic.com/mapfiles/place_api/icons/v1/png_71/generic_business-71.png"}, {"rating": 2.9, "user_ratings_total": 9, "name": "National Homoeopathic Centre", "reference": "ChIJOxa3jEv9DDkRrClUiJShOU0", "geometry": {"location": {"lat": 28.6271354, "lng": 77.21220579999999}, "viewport": {"northeast": {"lat": 28.6285432302915, "lng": 77.2134512302915}, "southwest": {"lat": 28.6258452697085, "lng": 77.21075326970849}}}, "opening_hours": {"open_now": true}, "place_id": "ChIJOxa3jEv9DDkRrClUiJShOU0", "plus_code": {"global_code": "7JWVJ6G6+VV", "compound_code": "J6G6+VV New Delhi, Delhi, India"}, "vicinity": "1, Hanuman Road, Hanuman Road Area, Connaught Place, New Delhi", "photos": [{"photo_reference": "ATtYBwIppEfao7Z-xKzuQr-juqFNtilrlIXMp1gSDOsMwqe5KSXDLuoxSqUBzRm0Hmu-i1np6K6OeJvhSm6sbR6_Ur3wgupBVLKOYwR8jYvjNXGUEWf_sifWU9i83yCSKSjceQbiASHDcxoFgJhAV8CNqNSHb958MhLalGZXtvdKHgjs_MsE", "width": 4032, "html_attributions": ["<a href=\"https://maps.google.com/maps/contrib/117336743237841418812\">Deepak Bansal</a>"], "height": 3024}], "scope": "GOOGLE", "business_status": "OPERATIONAL", "types": ["doctor", "health", "point_of_interest", "establishment"], "icon": "https://maps.gstatic.com/mapfiles/place_api/icons/v1/png_71/generic_business-71.png"}, {"name": "CGHS Wellness Centre (Arurvedic)", "reference": "ChIJR5dzz4njDDkRrw9WWMyFNBg", "geometry": {"location": {"lat": 28.618639, "lng": 77.199141}, "viewport": {"northeast": {"lat": 28.6199796802915, "lng": 77.2004927302915}, "southwest": {"lat": 28.6172817197085, "lng": 77.1977947697085}}}, "place_id": "ChIJR5dzz4njDDkRrw9WWMyFNBg", "plus_code": {"global_code": "7JWVJ59X+FM", "compound_code": "J59X+FM New Delhi, Delhi, India"}, "vicinity": "CGHS Wellness Centre (Arurvedic, North Avenue Road Area, Raisina Hills, New Delhi", "scope": "GOOGLE", "business_status": "OPERATIONAL", "types": ["doctor", "health", "point_of_interest", "establishment"], "icon": "https://maps.gstatic.com/mapfiles/place_api/icons/v1/png_71/generic_business-71.png"}, {"rating": 4.5, "user_ratings_total": 10, "name": "Dr Nishant Wadhwa", "reference": "ChIJqZypTaECDTkR6XVy_Nx56jw", "geometry": {"location": {"lat": 28.6381077, "lng": 77.1896477}, "viewport": {"northeast": {"lat": 28.6393124302915, "lng": 77.1910916302915}, "southwest": {"lat": 28.6366144697085, "lng": 77.18839366970849}}}, "opening_hours": {"open_now": true}, "place_id": "ChIJqZypTaECDTkR6XVy_Nx56jw", "plus_code": {"global_code": "7JWVJ5QQ+6V", "compound_code": "J5QQ+6V New Delhi, Delhi, India"}, "vicinity": "Old Rajinder Nagar, Rajinder Nagar, New Delhi", "scope": "GOOGLE", "business_status": "OPERATIONAL", "types": ["doctor", "health", "point_of_interest", "establishment"], "icon": "https://maps.gstatic.com/mapfiles/place_api/icons/v1/png_71/generic_business-71.png"}, {"name": "Metropolis Healthcare Ltd", "reference": "ChIJA3rPdaziDDkRk92RtS6fsf8", "geometry": {"location": {"lat": 28.617746, "lng": 77.20041200000001}, "viewport": {"northeast": {"lat": 28.6190380802915, "lng": 77.20175588029151}, "southwest": {"lat": 28.6163401197085, "lng": 77.1990579197085}}}, "opening_hours": {"open_now": true}, "place_id": "ChIJA3rPdaziDDkRk92RtS6fsf8", "plus_code": {"global_code": "7JWVJ692+35", "compound_code": "J692+35 Delhi, India"}, "vicinity": "27, Sham Nath Marg, Indraprastha College, Civil Lines, Delhi", "scope": "GOOGLE", "business_status": "OPERATIONAL", "types": ["doctor", "health", "point_of_interest", "establishment"], "icon": "https://maps.gstatic.com/mapfiles/place_api/icons/v1/png_71/generic_business-71.png"}, {"name": "Dr Kamlender Singh's Dermatology Clinic", "reference": "ChIJzVsxM-gDDTkRouNTebbtZpg", "geometry": {"location": {"lat": 28.6387505, "lng": 77.19013989999999}, "viewport": {"northeast": {"lat": 28.6400745302915, "lng": 77.1915342302915}, "southwest": {"lat": 28.63737656970849, "lng": 77.18883626970847}}}, "place_id": "ChIJzVsxM-gDDTkRouNTebbtZpg", "plus_code": {"global_code": "7JWVJ5QR+G3", "compound_code": "J5QR+G3 New Delhi, Delhi, India"}, "vicinity": "Sir Ganga Ram Hospital, Old Rajinder Nagar, Rajinder Nagar, New Delhi", "scope": "GOOGLE", "business_status": "OPERATIONAL", "types": ["doctor", "health", "point_of_interest", "establishment"], "icon": "https://maps.gstatic.com/mapfiles/place_api/icons/v1/png_71/generic_business-71.png"}, {"rating": 5, "user_ratings_total": 1, "name": "Dr. Rajiv Passey Best Heart Specialist in Delhi & Delhi NCR.", "reference": "ChIJ_8rbTqECDTkR4RN_CLBL268", "geometry": {"location": {"lat": 28.638443, "lng": 77.189796}, "viewport": {"northeast": {"lat": 28.6398271802915, "lng": 77.19117178029151}, "southwest": {"lat": 28.63712921970849, "lng": 77.1884738197085}}}, "opening_hours": {"open_now": true}, "place_id": "ChIJ_8rbTqECDTkR4RN_CLBL268", "plus_code": {"global_code": "7JWVJ5QQ+9W", "compound_code": "J5QQ+9W New Delhi, Delhi, India"}, "vicinity": "Dharma Vira Heart Centre Sir Ganga Ram Hospital, Rajinder Nagar, New Delhi", "photos": [{"photo_reference": "ATtYBwKdikhbuBT--Aa9ZWT2h2K7pCZxsV4WuIQZjiXsrukNGWvkp_uRCOAakIxNj-LIEECSulnSe7C6vmc1JJFivDTOjylZuzpinGlgb-r4Be6Ocx5qFnFtUW8H3tdD9kRKVgyX_gh4Dmbb9W7BouyLxld_URNKQokrI33zffbCbVkO7d7K", "width": 5184, "html_attributions": ["<a href=\"https://maps.google.com/maps/contrib/111028063737593249556\">Dr. Rajiv Passey Best Heart Specialist in Delhi &amp; Delhi NCR.</a>"], "height": 3456}], "scope": "GOOGLE", "business_status": "OPERATIONAL", "types": ["doctor", "health", "point_of_interest", "establishment"], "icon": "https://maps.gstatic.com/mapfiles/place_api/icons/v1/png_71/generic_business-71.png"}]}