{"status": "OK", "next_page_token": "ATtYBwLsgEpP50dON97mbD12cK3oEKzhnphFGsnKS2Ygoab7sdGy15TkwpldEUHa7F65ZjNX49KCHLmqtafDOod85lg_n8DvduG1tv5ifqfGq6exfcSfEiHzs0hqIdR0d_Wj3BkQggmy5mNDm1xhq849CIyS8bXOYHIJLMyxjA59bckTBl_LkInve3wqh-D3b_XdjY0AIpwBdUQqonSpmJm6GWA9pzfOzu7VrKrKl1JnApHdwodGkjUAsJ1btcFhWMppHsGn9u4OdC8RwFO5PP6uzwJKpzTy_i97X6lE9soRGQIpHlrvSN4ntjAe2LDinCqRryKAeEYP6MLEn1xQ1SIyq0E1Twkit8CtsvWir_5a4pSsO087NkBVZSPq-0Co_Nr8FmrcMXPNHiPVGpROPtih3HkYS0bed6tecTjxteuqiwXQXA", "html_attributions": [], "results": [{"rating": 4.6, "user_ratings_total": 37, "name": "Dr Arun Wadhwa", "reference": "ChIJq6qqqjPiDDkRuDuN7r2FgGU", "geometry": {"location": {"lat": 28.5358434, "lng": 77.2377023}, "viewport": {"northeast": {"lat": 28.5371294802915, "lng": 77.2391166302915}, "southwest": {"lat": 28.53443151970849, "lng": 77.2364186697085}}}, "opening_hours": {"open_now": true}, "place_id": "ChIJq6qqqjPiDDkRuDuN7r2FgGU", "plus_code": {"global_code": "7JWVG6PQ+83", "compound_code": "G6PQ+83 New Delhi, Delhi, India"}, "vicinity": "G-10, Greater Kailash - 2, Masjid Moth, New Delhi", "photos": [{"photo_reference": "ATtYBwKMTRhgWsonXG_w2JRj6JniAti-Gf0OYE6WQ2Lef47F2uby25HhEP5Yted8v1IiqoncLT6C6lFbefOr0zcSr7JwEjUfxCMTi339cGb1u2R3tM1xzR3DcnZlMvF2Bb1gyRQOTtgRE-eqe2Kguh2bYJCHwLzNxYIyIvwEyMD5X58tBoPn", "width": 480, "html_attributions": ["<a href=\"https://maps.google.com/maps/contrib/104534381468393000634\">Tarundeep Sobti</a>"], "height": 640}], "scope": "GOOGLE", "business_status": "OPERATIONAL", "types": ["doctor", "health", "point_of_interest", "establishment"], "icon": "https://maps.gstatic.com/mapfiles/place_api/icons/v1/png_71/generic_business-71.png"}, {"rating": 4.7, "user_ratings_total": 26, "name": "Southend Orthopaedic Centre ( Dr.Shrish Dutt Mishra)", "reference": "ChIJyRDXmX7hDDkRAqnnty5GZdc", "geometry": {"location": {"lat": 28.53023, "lng": 77.24650319999999}, "viewport": {"northeast": {"lat": 28.5315962302915, "lng": 77.24777623029149}, "southwest": {"lat": 28.5288982697085, "lng": 77.24507826970849}}}, "opening_hours": {"open_now": true}, "place_id": "ChIJyRDXmX7hDDkRAqnnty5GZdc", "plus_code": {"global_code": "7JWVG6JW+3J", "compound_code": "G6JW+3J New Delhi, Delhi, India"}, "vicinity": "2, S-172, Block S, Greater Kailash II, Greater Kailash, New Delhi", "photos": [{"photo_reference": "ATtYBwJI73zSFdyYqj1uyTlOcwL-DUFl2a9aSPS4Zt4pkouZ2HVvaa_61siNodbJOroDLxDqdCkywtwTV989vcXyyvkzF0rsV6wPv5lsKAp8CdhVhisTYlDJ0o8z0Nddt8Zv9H8pHUqdcoY2f5ZushNiws910mCkT4WqVyC891FeSBQKxo0n", "width": 2048, "html_attributions": ["<a href=\"https://maps.google.com/maps/contrib/102956410678014463512\">shrishdutt mishra</a>"], "height": 1155}], "scope": "GOOGLE", "business_status": "OPERATIONAL", "types": ["doctor", "health", "point_of_interest", "establishment"], "icon": "https://maps.gstatic.com/mapfiles/place_api/icons/v1/png_71/generic_business-71.png"}, {"rating": 5, "user_ratings_total": 8, "name": "Global Health Research Group", "reference": "ChIJq6qqXjDiDDkRU9EBt_bFW-E", "geometry": {"location": {"lat": 28.5363909, "lng": 77.2361961}, "viewport": {"northeast": {"lat": 28.5377316302915, "lng": 77.23752183029151}, "southwest": {"lat": 28.5350336697085, "lng": 77.23482386970849}}}, "opening_hours": {"open_now": true}, "place_id": "ChIJq6qqXjDiDDkRU9EBt_bFW-E", "plus_code": {"global_code": "7JWVG6PP+HF", "compound_code": "G6PP+HF New Delhi, Delhi, India"}, "vicinity": "H-8,Masjid Moth, Greater Kailash II, New Delhi", "photos": [{"photo_reference": "ATtYBwKeHxi6gYKapDeS7jbLBZOWkwOpE9Zc2ccBKoMzYvuaB7f8u-bD9KQnFMLI7A3KrOXLtKElV-bSospYCASwM_cHMMfVYkGXaprQtrx6p0W7W68FVTCXUny3cyu9SyNxR2o_LbiQyrJk5vFfyzkU8djZQlf5wrMOQkse0ah-2lgS-A86", "width": 1242, "html_attributions": ["<a href=\"https://maps.google.com/maps/contrib/109206067641810643887\">Global Health Research Group</a>"], "height": 699}], "scope": "GOOGLE", "business_status": "OPERATIONAL", "types": ["doctor", "dentist", "health", "point_of_interest", "establishment"], "icon": "https://maps.gstatic.com/mapfiles/place_api/icons/v1/png_71/generic_business-71.png"}, {"rating": 5, "user_ratings_total": 8, "name": "Dr. Seema Thakur", "reference": "ChIJg0_L0H7hDDkR-u6bJ3xyZNQ", "geometry": {"location": {"lat": 28.528982, "lng": 77.243721}, "viewport": {"northeast": {"lat": 28.5303671802915, "lng": 77.24501528029151}, "southwest": {"lat": 28.52766921970849, "lng": 77.24231731970849}}}, "opening_hours": {"open_now": true}, "place_id": "ChIJg0_L0H7hDDkR-u6bJ3xyZNQ", "plus_code": {"global_code": "7JWVG6HV+HF", "compound_code": "G6HV+HF New Delhi, Delhi, India"}, "vicinity": "A block, shalimar bagh, New Delhi", "photos": [{"photo_reference": "ATtYBwK5l49AZwaeFmxrMksJ0zSiXaa-eAirqTCOXsQE1QCXBR2tPZupGTmj1QA0oi64yTskOCJf1x3Op0-28gS3C9OB7Q0PuyYAYfEHw9Mkt7UPcGC6KhBErsf8xBQw9eFvx-FjeyhadIM7KHo5JON0vaR3y085OyllFZZS1atSpSj6wQas", "width": 2048, "html_attributions": ["<a href=\"https://maps.google.com/maps/contrib/107032812010633756235\">Dr. Seema Thakur</a>"], "height": 1132}], "scope": "GOOGLE", "business_status": "OPERATIONAL", "types": ["doctor", "health", "point_of_interest", "establishment"], "icon": "https://maps.gstatic.com/mapfiles/place_api/icons/v1/png_71/generic_business-71.png"}, {"rating": 1.3, "user_ratings_total": 3, "name": "Best Female Breast Surgeon, Oncoplastic Breast Surgeon, Breast Cancer Surgeon", "reference": "ChIJz6qqqn3hDDkRpXXEpNlmrUQ", "geometry": {"location": {"lat": 28.53536, "lng": 77.241952}, "viewport": {"northeast": {"lat": 28.5366953302915, "lng": 77.2432770302915}, "southwest": {"lat": 28.5339973697085, "lng": 77.24057906970849}}}, "opening_hours": {"open_now": true}, "place_id": "ChIJz6qqqn3hDDkRpXXEpNlmrUQ", "vicinity": "Fortis La Femme, S-549, Greater Kailash Part- 2, Block E, New Delhi", "photos": [{"photo_reference": "ATtYBwIfmrWY3DWXWTp7qGd0CQoEyKUgTL45ux9AL7YQQQ9iix82E---Q_OnSP-CkBthdlVpLtluw16xW0x2DIoLxtCYZRE8jlh1H3IS8g3Wd5CRI9jsgCeDydaInjvKb5vHWVWQSFhYyp64XRWBmhTMez4Lh6QjrMoS5LB-mzk1Hkr7Rc16", "width": 400, "html_attributions": ["<a href=\"https://maps.google.com/maps/contrib/111794452225245523599\">Best Female Breast Surgeon, Oncoplastic Breast Surgeon, Breast Cancer Surgeon</a>"], "height": 320}], "scope": "GOOGLE", "business_status": "OPERATIONAL", "types": ["hospital", "doctor", "health", "point_of_interest", "establishment"], "icon": "https://maps.gstatic.com/mapfiles/place_api/icons/v1/png_71/generic_business-71.png"}, {"rating": 4.8, "user_ratings_total": 6, "name": "Hair Transplant in Delhi by Dr P K Talwar", "reference": "ChIJBUtm77PjDDkRbezjPHuL-fs", "geometry": {"location": {"lat": 28.53172369999999, "lng": 77.24342759999999}, "viewport": {"northeast": {"lat": 28.5330726802915, "lng": 77.2447765802915}, "southwest": {"lat": 28.53037471970849, "lng": 77.2420786197085}}}, "opening_hours": {"open_now": true}, "place_id": "ChIJBUtm77PjDDkRbezjPHuL-fs", "plus_code": {"global_code": "7JWVG6JV+M9", "compound_code": "G6JV+M9 New Delhi, Delhi, India"}, "vicinity": "E - 34, Ground Floor, Block E, Greater Kailash I, New Delhi", "scope": "GOOGLE", "business_status": "OPERATIONAL", "types": ["doctor", "health", "point_of_interest", "establishment"], "icon": "https://maps.gstatic.com/mapfiles/place_api/icons/v1/png_71/generic_business-71.png"}, {"name": "Dr. Ranjana Sharma", "reference": "ChIJd-88137hDDkRkWcUh5nPigE", "geometry": {"location": {"lat": 28.5289413, "lng": 77.2436728}, "viewport": {"northeast": {"lat": 28.53032368029151, "lng": 77.24497128029151}, "southwest": {"lat": 28.5276257197085, "lng": 77.2422733197085}}}, "place_id": "ChIJd-88137hDDkRkWcUh5nPigE", "plus_code": {"global_code": "7JWVG6HV+HF", "compound_code": "G6HV+HF New Delhi, Delhi, India"}, "vicinity": "Block S, Greater Kailash II, Greater Kailash, New Delhi", "scope": "GOOGLE", "business_status": "OPERATIONAL", "types": ["doctor", "health", "point_of_interest", "establishment"], "icon": "https://maps.gstatic.com/mapfiles/place_api/icons/v1/png_71/generic_business-71.png"}, {"rating": 4.6, "user_ratings_total": 5, "name": "Dr Nakra's Clinic,", "reference": "ChIJrUg8a37hDDkR6MD9bMqRahY", "geometry": {"location": {"lat": 28.532711, "lng": 77.245066}, "viewport": {"northeast": {"lat": 28.5341040302915, "lng": 77.2464875302915}, "southwest": {"lat": 28.5314060697085, "lng": 77.24378956970848}}}, "opening_hours": {"open_now": false}, "place_id": "ChIJrUg8a37hDDkR6MD9bMqRahY", "plus_code": {"global_code": "7JWVG6MW+32", "compound_code": "G6MW+32 New Delhi, Delhi, India"}, "vicinity": "S 305, Greater Kailash-2, Greater Kailash, New Delhi", "photos": [{"photo_reference": "ATtYBwKAkX6zIxrzyALnSyeIscuAohs56CwjUh8-IjPW9loMB87lR3CulmLklRFV3ZEHn-dpSzHfnJetpBS45h4W8wnkPzCdP2BfWn-iNgZvIq5XYJMEAA12RCIHpvyO_ZyyXMeZKDhER_n3zAhdJoX4TkRe5wik7NQ5_FeArbrXp1dfAyBw", "width": 3024, "html_attributions": ["<a href=\"https://maps.google.com/maps/contrib/105193047750577698605\">Dr Nakra&#39;s Clinic,</a>"], "height": 4032}], "scope": "GOOGLE", "business_status": "OPERATIONAL", "types": ["doctor", "health", "point_of_interest", "establishment"], "icon": "https://maps.gstatic.com/mapfiles/place_api/icons/v1/png_71/generic_business-71.png"}, {"rating": 3, "user_ratings_total": 6, "name": "Kiran Dermasurge", "reference": "ChIJfT71G3_hDDkRI87VhPWjQtg", "geometry": {"location": {"lat": 28.5301913, "lng": 77.24303789999999}, "viewport": {"northeast": {"lat": 28.5316093802915, "lng": 77.2444497802915}, "southwest": {"lat": 28.5289114197085, "lng": 77.24175181970848}}}, "opening_hours": {"open_now": true}, "place_id": "ChIJfT71G3_hDDkRI87VhPWjQtg", "plus_code": {"global_code": "7JWVG6JV+36", "compound_code": "G6JV+36 New Delhi, Delhi, India"}, "vicinity": "near Fortis La Femma, S-438, Basement, Alanknanda Road, Opp MMI Play school, GK 2, near Fortis La Femma, Delhi, New Delhi", "photos": [{"photo_reference": "ATtYBwIrwKGytZOugGb7nLIMBLdcp2a27RlQ0nsmU9lSk8uH9T5MQT_GNm8cCjYGzAhCblHOIOwmdvUYZtU3-LAanK13qP_KbZtjST_NQNY9Ev9JlM8-dZtckprYSmzbWOmrac2vEscQyV6Yij0Y_HpL5VHpHylKbhvr-esqEHH625s33dHt", "width": 4341, "html_attributions": ["<a href=\"https://maps.google.com/maps/contrib/113240898052101591436\">Kiran Dermasurge</a>"], "height": 2886}], "scope": "GOOGLE", "business_status": "OPERATIONAL", "types": ["beauty_salon", "hair_care", "doctor", "health", "point_of_interest", "establishment"], "icon": "https://maps.gstatic.com/mapfiles/place_api/icons/v1/png_71/generic_business-71.png"}, {"rating": 5, "user_ratings_total": 28, "name": "Dr. Vaishali Sharma", "reference": "ChIJLVu62H7hDDkRLMElSrsq7PY", "geometry": {"location": {"lat": 28.52932869999999, "lng": 77.24343879999999}, "viewport": {"northeast": {"lat": 28.5307316802915, "lng": 77.2448399802915}, "southwest": {"lat": 28.52803371970849, "lng": 77.24214201970848}}}, "opening_hours": {"open_now": true}, "place_id": "ChIJLVu62H7hDDkRLMElSrsq7PY", "plus_code": {"global_code": "7JWVG6HV+P9", "compound_code": "G6HV+P9 New Delhi, Delhi, India"}, "vicinity": "S-549 Fortis la femme Greater Kailash-2 ( GK-2), New Delhi", "scope": "GOOGLE", "business_status": "OPERATIONAL", "types": ["doctor", "health", "point_of_interest", "establishment"], "icon": "https://maps.gstatic.com/mapfiles/place_api/icons/v1/png_71/generic_business-71.png"}, {"rating": 4.9, "user_ratings_total": 69, "name": "Anita Gupta best Gynaecologist Delhi", "reference": "ChIJxx42137hDDkRn7lQn9afL_A", "geometry": {"location": {"lat": 28.528993, "lng": 77.243833}, "viewport": {"northeast": {"lat": 28.5303998302915, "lng": 77.2450945302915}, "southwest": {"lat": 28.52770186970849, "lng": 77.24239656970849}}}, "opening_hours": {"open_now": false}, "place_id": "ChIJxx42137hDDkRn7lQn9afL_A", "plus_code": {"global_code": "7JWVG6HV+HG", "compound_code": "G6HV+HG New Delhi, Delhi, India"}, "vicinity": "Fortis La Femme S-549, Part-2, Greater Kailash, New Delhi", "photos": [{"photo_reference": "ATtYBwJZAIZHROdSNznUyioQJU9il9IRlRMroJcImTv7uVbN_Td2u3nWJt-G4eKpouWItokhxLlIAwR_fWRE4wU8j8Ss4tFLnjjH0NfZlXsv3fsHRsg9oW306C9dTVQwm31GBeIZNLfweMKo0UwDZ2CjY5wJ4WgxyauDn62UWyZu3Q940R_I", "width": 480, "html_attributions": ["<a href=\"https://maps.google.com/maps/contrib/111654649126281058659\">Anita Gupta best Gynaecologist Delhi</a>"], "height": 480}], "scope": "GOOGLE", "business_status": "OPERATIONAL", "types": ["doctor", "health", "point_of_interest", "establishment"], "icon": "https://maps.gstatic.com/mapfiles/place_api/icons/v1/png_71/generic_business-71.png"}, {"rating": 5, "user_ratings_total": 2, "name": "Delhi Gyne", "reference": "ChIJq62bfNXjDDkRYUrWl8NYDhM", "geometry": {"location": {"lat": 28.534331, "lng": 77.242792}, "viewport": {"northeast": {"lat": 28.5356878302915, "lng": 77.2441338802915}, "southwest": {"lat": 28.5329898697085, "lng": 77.2414359197085}}}, "opening_hours": {"open_now": true}, "place_id": "ChIJq62bfNXjDDkRYUrWl8NYDhM", "plus_code": {"global_code": "7JWVG6MV+P4", "compound_code": "G6MV+P4 New Delhi, Delhi, India"}, "vicinity": "E-339, 1 Near Mata Gujri Gurudwara, East Block Road, New Delhi", "scope": "GOOGLE", "business_status": "OPERATIONAL", "types": ["doctor", "health", "point_of_interest", "establishment"], "icon": "https://maps.gstatic.com/mapfiles/place_api/icons/v1/png_71/generic_business-71.png"}, {"rating": 2.7, "user_ratings_total": 6, "name": "Lifespan Diabetes Clinics, Greater Kailash \u2013 2", "reference": "ChIJU-c57DPiDDkRJtczDgmyWFQ", "geometry": {"location": {"lat": 28.532888, "lng": 77.244911}, "viewport": {"northeast": {"lat": 28.5341913302915, "lng": 77.24618623029151}, "southwest": {"lat": 28.5314933697085, "lng": 77.2434882697085}}}, "opening_hours": {"open_now": true}, "place_id": "ChIJU-c57DPiDDkRJtczDgmyWFQ", "plus_code": {"global_code": "7JWVG6MV+5X", "compound_code": "G6MV+5X New Delhi, Delhi, India"}, "vicinity": "S-303, 80 Feet Road, Block S, Greater Kailash, New Delhi", "photos": [{"photo_reference": "ATtYBwLw4NMWpkX74p65-Qp7uOHFd5Misx30EwPTchdVvEbWp4IMhiiRHHaacw4hfWLcWoow1nLGMWXq-iC1XtvPVaK3lJRJ3s8q6O5SOfgXNhoU8SvxqzGuF7snPKav8sFF_6aG2TtBy-jyg8WI_qd1ykrTvUKZR60zlp12Crohj3OF-yjC", "width": 1080, "html_attributions": ["<a href=\"https://maps.google.com/maps/contrib/104824253559193998518\">Alok Kumar Upadhayay</a>"], "height": 1920}], "scope": "GOOGLE", "business_status": "OPERATIONAL", "types": ["hospital", "doctor", "health", "point_of_interest", "establishment"], "icon": "https://maps.gstatic.com/mapfiles/place_api/icons/v1/png_71/generic_business-71.png"}, {"rating": 4.9, "user_ratings_total": 148, "name": "Clove Dental", "reference": "ChIJ40gm7TPiDDkRttcl-xTKdpo", "geometry": {"location": {"lat": 28.5344657, "lng": 77.243239}, "viewport": {"northeast": {"lat": 28.5358680802915, "lng": 77.2445396802915}, "southwest": {"lat": 28.5331701197085, "lng": 77.24184171970849}}}, "opening_hours": {"open_now": true}, "place_id": "ChIJ40gm7TPiDDkRttcl-xTKdpo", "plus_code": {"global_code": "7JWVG6MV+Q7", "compound_code": "G6MV+Q7 New Delhi, Delhi, India"}, "vicinity": "M-6, First Floor M Block Market, Greater Kailash II, New Delhi", "photos": [{"photo_reference": "ATtYBwIN3paQ8sICRJI_VQj8RDyXWhb_AF4OcPdDIdTyWzq0d6iqAQ5anglXijQDfQzR3Q77UkiZ3Hka4rEq2W_H4SSGYrnzYqpLUSowABda8H2r3G8n2sdOXuUMDbj_0KB6G5bN1S6XxhvLaCAfs8zNTG9sVbXzhrvTquOELjE1dgUF-qGZ", "width": 820, "html_attributions": ["<a href=\"https://maps.google.com/maps/contrib/113425564627163436017\">Clove Dental</a>"], "height": 312}], "scope": "GOOGLE", "business_status": "OPERATIONAL", "types": ["doctor", "dentist", "health", "point_of_interest", "establishment"], "icon": "https://maps.gstatic.com/mapfiles/place_api/icons/v1/png_71/generic_business-71.png"}, {"rating": 4.8, "user_ratings_total": 62, "name": "Dr Saket Goel, Best Laparoscopic Surgeon in Delhi, Hernia, Laser Surgeon, Gallbladder, Gastrointestinal Surgeon, Piles Surgery Delhi", "reference": "ChIJ0Vxq4BLiDDkRgpzBxt-E28Q", "geometry": {"location": {"lat": 28.5350932, "lng": 77.24224269999999}, "viewport": {"northeast": {"lat": 28.5365016302915, "lng": 77.24353653029151}, "southwest": {"lat": 28.5338036697085, "lng": 77.2408385697085}}}, "opening_hours": {"open_now": false}, "place_id": "ChIJ0Vxq4BLiDDkRgpzBxt-E28Q", "plus_code": {"global_code": "7JWVG6PR+2V", "compound_code": "G6PR+2V New Delhi, Delhi, India"}, "vicinity": "M-179, Block M, Greater Kailash II, Greater Kailash, New Delhi", "photos": [{"photo_reference": "ATtYBwK7zJlasaVrm57CS1kcQUgsOmrIogcVFUBpjkNJ20Pfo8o4Us7oDaKykX0n-SgCp4iI0a37FpcROEhXtbjmDSFcXwpR0HqdijB3PU92JR8vxQqcrA7i3Gk1uBT0t0NyvNzby3radAF7xnywGOdHp_-9b3lqTjDGFJm2Hhw4stNFbMP4", "width": 540, "html_attributions": ["<a href=\"https://maps.google.com/maps/contrib/105444705064847097091\">Dr Saket Goel, Best Laparoscopic Surgeon in Delhi, Hernia, Laser Surgeon, Gallbladder, Gastrointestinal Surgeon, Piles Surgery Delhi</a>"], "height": 601}], "scope": "GOOGLE", "business_status": "OPERATIONAL", "types": ["doctor", "health", "point_of_interest", "establishment"], "icon": "https://maps.gstatic.com/mapfiles/place_api/icons/v1/png_71/generic_business-71.png"}, {"rating": 4.8, "user_ratings_total": 29, "name": "Dr Madhu Goel, Best Gynaecologist, Infertility Specialist, Pregnancy Specialist, Gynae Clinic", "reference": "ChIJRwIZ6OzlDDkRAbTWiWF0dew", "geometry": {"location": {"lat": 28.5351055, "lng": 77.2422153}, "viewport": {"northeast": {"lat": 28.5365043302915, "lng": 77.2435180302915}, "southwest": {"lat": 28.5338063697085, "lng": 77.24082006970849}}}, "opening_hours": {"open_now": true}, "place_id": "ChIJRwIZ6OzlDDkRAbTWiWF0dew", "plus_code": {"global_code": "7JWVG6PR+2V", "compound_code": "G6PR+2V New Delhi, Delhi, India"}, "vicinity": "near by M Block, market Goel's Clinic M-179, near by M Block, Greater Kailash II, Greater Kailash, New Delhi", "photos": [{"photo_reference": "ATtYBwIOKP62v2vo9e4QtssDCNkGpXWdbxcTI9K6HEhWVuskH27Bw1gyo9KL8htho6v-QfINo5g8pAcBKfivvx9QONaCpB2mk7zhQL3uoQ00eU1-katIXJUFCtGZoio5aLy1IRcRgWD3T_8tsU-g0OYOMCp5wTgge2ZPcP2_8A1k8pXE5cUA", "width": 530, "html_attributions": ["<a href=\"https://maps.google.com/maps/contrib/117463076048977231763\">Dr Madhu Goel, Best Gynaecologist, Infertility Specialist, Pregnancy Specialist, Gynae Clinic</a>"], "height": 530}], "scope": "GOOGLE", "business_status": "OPERATIONAL", "types": ["doctor", "health", "point_of_interest", "establishment"], "icon": "https://maps.gstatic.com/mapfiles/place_api/icons/v1/png_71/generic_business-71.png"}, {"rating": 4, "user_ratings_total": 2, "name": "Goels Clinic, Best Hernia Surgeon, Best Laparoscopic Surgeon, Bariatric Surgery, Gallbladder Surgeon in Delhi", "reference": "ChIJg2bhazgCDTkRmqNR3dKoftU", "geometry": {"location": {"lat": 28.5350981, "lng": 77.2422395}, "viewport": {"northeast": {"lat": 28.5365043802915, "lng": 77.24353533029151}, "southwest": {"lat": 28.5338064197085, "lng": 77.2408373697085}}}, "opening_hours": {"open_now": false}, "place_id": "ChIJg2bhazgCDTkRmqNR3dKoftU", "plus_code": {"global_code": "7JWVG6PR+2V", "compound_code": "G6PR+2V New Delhi, Delhi, India"}, "vicinity": "GOELS CLINIC, M-179, (lower ground), Delhi, Greater Kailash II, Greater Kailash, New Delhi", "scope": "GOOGLE", "business_status": "OPERATIONAL", "types": ["doctor", "health", "point_of_interest", "establishment"], "icon": "https://maps.gstatic.com/mapfiles/place_api/icons/v1/png_71/generic_business-71.png"}, {"rating": 3.3, "user_ratings_total": 9, "name": "Dr Shrish Dutt Mishra", "reference": "ChIJ04bPIXzhDDkR0ccV3y4Mx4g", "geometry": {"location": {"lat": 28.53023, "lng": 77.24650319999999}, "viewport": {"northeast": {"lat": 28.5315962302915, "lng": 77.24777623029149}, "southwest": {"lat": 28.5288982697085, "lng": 77.24507826970849}}}, "opening_hours": {"open_now": true}, "place_id": "ChIJ04bPIXzhDDkR0ccV3y4Mx4g", "plus_code": {"global_code": "7JWVG6JW+3J", "compound_code": "G6JW+3J New Delhi, Delhi, India"}, "vicinity": "Southend orthopaedic clinic, S-172, Block S, Greater Kailash II, Greater Kailash, New Delhi", "scope": "GOOGLE", "business_status": "OPERATIONAL", "types": ["doctor", "health", "point_of_interest", "establishment"], "icon": "https://maps.gstatic.com/mapfiles/place_api/icons/v1/png_71/generic_business-71.png"}, {"name": "Lysonix Liposuction Surgery In Delhi", "reference": "ChIJmUARD9XjDDkRgFktix9SLO0", "geometry": {"location": {"lat": 28.5360569, "lng": 77.2429176}, "viewport": {"northeast": {"lat": 28.5374371302915, "lng": 77.2443177302915}, "southwest": {"lat": 28.5347391697085, "lng": 77.24161976970849}}}, "place_id": "ChIJmUARD9XjDDkRgFktix9SLO0", "plus_code": {"global_code": "7JWVG6PV+C5", "compound_code": "G6PV+C5 New Delhi, Delhi, India"}, "vicinity": "E-261 Greater Kailash Part 2 New Delhi-110048 E", "scope": "GOOGLE", "business_status": "OPERATIONAL", "types": ["doctor", "health", "point_of_interest", "establishment"], "icon": "https://maps.gstatic.com/mapfiles/place_api/icons/v1/png_71/generic_business-71.png"}, {"rating": 4.7, "user_ratings_total": 3, "name": "The Cosmetic Club Clinic", "reference": "ChIJVVWxW7TjDDkR7NS9F_YatjI", "geometry": {"location": {"lat": 28.536659, "lng": 77.240845}, "viewport": {"northeast": {"lat": 28.5379797302915, "lng": 77.2422355802915}, "southwest": {"lat": 28.53528176970849, "lng": 77.23953761970849}}}, "opening_hours": {"open_now": true}, "place_id": "ChIJVVWxW7TjDDkR7NS9F_YatjI", "plus_code": {"global_code": "7JWVG6PR+M8", "compound_code": "G6PR+M8 New Delhi, Delhi, India"}, "vicinity": "E 52, Block E, Greater Kailash II, Greater Kailash, New Delhi", "photos": [{"photo_reference": "ATtYBwKkQ6qIwgiBhZhEIFHlChhMJWIvvvvF_ESeBS1MBL1cK3XiTYrInBjb9Vwuk8q60RuSXAXxbmJIX8a3SB0KCJNUe_YNkI2HxoVK8uEocr_Rng-4lQpiXuymmft4H17m--kCCc58tBrL4wZhAOBItHT-M7USxYtEczk_DSsZzQN_bnbd", "width": 2048, "html_attributions": ["<a href=\"https://maps.google.com/maps/contrib/106005512478496824720\">The Cosmetic Club Clinic</a>"], "height": 1152}], "scope": "GOOGLE", "business_status": "OPERATIONAL", "types": ["beauty_salon", "hair_care", "doctor", "dentist", "health", "point_of_interest", "establishment"], "icon": "https://maps.gstatic.com/mapfiles/place_api/icons/v1/png_71/generic_business-71.png"}]}