{"status": "OK", "html_attributions": [], "results": [{"rating": 3, "user_ratings_total": 2, "name": "Baba Durgadass Ka Desi Dawakhana", "reference": "ChIJPxzbF8f9DDkRXVJ8nw5J3Uw", "geometry": {"location": {"lat": 28.684931, "lng": 77.26901079999999}, "viewport": {"northeast": {"lat": 28.6862541802915, "lng": 77.2703341302915}, "southwest": {"lat": 28.6835562197085, "lng": 77.26763616970848}}}, "opening_hours": {"open_now": true}, "place_id": "ChIJPxzbF8f9DDkRXVJ8nw5J3Uw", "plus_code": {"global_code": "7JWVM7M9+XJ", "compound_code": "M7M9+XJ Delhi, India"}, "vicinity": "C-194, Street No:4, Chauhan Banger, Block C, Brahampuri, Shahdara, Delhi", "scope": "GOOGLE", "business_status": "OPERATIONAL", "types": ["doctor", "health", "point_of_interest", "establishment"], "icon": "https://maps.gstatic.com/mapfiles/place_api/icons/v1/png_71/generic_business-71.png"}, {"rating": 4.5, "user_ratings_total": 2, "name": "Asha Deep Allergy Clinic", "reference": "ChIJVV0J0T_8DDkRvjz5a6q28_w", "geometry": {"location": {"lat": 28.69899499999999, "lng": 77.26303}, "viewport": {"northeast": {"lat": 28.70032258029149, "lng": 77.2644106802915}, "southwest": {"lat": 28.6976246197085, "lng": 77.26171271970848}}}, "opening_hours": {"open_now": true}, "place_id": "ChIJVV0J0T_8DDkRvjz5a6q28_w", "plus_code": {"global_code": "7JWVM7X7+H6", "compound_code": "M7X7+H6 Delhi, India"}, "vicinity": "Thana Road, Block D, Bhajanpura, Shahdara, Delhi", "scope": "GOOGLE", "business_status": "OPERATIONAL", "types": ["doctor", "health", "point_of_interest", "establishment"], "icon": "https://maps.gstatic.com/mapfiles/place_api/icons/v1/png_71/generic_business-71.png"}, {"rating": 4.6, "user_ratings_total": 9, "permanently_closed": true, "name": "Pathak Eye Centre", "reference": "ChIJpxhY7RX8DDkRaSN1RkzR_10", "geometry": {"location": {"lat": 28.6990049, "lng": 77.2631452}, "viewport": {"northeast": {"lat": 28.70033708029149, "lng": 77.2645191302915}, "southwest": {"lat": 28.69763911970849, "lng": 77.2618211697085}}}, "place_id": "ChIJpxhY7RX8DDkRaSN1RkzR_10", "vicinity": "C-56, Thana Road, Bhajanpura, Shahdara, New Delhi", "photos": [{"photo_reference": "ATtYBwJmpiQ979SeZ7jSR12HpIKV-YWD-UxC4AkPiaNQFro82e7bv2ajxUA9zRY9xmN3l9nj6c57nAR_WKe35L40BzopW4erjwafydtAvP62ZqoP4ep8UrKoxd0iUCrBSDhD-2qKHnpbFeX1-_ZzfUJB5Uanj79qYY3-qVJC49ItnyCVnF3Q", "width": 3120, "html_attributions": ["<a href=\"https://maps.google.com/maps/contrib/105162255477925691970\">Khushboo pathak Pathak</a>"], "height": 4160}], "scope": "GOOGLE", "business_status": "CLOSED_TEMPORARILY", "types": ["doctor", "health", "point_of_interest", "establishment"], "icon": "https://maps.gstatic.com/mapfiles/place_api/icons/v1/png_71/generic_business-71.png"}, {"name": "Dr. Jay", "reference": "ChIJ9VpHo3f9DDkR7CeI1VI8m48", "geometry": {"location": {"lat": 28.69547069999999, "lng": 77.268789}, "viewport": {"northeast": {"lat": 28.6968328802915, "lng": 77.2701265802915}, "southwest": {"lat": 28.6941349197085, "lng": 77.2674286197085}}}, "opening_hours": {"open_now": false}, "place_id": "ChIJ9VpHo3f9DDkR7CeI1VI8m48", "plus_code": {"global_code": "7JWVM7W9+5G", "compound_code": "M7W9+5G Delhi, India"}, "vicinity": "Krishna Mandir Gali, Block B, Subash Vihar, Shahdara, Delhi", "scope": "GOOGLE", "business_status": "OPERATIONAL", "types": ["doctor", "health", "point_of_interest", "establishment"], "icon": "https://maps.gstatic.com/mapfiles/place_api/icons/v1/png_71/generic_business-71.png"}, {"name": "FRIENDS PATHLAB & SURGICAL", "reference": "ChIJlz4a1D_8DDkRo3Et9l0ZNyU", "geometry": {"location": {"lat": 28.6990898, "lng": 77.2631968}, "viewport": {"northeast": {"lat": 28.70041588029151, "lng": 77.26457963029151}, "southwest": {"lat": 28.69771791970851, "lng": 77.2618816697085}}}, "place_id": "ChIJlz4a1D_8DDkRo3Et9l0ZNyU", "plus_code": {"global_code": "7JWVM7X7+J7", "compound_code": "M7X7+J7 Delhi, India"}, "vicinity": "Thana Road, Block D, Bhajanpura, Shahdara, Delhi", "scope": "GOOGLE", "business_status": "OPERATIONAL", "types": ["doctor", "health", "point_of_interest", "establishment"], "icon": "https://maps.gstatic.com/mapfiles/place_api/icons/v1/png_71/generic_business-71.png"}, {"rating": 5, "user_ratings_total": 4, "name": "Mm services and repairs", "reference": "ChIJaYjXQK79DDkRNca9zcJFgB0", "geometry": {"location": {"lat": 28.68338099999999, "lng": 77.26792999999999}, "viewport": {"northeast": {"lat": 28.6848440802915, "lng": 77.26932258029152}, "southwest": {"lat": 28.6821461197085, "lng": 77.2666246197085}}}, "opening_hours": {"open_now": true}, "place_id": "ChIJaYjXQK79DDkRNca9zcJFgB0", "plus_code": {"global_code": "7JWVM7M9+95", "compound_code": "M7M9+95 Delhi, India"}, "vicinity": "Brahmpuri, I-90, Street Number 10, Seelampur, Delhi", "photos": [{"photo_reference": "ATtYBwJjz4S8KjFFClkqbX6_GiB9yZC7hogkCBsij246D8pym4-7ixWfef53DQsbeMmEEgt_7-ie9IRPMN7CK-Kdy6TlCgGzev5g6uqcY-0DKGiDJZ77uO2F5zXdDcz6kfFJM_lqAtJbImIiJHJOn-CPuxNPFb30_N8XJ8E-7boz0RtR1m6x", "width": 889, "html_attributions": ["<a href=\"https://maps.google.com/maps/contrib/102826879094992250770\">Mm services and repairs</a>"], "height": 1080}], "scope": "GOOGLE", "business_status": "OPERATIONAL", "types": ["doctor", "health", "point_of_interest", "establishment"], "icon": "https://maps.gstatic.com/mapfiles/place_api/icons/v1/png_71/generic_business-71.png"}, {"rating": 5, "user_ratings_total": 7, "name": "Muhammadiya Charitable Dental and Medical centre", "reference": "ChIJy_in3F39DDkR4LTIZ-oGvBU", "geometry": {"location": {"lat": 28.681387, "lng": 77.26539199999999}, "viewport": {"northeast": {"lat": 28.6826549302915, "lng": 77.2667114302915}, "southwest": {"lat": 28.6799569697085, "lng": 77.26401346970849}}}, "opening_hours": {"open_now": true}, "place_id": "ChIJy_in3F39DDkR4LTIZ-oGvBU", "plus_code": {"global_code": "7JWVM7J8+H5", "compound_code": "M7J8+H5 Delhi, India"}, "vicinity": "91/250,House number, Cs, R-250, Gali Number 21, Brahampuri, Delhi", "photos": [{"photo_reference": "ATtYBwIH8pcdm-dhq0Fbtx_JFg81_pagoofj_A8BLSpvty0kKNcecx1GpSefYwFTUqu9XkKRis4fJqSDy3tR8JyXDO5wbjrQJucKADVJ7NpFJOeJI9NSd0bB_Abyg2yIg0FKSlqIHMAlEYzlc51ClSVrdu0V3uon50_C02U5cF1JRLsudA72", "width": 4608, "html_attributions": ["<a href=\"https://maps.google.com/maps/contrib/106793496454951678131\">Sanjeev Vashishtha</a>"], "height": 3456}], "scope": "GOOGLE", "business_status": "OPERATIONAL", "types": ["doctor", "dentist", "health", "point_of_interest", "establishment"], "icon": "https://maps.gstatic.com/mapfiles/place_api/icons/v1/png_71/generic_business-71.png"}, {"rating": 5, "user_ratings_total": 3, "name": "Sheen Clinic", "reference": "ChIJw8PS92X8DDkRrhW12M-uZgI", "geometry": {"location": {"lat": 28.6856912, "lng": 77.2701488}, "viewport": {"northeast": {"lat": 28.68705033029149, "lng": 77.27146073029151}, "southwest": {"lat": 28.6843523697085, "lng": 77.2687627697085}}}, "place_id": "ChIJw8PS92X8DDkRrhW12M-uZgI", "plus_code": {"global_code": "7JWVM7PC+73", "compound_code": "M7PC+73 Delhi, India"}, "vicinity": "Main Road, Kalyan Vihar, Gali", "photos": [{"photo_reference": "ATtYBwIqFOaY6_MKnsY4L6V5x8Om0V-fDwOeuHIeLQ66crbPgjUGsxdNnxstAedDi2tnEQSYPTeIZSu0DH5Z0SQvfARodyo2mw63AQmGiPhDotiLk2JzpeUGxV12ga-OAbTPs3FLv1TIJcNo7wwT8TeYexMgz1ynvokQr1sNafCtJ4gmDUZp", "width": 4000, "html_attributions": ["<a href=\"https://maps.google.com/maps/contrib/114813489271305521142\">Sameer Ali</a>"], "height": 3000}], "scope": "GOOGLE", "business_status": "OPERATIONAL", "types": ["doctor", "health", "point_of_interest", "establishment"], "icon": "https://maps.gstatic.com/mapfiles/place_api/icons/v1/png_71/generic_business-71.png"}, {"name": "Faith and cure homeopathic clinic", "reference": "ChIJjXcQMYX9DDkR8bLP345SVws", "geometry": {"location": {"lat": 28.6827436, "lng": 77.2677053}, "viewport": {"northeast": {"lat": 28.6841439802915, "lng": 77.26895548029151}, "southwest": {"lat": 28.6814460197085, "lng": 77.2662575197085}}}, "opening_hours": {"open_now": true}, "place_id": "ChIJjXcQMYX9DDkR8bLP345SVws", "plus_code": {"global_code": "7JWVM7M9+33", "compound_code": "M7M9+33 Delhi, India"}, "vicinity": "Gali Number 13, L-7, Brahampuri, Shahdara, Delhi", "photos": [{"photo_reference": "ATtYBwKmTEc1NjXRR4bIVckN5xtNnFo4JxL574hGo02FIYMh3Iy6ZBXZU2N1NzyGL40ld1uo4fxWE0COY9wQ6feXrvwJisXu7tP-GZ4Z0GMOGRDKhb-l7tla5LC8jCvo5dSga0LNN49CD2Ye9jpX6TI6WNeU_GqQjuKOdOQLmbNOF0AttjTE", "width": 1280, "html_attributions": ["<a href=\"https://maps.google.com/maps/contrib/102031388900350593831\">siddharth singh</a>"], "height": 720}], "scope": "GOOGLE", "business_status": "OPERATIONAL", "types": ["doctor", "health", "point_of_interest", "establishment"], "icon": "https://maps.gstatic.com/mapfiles/place_api/icons/v1/png_71/generic_business-71.png"}, {"rating": 4, "user_ratings_total": 8, "name": "Dr. Pardeep Saxena", "reference": "ChIJRZg9hxX8DDkRnRhxYz5Ij_U", "geometry": {"location": {"lat": 28.6998547, "lng": 77.263669}, "viewport": {"northeast": {"lat": 28.70123033029149, "lng": 77.2649751802915}, "southwest": {"lat": 28.6985323697085, "lng": 77.2622772197085}}}, "place_id": "ChIJRZg9hxX8DDkRnRhxYz5Ij_U", "plus_code": {"global_code": "7JWVM7X7+WF", "compound_code": "M7X7+WF Delhi, India"}, "vicinity": "P. Station, Thana Road, Bhajanpura, Shahdara, Delhi", "scope": "GOOGLE", "business_status": "OPERATIONAL", "types": ["doctor", "health", "point_of_interest", "establishment"], "icon": "https://maps.gstatic.com/mapfiles/place_api/icons/v1/png_71/generic_business-71.png"}, {"rating": 3, "user_ratings_total": 1, "name": "sahara clinic", "reference": "ChIJwU26fTL9DDkR2Bo1qwzLwYA", "geometry": {"location": {"lat": 28.7004534, "lng": 77.25919379999999}, "viewport": {"northeast": {"lat": 28.7018173802915, "lng": 77.2605555302915}, "southwest": {"lat": 28.6991194197085, "lng": 77.25785756970849}}}, "opening_hours": {"open_now": true}, "place_id": "ChIJwU26fTL9DDkR2Bo1qwzLwYA", "plus_code": {"global_code": "7JWVP725+5M", "compound_code": "P725+5M Shahdara, Delhi, India"}, "vicinity": "near bhajanpura, Shahdara, nazar", "photos": [{"photo_reference": "ATtYBwLMX8XvSg2_KnmLTlvTwXIZ85jRfZDhL00g0pbbnelKIpSpuTaa7qCJRmDbuXpmgbgXBRzqqKQgiImKqCo6lj5-AdE_A3Pi5h0dRda-wFrlOVtmFRl6J50JccuRoCvMvREOeJUsr25502YWVtEfb1XbuQPwGu3vVwe4u1EaROgH-da_", "width": 2160, "html_attributions": ["<a href=\"https://maps.google.com/maps/contrib/116793125631599938107\">sahara clinic</a>"], "height": 4560}], "scope": "GOOGLE", "business_status": "OPERATIONAL", "types": ["doctor", "health", "point_of_interest", "establishment"], "icon": "https://maps.gstatic.com/mapfiles/place_api/icons/v1/png_71/generic_business-71.png"}, {"name": "Khan clinic", "reference": "ChIJs5AEzRn9DDkR6M2hD82P_48", "geometry": {"location": {"lat": 28.69606, "lng": 77.269746}, "viewport": {"northeast": {"lat": 28.6974109802915, "lng": 77.2711006302915}, "southwest": {"lat": 28.69471301970851, "lng": 77.2684026697085}}}, "opening_hours": {"open_now": true}, "place_id": "ChIJs5AEzRn9DDkR6M2hD82P_48", "plus_code": {"global_code": "7JWVM7W9+CV", "compound_code": "M7W9+CV Delhi, India"}, "vicinity": "near kabrestan, Gali Number 8, North Ghonda, Delhi", "photos": [{"photo_reference": "ATtYBwJiNTD9S3QYPV-SP8g28F156qbVHAUkzU7fsh7fvnTIZ6DY8GGAZ9Xmb-ATI_CIi_glI9wkdtd70MnCUuUckxaj9jD3_-WE4U6v9rTeu_11GVLrCHnXh2o_Gm74QRzEVZRzGn9URHi94P-tXSxpS1w7SmXuBW7FcvJsAKvyE3Ne1j3v", "width": 1200, "html_attributions": ["<a href=\"https://maps.google.com/maps/contrib/103344474996737883077\">Khan clinic</a>"], "height": 1600}], "scope": "GOOGLE", "business_status": "OPERATIONAL", "types": ["doctor", "health", "point_of_interest", "establishment"], "icon": "https://maps.gstatic.com/mapfiles/place_api/icons/v1/png_71/generic_business-71.png"}, {"name": "Royal Rajput", "reference": "ChIJp4HmZ_z9DDkRIzI5XOGBKQo", "geometry": {"location": {"lat": 28.68179729999999, "lng": 77.2676518}, "viewport": {"northeast": {"lat": 28.68318178029149, "lng": 77.2690134802915}, "southwest": {"lat": 28.68048381970849, "lng": 77.2663155197085}}}, "place_id": "ChIJp4HmZ_z9DDkRIzI5XOGBKQo", "plus_code": {"global_code": "7JWVM7J9+P3", "compound_code": "M7J9+P3 Delhi, India"}, "vicinity": "B-436, Yamuna Vihar, Shahdara, Delhi", "photos": [{"photo_reference": "ATtYBwJ7IMjV-tbnAwurL30w_yrMDV-3WfTnBmISapoufvtvs_jbbYkdNQdI0m-UVLIOiFdntGc0Kx8KF_-Eb-HEdXB5xa9OBmb7A3zfzAozsMYxJqXnUpiBto_X9vJGoiq7-M2HRerYJlGpuVxtaMsOWotNpOvM7mZly6LQgGCSh3kiySWU", "width": 480, "html_attributions": ["<a href=\"https://maps.google.com/maps/contrib/115635154765240806130\">Royal Rajput</a>"], "height": 270}], "scope": "GOOGLE", "business_status": "OPERATIONAL", "types": ["doctor", "health", "point_of_interest", "establishment"], "icon": "https://maps.gstatic.com/mapfiles/place_api/icons/v1/png_71/generic_business-71.png"}, {"rating": 5, "user_ratings_total": 3, "name": "Dr. Azharuddin Saifi", "reference": "ChIJF4fmaFP9DDkRGG8v5Eu1dsc", "geometry": {"location": {"lat": 28.6827454, "lng": 77.2688553}, "viewport": {"northeast": {"lat": 28.68401983029149, "lng": 77.2701780302915}, "southwest": {"lat": 28.6813218697085, "lng": 77.2674800697085}}}, "opening_hours": {"open_now": false}, "place_id": "ChIJF4fmaFP9DDkRGG8v5Eu1dsc", "plus_code": {"global_code": "7JWVM7M9+3G", "compound_code": "M7M9+3G Delhi, India"}, "vicinity": "Sugra clinic, chamber no. 2, Matke Wali Gali, Chauhan Banger, Delhi", "scope": "GOOGLE", "business_status": "OPERATIONAL", "types": ["doctor", "health", "point_of_interest", "establishment"], "icon": "https://maps.gstatic.com/mapfiles/place_api/icons/v1/png_71/generic_business-71.png"}, {"rating": 4.9, "user_ratings_total": 9, "name": "Prem Medicare Centre ( Dr Sumit Kumar MBBS, MD)", "reference": "ChIJscI8k2z8DDkRVoUn4VvEZ9o", "geometry": {"location": {"lat": 28.6953204, "lng": 77.27061119999999}, "viewport": {"northeast": {"lat": 28.6966604302915, "lng": 77.2719868302915}, "southwest": {"lat": 28.6939624697085, "lng": 77.26928886970849}}}, "opening_hours": {"open_now": true}, "place_id": "ChIJscI8k2z8DDkRVoUn4VvEZ9o", "plus_code": {"global_code": "7JWVM7WC+46", "compound_code": "M7WC+46 Shahdara, Delhi, India"}, "vicinity": "C-150, Gali, 13, Yamuna Vihar Road, Block C, North Ghonda, Shahdara", "scope": "GOOGLE", "business_status": "OPERATIONAL", "types": ["doctor", "health", "point_of_interest", "establishment"], "icon": "https://maps.gstatic.com/mapfiles/place_api/icons/v1/png_71/generic_business-71.png"}, {"rating": 5, "user_ratings_total": 1, "name": "City Family Clinic", "reference": "ChIJrWGo6Wb8DDkRO75WNyDyIYc", "geometry": {"location": {"lat": 28.68133, "lng": 77.267315}, "viewport": {"northeast": {"lat": 28.6827288302915, "lng": 77.26868298029152}, "southwest": {"lat": 28.6800308697085, "lng": 77.26598501970851}}}, "opening_hours": {"open_now": true}, "place_id": "ChIJrWGo6Wb8DDkRO75WNyDyIYc", "plus_code": {"global_code": "7JWVM7J8+GW", "compound_code": "M7J8+GW Delhi, India"}, "vicinity": "R-5, St.no. 19, Brahmpuri, New Seelampur", "photos": [{"photo_reference": "ATtYBwJMONJFFHNosTnGz-rnCVzexhueyxRY9jwz6JWpGABsZz9UUxX-Cwc8kpvIjxj_VFbOTboLJDm8MCdW2W6fmKqpdh7NLk9N4v-LPGHETGlIegvo5fqXTvRIgqetaYbl3-UecAv6kJu-3wPxnZtrqpKlMLZqmLfhxZyj9EEbglPLcF6L", "width": 1280, "html_attributions": ["<a href=\"https://maps.google.com/maps/contrib/107655098056995652908\">City Family Clinic</a>"], "height": 960}], "scope": "GOOGLE", "business_status": "OPERATIONAL", "types": ["doctor", "health", "point_of_interest", "establishment"], "icon": "https://maps.gstatic.com/mapfiles/place_api/icons/v1/png_71/generic_business-71.png"}, {"rating": 5, "user_ratings_total": 4, "name": "Dr.Asims Para Nerve Clinic", "reference": "ChIJX8SpzpH9DDkRY_MZcGc3JbM", "geometry": {"location": {"lat": 28.6809056, "lng": 77.2667015}, "viewport": {"northeast": {"lat": 28.6822204802915, "lng": 77.2680359302915}, "southwest": {"lat": 28.6795225197085, "lng": 77.26533796970848}}}, "opening_hours": {"open_now": false}, "place_id": "ChIJX8SpzpH9DDkRY_MZcGc3JbM", "plus_code": {"global_code": "7JWVM7J8+9M", "compound_code": "M7J8+9M Delhi, India"}, "vicinity": "R235, Gali Number 21, Block R, Brahampuri, Shahdara, Delhi", "photos": [{"photo_reference": "ATtYBwKf6NrActFF1soKGkzGTIGuZQbtVTUeRK-_mObIZAPU33CJwfIfz05F47xjCjIK1TAU78PSWBM1V5ZqPEy6OihsswzMOVFfmdxgGg6__px_x392-mt8BnuFvfHEsrGPKy7FRGywidH_gUswm_92o65dDKA4YBxqWGNgFMHHu7EEGzAR", "width": 3456, "html_attributions": ["<a href=\"https://maps.google.com/maps/contrib/116093160255357650432\">dr.asim zafar</a>"], "height": 3456}], "scope": "GOOGLE", "business_status": "OPERATIONAL", "types": ["doctor", "health", "point_of_interest", "establishment"], "icon": "https://maps.gstatic.com/mapfiles/place_api/icons/v1/png_71/generic_business-71.png"}, {"name": "Dr. Baqar Riyaz", "reference": "ChIJjzZXEHP9DDkRXZvGQ9gpYZI", "geometry": {"location": {"lat": 28.6979437, "lng": 77.2687491}, "viewport": {"northeast": {"lat": 28.6993877802915, "lng": 77.2699916302915}, "southwest": {"lat": 28.6966898197085, "lng": 77.2672936697085}}}, "opening_hours": {"open_now": true}, "place_id": "ChIJjzZXEHP9DDkRXZvGQ9gpYZI", "plus_code": {"global_code": "7JWVM7X9+5F", "compound_code": "M7X9+5F Delhi, India"}, "vicinity": "Lane No.13, Subash Vihar, Shahdara, Delhi", "photos": [{"photo_reference": "ATtYBwI1HyndaXPyMhkNsh0a8n3wg6toTVjh9wdPwPUHl1-PHax907d8JueE7p8Sjf2vcqbBsLs4QIPcIyR495dZ4VgoHWI_ied5eORYjG30FZjlgbLMIBXGLryKtWUkLi0Okck3zD94o8Rmh3PMe4_Uxy6ZNP9-SOc5b2b4m3fgqXol7oOR", "width": 1065, "html_attributions": ["<a href=\"https://maps.google.com/maps/contrib/108863479518924884739\">Sadiq riaz</a>"], "height": 1065}], "scope": "GOOGLE", "business_status": "OPERATIONAL", "types": ["doctor", "health", "point_of_interest", "establishment"], "icon": "https://maps.gstatic.com/mapfiles/place_api/icons/v1/png_71/generic_business-71.png"}, {"rating": 5, "user_ratings_total": 1, "name": "chaudhary clinic", "reference": "ChIJ6ccrjBX8DDkRomxBuNxfB90", "geometry": {"location": {"lat": 28.700588, "lng": 77.26395839999999}, "viewport": {"northeast": {"lat": 28.7019195302915, "lng": 77.26535388029151}, "southwest": {"lat": 28.6992215697085, "lng": 77.2626559197085}}}, "place_id": "ChIJ6ccrjBX8DDkRomxBuNxfB90", "plus_code": {"global_code": "7JWVP727+6H", "compound_code": "P727+6H Delhi, India"}, "vicinity": "Thana Road, Block C 2, Bhajanpura, Shahdara, Delhi", "scope": "GOOGLE", "business_status": "OPERATIONAL", "types": ["doctor", "health", "point_of_interest", "establishment"], "icon": "https://maps.gstatic.com/mapfiles/place_api/icons/v1/png_71/generic_business-71.png"}, {"rating": 5, "user_ratings_total": 1, "name": "Dr.akram clinic", "reference": "ChIJf5OcsAD9DDkRmDtIBvYhbTw", "geometry": {"location": {"lat": 28.68221089999999, "lng": 77.2691581}, "viewport": {"northeast": {"lat": 28.6835809302915, "lng": 77.2705162302915}, "southwest": {"lat": 28.6808829697085, "lng": 77.2678182697085}}}, "place_id": "ChIJf5OcsAD9DDkRmDtIBvYhbTw", "plus_code": {"global_code": "7JWVM7J9+VM", "compound_code": "M7J9+VM Delhi, India"}, "vicinity": "d, C, 47/15, street 11/4chouhan banger, Chauhan Banger, Shahdara, Delhi", "scope": "GOOGLE", "business_status": "OPERATIONAL", "types": ["doctor", "health", "point_of_interest", "establishment"], "icon": "https://maps.gstatic.com/mapfiles/place_api/icons/v1/png_71/generic_business-71.png"}]}