{"status": "OK", "next_page_token": "ATtYBwIA-0HNh3iKng4530T_AkYgzcLqIsgiZ-X5053wCFLP8Sja9Lma5dHpvE2n2LBMir7pyEXpsVF0Vtcse8ZcFw5oMk0giT83Ar548jJCrXj_kW0JVBg7sHzWg71Iph0wPC4s7ScQw5-_mXx_O7f2X73TkedyoEztenOSkU2af-9ilSHkBFo49z0ENXWLUqWZI3OAgfC6hkBw9zG3RKmq9qde5-yjrO2OPiQJ_T5PAzNmZomZKGJ-KuCW7hYqnJJEtpCxMCv4ZRzmI1hhfpi2g-Qm1z2loQJA11eXu9QhDByo_xpafv75t0qY-IXjfm_VOkN37emshGTI_8dtHYxFxmWVKUXCgSNImpe0jUeiln4DTcXjY_Pv5vMIFsrnehN6lfNO6mNfo-v544HmmRCsvO-lTuvZ4ylPxoKdMw8FFVQsag", "html_attributions": [], "results": [{"rating": 5, "user_ratings_total": 1, "name": "Liver Transplant & Hepatobiliary Surgeon, Dr.Vishal Kumar Chorasiya", "reference": "ChIJAQAAJ1zlDDkR2socyebtwIk", "geometry": {"location": {"lat": 28.5310874, "lng": 77.297381}, "viewport": {"northeast": {"lat": 28.5325036302915, "lng": 77.2986750802915}, "southwest": {"lat": 28.52980566970849, "lng": 77.2959771197085}}}, "opening_hours": {"open_now": true}, "place_id": "ChIJAQAAJ1zlDDkR2socyebtwIk", "plus_code": {"global_code": "7JWVG7JW+CX", "compound_code": "G7JW+CX New Delhi, Delhi, India"}, "vicinity": "Delhi, D-196, Sarita Vihar, New Delhi", "scope": "GOOGLE", "business_status": "OPERATIONAL", "types": ["doctor", "health", "point_of_interest", "establishment"], "icon": "https://maps.gstatic.com/mapfiles/place_api/icons/v1/png_71/generic_business-71.png"}, {"rating": 4.7, "user_ratings_total": 99, "name": "Dr Manish Sinha MD, DM (Neurology), FINR (Switzerland)", "reference": "ChIJaZPAt03iDDkRje1VcmfISbA", "geometry": {"location": {"lat": 28.53684179999999, "lng": 77.29556409999999}, "viewport": {"northeast": {"lat": 28.5382043302915, "lng": 77.2967194802915}, "southwest": {"lat": 28.5355063697085, "lng": 77.29402151970848}}}, "opening_hours": {"open_now": false}, "place_id": "ChIJaZPAt03iDDkRje1VcmfISbA", "plus_code": {"global_code": "7JWVG7PW+P6", "compound_code": "G7PW+P6 New Delhi, Delhi, India"}, "vicinity": "J- 342, Sarita Vihar, New Delhi", "photos": [{"photo_reference": "ATtYBwINbJd3asXSc_xZkwJvpweqsMJxJJKRzCC54NQwuVSfnlb2ly9a4Hk66KSutWllt0zqgeplHZW4Q1DNkImYRfvwDuUPn32-QWZs3rBlcP41ikJ_K6eh4mQrLQajzk9b6jMh143exhRqsxrOvv35CaWupUsLntHnCgqye7fH4JC0VE9-", "width": 2048, "html_attributions": ["<a href=\"https://maps.google.com/maps/contrib/118081951177922821244\">Dr Manish Sinha MD, DM (Neurology), FINR (Switzerland)</a>"], "height": 1536}], "scope": "GOOGLE", "business_status": "OPERATIONAL", "types": ["doctor", "health", "point_of_interest", "establishment"], "icon": "https://maps.gstatic.com/mapfiles/place_api/icons/v1/png_71/generic_business-71.png"}, {"rating": 4.6, "user_ratings_total": 59, "name": "Dr.Rakhi Gupta", "reference": "ChIJDVLckq7mDDkROC5V9XBZars", "geometry": {"location": {"lat": 28.5310469, "lng": 77.29354599999999}, "viewport": {"northeast": {"lat": 28.5324102302915, "lng": 77.2949131302915}, "southwest": {"lat": 28.5297122697085, "lng": 77.29221516970848}}}, "opening_hours": {"open_now": false}, "place_id": "ChIJDVLckq7mDDkROC5V9XBZars", "plus_code": {"global_code": "7JWVG7JV+CC", "compound_code": "G7JV+CC New Delhi, Delhi, India"}, "vicinity": "C-36, Ground Floor, Sarita Vihar, New Delhi", "photos": [{"photo_reference": "ATtYBwLQWJBRhfsQA-nCdFkh1_hFUbd9jjeiIHc_2i4dZDi0jDnoylHwJAwnsHRooKlJruURZp5UngIiD0G9IZu8fp2ueI9rrv-BRAmxFRLatGBKYgwVg4--nd6HeLD5ajPWaTXoff2iXqujZTK7HTemJCvn8XApnUB6rBNyjp_CHVJ-eHzR", "width": 778, "html_attributions": ["<a href=\"https://maps.google.com/maps/contrib/104167952175130718518\">Dr.Rakhi Gupta</a>"], "height": 436}], "scope": "GOOGLE", "business_status": "OPERATIONAL", "types": ["doctor", "health", "point_of_interest", "establishment"], "icon": "https://maps.gstatic.com/mapfiles/place_api/icons/v1/png_71/generic_business-71.png"}, {"name": "Kolkata Clinic", "reference": "ChIJ-8g8cKTmDDkRvsEBiB3Wsxs", "geometry": {"location": {"lat": 28.53193659999999, "lng": 77.3030634}, "viewport": {"northeast": {"lat": 28.5332632802915, "lng": 77.30438458029151}, "southwest": {"lat": 28.5305653197085, "lng": 77.3016866197085}}}, "opening_hours": {"open_now": false}, "place_id": "ChIJ-8g8cKTmDDkRvsEBiB3Wsxs", "plus_code": {"global_code": "7JWVG8J3+Q6", "compound_code": "G8J3+Q6 Sarita Vihar, New Delhi, Delhi, India"}, "vicinity": "Shop No 512, Chauhan Mohalla, Madanpur Khadar, Sarita Vihar", "scope": "GOOGLE", "business_status": "OPERATIONAL", "types": ["doctor", "health", "point_of_interest", "establishment"], "icon": "https://maps.gstatic.com/mapfiles/place_api/icons/v1/png_71/generic_business-71.png"}, {"name": "Mi Heart & Womens Health Care Clinic", "reference": "ChIJv9E8Pa_mDDkRRM13_pEpHfg", "geometry": {"location": {"lat": 28.532, "lng": 77.2959}, "viewport": {"northeast": {"lat": 28.5333660302915, "lng": 77.29723633029151}, "southwest": {"lat": 28.53066806970849, "lng": 77.29453836970849}}}, "place_id": "ChIJv9E8Pa_mDDkRRM13_pEpHfg", "plus_code": {"global_code": "7JWVG7JW+Q9", "compound_code": "G7JW+Q9 New Delhi, Delhi, India"}, "vicinity": "C-36 Ground Floor Adjacent C-pocket Market Sarita Vihar", "scope": "GOOGLE", "business_status": "OPERATIONAL", "types": ["doctor", "health", "point_of_interest", "establishment"], "icon": "https://maps.gstatic.com/mapfiles/place_api/icons/v1/png_71/generic_business-71.png"}, {"rating": 2.3, "user_ratings_total": 3, "name": "Asha Clinic", "reference": "ChIJi20_S6rmDDkR3I-X1-_U-5c", "geometry": {"location": {"lat": 28.5340746, "lng": 77.2913762}, "viewport": {"northeast": {"lat": 28.5354688302915, "lng": 77.29270153029151}, "southwest": {"lat": 28.5327708697085, "lng": 77.2900035697085}}}, "place_id": "ChIJi20_S6rmDDkR3I-X1-_U-5c", "plus_code": {"global_code": "7JWVG7MR+JH", "compound_code": "G7MR+JH New Delhi, Delhi, India"}, "vicinity": "H-123, Rd No 13A, Sarita Vihar, Pocket H, Jasola, New Delhi", "scope": "GOOGLE", "business_status": "OPERATIONAL", "types": ["doctor", "health", "point_of_interest", "establishment"], "icon": "https://maps.gstatic.com/mapfiles/place_api/icons/v1/png_71/generic_business-71.png"}, {"rating": 4.6, "user_ratings_total": 69, "name": "AcuVision Eye Center", "reference": "ChIJMZEMRavmDDkRwnn2ZOBPrj8", "geometry": {"location": {"lat": 28.5333485, "lng": 77.2915847}, "viewport": {"northeast": {"lat": 28.5347309302915, "lng": 77.2929828802915}, "southwest": {"lat": 28.5320329697085, "lng": 77.2902849197085}}}, "opening_hours": {"open_now": false}, "place_id": "ChIJMZEMRavmDDkRwnn2ZOBPrj8", "plus_code": {"global_code": "7JWVG7MR+8J", "compound_code": "G7MR+8J New Delhi, Delhi, India"}, "vicinity": "First Floor, Manushi Sadan, 3A, Maharaja Agarsen Marg, Pocket B, Sarita Vihar, New Delhi", "photos": [{"photo_reference": "ATtYBwJ-w6eyawMMSZgKYOGTtR55JxpsadJiWBAVHGO7skBpokYGvyezTQf4FK4oVm3b1z8fCAF5yK-8djk0yLtNDoJKe9J2RZJ2nEaRY-r8vxCl6tsotKP_vuGUD-yyt7vvhL5Rw8rieOMOvHUuQK2p2Vt_h-2GakiYCnQ3rkgbclpaTlAe", "width": 1280, "html_attributions": ["<a href=\"https://maps.google.com/maps/contrib/107909232735921398002\">AcuVision Eye Center</a>"], "height": 960}], "scope": "GOOGLE", "business_status": "OPERATIONAL", "types": ["doctor", "health", "point_of_interest", "establishment"], "icon": "https://maps.gstatic.com/mapfiles/place_api/icons/v1/png_71/generic_business-71.png"}, {"rating": 5, "user_ratings_total": 15, "name": "Surgeon Sarita Vihar", "reference": "ChIJp8-SpanmDDkRxuYuINfvepQ", "geometry": {"location": {"lat": 28.536474, "lng": 77.29433499999999}, "viewport": {"northeast": {"lat": 28.5378641302915, "lng": 77.2956642802915}, "southwest": {"lat": 28.5351661697085, "lng": 77.29296631970848}}}, "opening_hours": {"open_now": false}, "place_id": "ChIJp8-SpanmDDkRxuYuINfvepQ", "plus_code": {"global_code": "7JWVG7PV+HP", "compound_code": "G7PV+HP New Delhi, Delhi, India"}, "vicinity": "350, Pocket J, Sarita Vihar, New Delhi", "photos": [{"photo_reference": "ATtYBwK0le0rYlQ-Yz0D6IWlhXLv5xy5hGo9UC7Q1_tsbaLDyugzOBXb0XpcpBOx5ZOYKmZIpICyXxW4sIh451EBGN0biPIYBbQmh99GQewJOxQmmZbymwNd_XulpS3xoYINGGvp1HoxO9oFlNJ-DfSBdV0s3sCnwz1mspFO33aU5SUrkh2P", "width": 2240, "html_attributions": ["<a href=\"https://maps.google.com/maps/contrib/110364486318164828100\">Surgeon Sarita Vihar</a>"], "height": 4608}], "scope": "GOOGLE", "business_status": "OPERATIONAL", "types": ["doctor", "health", "point_of_interest", "establishment"], "icon": "https://maps.gstatic.com/mapfiles/place_api/icons/v1/png_71/generic_business-71.png"}, {"rating": 4.8, "user_ratings_total": 131, "name": "Clove Dental", "reference": "ChIJKZmTQKjmDDkRNiuFRuJmd8c", "geometry": {"location": {"lat": 28.5375851, "lng": 77.296307}, "viewport": {"northeast": {"lat": 28.5388415802915, "lng": 77.2977095302915}, "southwest": {"lat": 28.5361436197085, "lng": 77.29501156970849}}}, "opening_hours": {"open_now": true}, "place_id": "ChIJKZmTQKjmDDkRNiuFRuJmd8c", "plus_code": {"global_code": "7JWVG7QW+2G", "compound_code": "G7QW+2G New Delhi, Delhi, India"}, "vicinity": "No.105, First Floor, CSC Pocket - K & L, Sarita Vihar, New Delhi", "photos": [{"photo_reference": "ATtYBwLmOGh8ZkLnZquxRjkbf_Mk_qztji7fUWK-EJbA0m15GgvNfLZqylVT4-f4GFBGM4Vb-8zSwEKY4tmM4m5MOGu0n7X3StaxlpJ_bNSBr7-KpQSf19MiikV4MIo9Rq4csdFNGvL_q9C2OUn5_IZYrkXrjzWeRA6IXF665_kJWox2viva", "width": 820, "html_attributions": ["<a href=\"https://maps.google.com/maps/contrib/113660559928195662160\">Clove Dental</a>"], "height": 312}], "scope": "GOOGLE", "business_status": "OPERATIONAL", "types": ["doctor", "dentist", "health", "point_of_interest", "establishment"], "icon": "https://maps.gstatic.com/mapfiles/place_api/icons/v1/png_71/generic_business-71.png"}, {"rating": 4, "user_ratings_total": 1, "name": "Dr. R.R. Kasliwal", "reference": "ChIJpbSuaqnmDDkR-94aspPbcwU", "geometry": {"location": {"lat": 28.5328198, "lng": 77.2907146}, "viewport": {"northeast": {"lat": 28.5341898302915, "lng": 77.2920926802915}, "southwest": {"lat": 28.5314918697085, "lng": 77.2893947197085}}}, "place_id": "ChIJpbSuaqnmDDkR-94aspPbcwU", "plus_code": {"global_code": "7JWVG7MR+47", "compound_code": "G7MR+47 New Delhi, Delhi, India"}, "vicinity": "H 170, Sarita Vihar, New Delhi", "scope": "GOOGLE", "business_status": "OPERATIONAL", "types": ["doctor", "health", "point_of_interest", "establishment"], "icon": "https://maps.gstatic.com/mapfiles/place_api/icons/v1/png_71/generic_business-71.png"}, {"rating": 3, "user_ratings_total": 25, "name": "Dr. Shishir Seth", "reference": "ChIJYTvW5v7jDDkRBHD0JPDu-v0", "geometry": {"location": {"lat": 28.5275779, "lng": 77.28973359999999}, "viewport": {"northeast": {"lat": 28.5289058302915, "lng": 77.29105788029152}, "southwest": {"lat": 28.5262078697085, "lng": 77.28835991970851}}}, "place_id": "ChIJYTvW5v7jDDkRBHD0JPDu-v0", "plus_code": {"global_code": "7JWVG7HQ+2V", "compound_code": "G7HQ+2V New Delhi, Delhi, India"}, "vicinity": "Mathura Road, Sarita Vihar, New Delhi", "scope": "GOOGLE", "business_status": "OPERATIONAL", "types": ["doctor", "health", "point_of_interest", "establishment"], "icon": "https://maps.gstatic.com/mapfiles/place_api/icons/v1/png_71/generic_business-71.png"}, {"rating": 4.1, "user_ratings_total": 27, "name": "Dr. S K Wangnoo", "reference": "ChIJT3yDR_7jDDkRm2QNpaDdz0M", "geometry": {"location": {"lat": 28.5294461, "lng": 77.2882178}, "viewport": {"northeast": {"lat": 28.53078358029151, "lng": 77.2895327302915}, "southwest": {"lat": 28.5280856197085, "lng": 77.28683476970848}}}, "place_id": "ChIJT3yDR_7jDDkRm2QNpaDdz0M", "plus_code": {"global_code": "7JWVG7HQ+Q7", "compound_code": "G7HQ+Q7 New Delhi, Delhi, India"}, "vicinity": "Room No. 4168, 1st Floor, Gate No. 10, Acode Department, Sarita Vihar, Delhi-Mathura Road, New Delhi", "scope": "GOOGLE", "business_status": "OPERATIONAL", "types": ["doctor", "health", "point_of_interest", "establishment"], "icon": "https://maps.gstatic.com/mapfiles/place_api/icons/v1/png_71/generic_business-71.png"}, {"rating": 4.5, "user_ratings_total": 33, "name": "Best Nephrologist in Noida, Nephrology Doctors in Noida, Kidney Treatment in Noida, Best Nephrology Specialist in Noida, Best Kidney Specialist in Noida, Best Kidney Transplant Doctors Noida, Best Kidney Treatment in Noida, Kidney Transplant Specialist Noida, Nephrology Doctors in Delhi NCR", "reference": "ChIJdxG3Qv7jDDkRhuXIKz_lS2c", "geometry": {"location": {"lat": 28.529445, "lng": 77.28821599999999}, "viewport": {"northeast": {"lat": 28.5307829802915, "lng": 77.2895322302915}, "southwest": {"lat": 28.5280850197085, "lng": 77.28683426970849}}}, "opening_hours": {"open_now": true}, "place_id": "ChIJdxG3Qv7jDDkRhuXIKz_lS2c", "plus_code": {"global_code": "7JWVG7HQ+Q7", "compound_code": "G7HQ+Q7 New Delhi, Delhi, India"}, "vicinity": "Mathura Road, Pocket A, Sarita Vihar, New Delhi", "photos": [{"photo_reference": "ATtYBwITFRhyg3ny27eUMoFJIGZ-Ha7XbCRVmamIcc_OQGzMIFYrmD2ulwE6VEmMsFoIC8NSdWSAPUtBh7y42zEmiIgPTqayVVdtnTvPuX9QZTDWz_olMZW1KKMipZfg2w9aE6JKL99cq3kiyOt_SgWa2WXdyLq5gMrVDcpefVlnNvXtVb_q", "width": 308, "html_attributions": ["<a href=\"https://maps.google.com/maps/contrib/116342198353444140096\">Best Nephrectomy,Nephrologist,Kidney Specialist,Kidney transplant Doctors in Noida,Delhi NCR,India - Dr. D.K. Agarwal</a>"], "height": 400}], "scope": "GOOGLE", "business_status": "OPERATIONAL", "types": ["doctor", "health", "point_of_interest", "establishment"], "icon": "https://maps.gstatic.com/mapfiles/place_api/icons/v1/png_71/generic_business-71.png"}, {"rating": 1, "user_ratings_total": 1, "name": "Metropolis Healthcare Ltd", "reference": "ChIJVVVVFanmDDkRQsdzLOzrqjI", "geometry": {"location": {"lat": 28.5311698, "lng": 77.28748329999999}, "viewport": {"northeast": {"lat": 28.5325073302915, "lng": 77.2887988802915}, "southwest": {"lat": 28.5298093697085, "lng": 77.28610091970847}}}, "opening_hours": {"open_now": true}, "place_id": "ChIJVVVVFanmDDkRQsdzLOzrqjI", "plus_code": {"global_code": "7JWVG7JP+FX", "compound_code": "G7JP+FX New Delhi, Delhi, India"}, "vicinity": "Mathura Road, Pocket B, Saidabad, New Delhi", "scope": "GOOGLE", "business_status": "OPERATIONAL", "types": ["doctor", "health", "point_of_interest", "establishment"], "icon": "https://maps.gstatic.com/mapfiles/place_api/icons/v1/png_71/generic_business-71.png"}, {"rating": 4.8, "user_ratings_total": 11, "name": "Dr Anand Vadehra Orthopedic Clinic- Best Orthopedic & Joint Replacement Surgeon In Delhi", "reference": "ChIJv8-RrCLnDDkRKV0mymSat6I", "geometry": {"location": {"lat": 28.53047299999999, "lng": 77.30033399999999}, "viewport": {"northeast": {"lat": 28.5317834302915, "lng": 77.30162448029151}, "southwest": {"lat": 28.52908546970849, "lng": 77.29892651970849}}}, "opening_hours": {"open_now": false}, "place_id": "ChIJv8-RrCLnDDkRKV0mymSat6I", "plus_code": {"global_code": "7JWVG8J2+54", "compound_code": "G8J2+54 New Delhi, Delhi, India"}, "vicinity": "E-274, E Block, Sarita Vihar, New Delhi", "scope": "GOOGLE", "business_status": "OPERATIONAL", "types": ["doctor", "health", "point_of_interest", "establishment"], "icon": "https://maps.gstatic.com/mapfiles/place_api/icons/v1/png_71/generic_business-71.png"}, {"rating": 4.4, "user_ratings_total": 13, "permanently_closed": true, "name": "Dr.Pratibha Chaurasia, Obstetrician- Gynaecologist", "reference": "ChIJKR4JC6XmDDkRkT686-tskuc", "geometry": {"location": {"lat": 28.5310729, "lng": 77.2973464}, "viewport": {"northeast": {"lat": 28.5324867302915, "lng": 77.29864243029151}, "southwest": {"lat": 28.5297887697085, "lng": 77.29594446970849}}}, "place_id": "ChIJKR4JC6XmDDkRkT686-tskuc", "plus_code": {"global_code": "7JWVG7JW+CW", "compound_code": "G7JW+CW New Delhi, Delhi, India"}, "vicinity": "D-196, Pocket D, Sarita Vihar, New Delhi", "photos": [{"photo_reference": "ATtYBwKYj1dFbzQ--U-ZQEP34qPAWXyb-3oFd92BDw57IpzF4kmNf5uYYA4KJujxijLZb0ee1wqh93GkcDCGba4hQ5tFvPIydmvgKGc_GsLjhvlM6sxVdJWLn1RWVyaj2mAECfi3txR6oawBEYUP2A59UPuVY_6BIb6KPY-jVT0kFndrPCC5", "width": 4000, "html_attributions": ["<a href=\"https://maps.google.com/maps/contrib/101204990491343076695\">Dr.Pratibha Chaurasia, Obstetrician- Gynaecologist</a>"], "height": 3000}], "scope": "GOOGLE", "business_status": "CLOSED_TEMPORARILY", "types": ["doctor", "health", "point_of_interest", "establishment"], "icon": "https://maps.gstatic.com/mapfiles/place_api/icons/v1/png_71/generic_business-71.png"}, {"name": "Dr Sachdeva", "reference": "ChIJoYx-sqbnDDkRWx5pOBXqDCc", "geometry": {"location": {"lat": 28.5335033, "lng": 77.2992483}, "viewport": {"northeast": {"lat": 28.5348824302915, "lng": 77.30057823029149}, "southwest": {"lat": 28.53218446970849, "lng": 77.29788026970849}}}, "place_id": "ChIJoYx-sqbnDDkRWx5pOBXqDCc", "plus_code": {"global_code": "7JWVG7MX+CM", "compound_code": "G7MX+CM New Delhi, Delhi, India"}, "vicinity": "Unnamed Road, Madanpur Khadar Village, Madanpur Khadar, New Delhi", "scope": "GOOGLE", "business_status": "OPERATIONAL", "types": ["doctor", "health", "point_of_interest", "establishment"], "icon": "https://maps.gstatic.com/mapfiles/place_api/icons/v1/png_71/generic_business-71.png"}, {"name": "Vikash clinic", "reference": "ChIJWR4Q9wznDDkRwthklCOgt6s", "geometry": {"location": {"lat": 28.5275176, "lng": 77.30300489999999}, "viewport": {"northeast": {"lat": 28.5288479302915, "lng": 77.30438528029151}, "southwest": {"lat": 28.5261499697085, "lng": 77.30168731970849}}}, "opening_hours": {"open_now": true}, "place_id": "ChIJWR4Q9wznDDkRwthklCOgt6s", "plus_code": {"global_code": "7JWVG8H3+26", "compound_code": "G8H3+26 New Delhi, Delhi, India"}, "vicinity": "Priyanka Camp, Ali, New Delhi", "scope": "GOOGLE", "business_status": "OPERATIONAL", "types": ["doctor", "health", "point_of_interest", "establishment"], "icon": "https://maps.gstatic.com/mapfiles/place_api/icons/v1/png_71/generic_business-71.png"}, {"rating": 4.6, "user_ratings_total": 69, "name": "Dr Sandeep Guleria", "reference": "ChIJPyc2Pa_mDDkRskCcSGQS0WU", "geometry": {"location": {"lat": 28.531953, "lng": 77.2958536}, "viewport": {"northeast": {"lat": 28.5332910802915, "lng": 77.29720938029152}, "southwest": {"lat": 28.53059311970849, "lng": 77.2945114197085}}}, "opening_hours": {"open_now": true}, "place_id": "ChIJPyc2Pa_mDDkRskCcSGQS0WU", "plus_code": {"global_code": "7JWVG7JW+Q8", "compound_code": "G7JW+Q8 New Delhi, Delhi, India"}, "vicinity": "Indraprastha Apollo Hospitals, Sarita Vihar, New Delhi", "photos": [{"photo_reference": "ATtYBwI_w7C-etU1PVpwuwwNhYEkMNYdrB95yheoHWAjxvxh1XdpMqSUrrHCqVmXcPntSVqlurUDhPIJgzdFdwTJCQyJgHjP6UXwcbn5LN77nXu-NC3qWKPe9lr0Cn_Z8DvZTZbfaPM-9buJ_h9baZHA_X6FxHvuq6hSnkS8WfH3T5UDxmWu", "width": 3136, "html_attributions": ["<a href=\"https://maps.google.com/maps/contrib/113365967745927298067\">Prem Kumar</a>"], "height": 4224}], "scope": "GOOGLE", "business_status": "OPERATIONAL", "types": ["doctor", "health", "point_of_interest", "establishment"], "icon": "https://maps.gstatic.com/mapfiles/place_api/icons/v1/png_71/generic_business-71.png"}, {"rating": 4.9, "user_ratings_total": 32, "name": "NEURO CLINIC - Dr. A.K. Verma", "reference": "ChIJq_WwIKnmDDkR8CQfSC10XJ8", "geometry": {"location": {"lat": 28.5324219, "lng": 77.2950078}, "viewport": {"northeast": {"lat": 28.5338481302915, "lng": 77.2964697302915}, "southwest": {"lat": 28.5311501697085, "lng": 77.2937717697085}}}, "opening_hours": {"open_now": true}, "place_id": "ChIJq_WwIKnmDDkR8CQfSC10XJ8", "plus_code": {"global_code": "7JWVG7JW+X2", "compound_code": "G7JW+X2 New Delhi, Delhi, India"}, "vicinity": "Shop no. 15 Pocket F & G Market, Sarita Vihar, New Delhi", "photos": [{"photo_reference": "ATtYBwJpBkooVG7MLuw-kKuKHa0ZCbjmAXfL-ti-XxXQKf52hWbx_OLALcn2CMOYBjBMasCae36f6N_D5N0uCpVel8g2g_xKN7WNLVx_v2aXtbTRxS3SmTUM_18WCE1HadR7y-THCv3txlbl9Wm2KZlMuGqeAfAPTo9IGZrDGf2azMvx69e9", "width": 2048, "html_attributions": ["<a href=\"https://maps.google.com/maps/contrib/112545619273873387997\">NEURO CLINIC - Dr. A.K. Verma</a>"], "height": 2048}], "scope": "GOOGLE", "business_status": "OPERATIONAL", "types": ["doctor", "health", "point_of_interest", "establishment"], "icon": "https://maps.gstatic.com/mapfiles/place_api/icons/v1/png_71/generic_business-71.png"}]}