{"status": "OK", "next_page_token": "CqQCGAEAAGE2x1J9_GpdSjvHSMksS3jym2ceJcFU2xqzWXQhEu4UWmnrvtEnNzA73DKGEEXZcqO7MzdTZZgjqv35YX7uV4AQg4nkx-4CXhofjmURJKrmD7ouLTtGSHfIpdkqmj2DEaCdqqonyUWHgrxm3iBiGl4-HI22cEHpr63N76pXZbRkiIrt24QPUkB5pRzl_AdWCYyGti5xAuURtOPirBmmWlNbnQboHwTTbxhCXxU_UwdSWG0IsIBoKwJb8_iporiSj5tz8uGb7AVlcO25k-Zxf190oGA0UMmXWxErspPKT2wVFrEhYBA-XFRgimtVb1KXyadQLItu8r_IgJHfmltLm7IUsR7-QnN8HDCV9S70qBbP3oel8ZLmqV2Nft6Ax6L1uRIQba5Xm1sWz0ZWo-DyABL-pRoUaGRZ2_HEL6GFq2HSXwt6ilJdOKU", "html_attributions": [], "results": [{"rating": 3, "user_ratings_total": 1, "permanently_closed": true, "name": "Sanskar Public School", "reference": "ChIJpazaySDJ5zsRT3mxNBh1px4", "geometry": {"location": {"lat": 19.0565651, "lng": 72.85338519999999}, "viewport": {"northeast": {"lat": 19.0577716302915, "lng": 72.8544580802915}, "southwest": {"lat": 19.0550736697085, "lng": 72.85176011970849}}}, "place_id": "ChIJpazaySDJ5zsRT3mxNBh1px4", "plus_code": {"global_code": "7JFJ3V43+J9", "compound_code": "3V43+J9 Mumbai, Maharashtra, India"}, "vicinity": "2/F, 2 North Avenue Maker Maxity, Bandra Kurla Complex, Bandra East, Mumbai", "scope": "GOOGLE", "business_status": "CLOSED_TEMPORARILY", "types": ["school", "point_of_interest", "establishment"], "icon": "https://maps.gstatic.com/mapfiles/place_api/icons/v1/png_71/school-71.png"}, {"rating": 4.1, "user_ratings_total": 9, "permanently_closed": true, "name": "Santosh Institute for Mentally challenged Children", "reference": "ChIJ4ypSDeDI5zsRzaTvrR_rPEo", "geometry": {"location": {"lat": 19.0604244, "lng": 72.8530025}, "viewport": {"northeast": {"lat": 19.0617259302915, "lng": 72.8544320802915}, "southwest": {"lat": 19.0590279697085, "lng": 72.8517341197085}}}, "place_id": "ChIJ4ypSDeDI5zsRzaTvrR_rPEo", "plus_code": {"global_code": "7JFJ3V63+56", "compound_code": "3V63+56 Mumbai, Maharashtra, India"}, "vicinity": "Road No 13 , Shrikanth Hadkar Marg, Abyudaya Nagar, Kalachowki, Chatai Chawl, Parel, Mumbai", "scope": "GOOGLE", "business_status": "CLOSED_TEMPORARILY", "types": ["school", "point_of_interest", "establishment"], "icon": "https://maps.gstatic.com/mapfiles/place_api/icons/v1/png_71/school-71.png"}, {"permanently_closed": true, "name": "Lalji", "reference": "ChIJw9f0CejI5zsRrtib-9aBCFc", "geometry": {"location": {"lat": 19.0619396, "lng": 72.8638527}, "viewport": {"northeast": {"lat": 19.0633209802915, "lng": 72.8650999802915}, "southwest": {"lat": 19.0606230197085, "lng": 72.86240201970848}}}, "place_id": "ChIJw9f0CejI5zsRrtib-9aBCFc", "plus_code": {"global_code": "7JFJ3V67+QG", "compound_code": "3V67+QG Mumbai, Maharashtra, India"}, "vicinity": "27, Bandra Kurla Complex Road, G Block BKC, MMRDA Area, Kalina, Bandra East, Mumbai", "scope": "GOOGLE", "business_status": "CLOSED_TEMPORARILY", "types": ["school", "point_of_interest", "establishment"], "icon": "https://maps.gstatic.com/mapfiles/place_api/icons/v1/png_71/school-71.png"}, {"permanently_closed": true, "name": "cutting edge media academy", "reference": "ChIJ01QIJt7I5zsR3AOr6HC7MME", "geometry": {"location": {"lat": 19.05961, "lng": 72.85529799999999}, "viewport": {"northeast": {"lat": 19.0609275302915, "lng": 72.8566631802915}, "southwest": {"lat": 19.0582295697085, "lng": 72.8539652197085}}}, "place_id": "ChIJ01QIJt7I5zsR3AOr6HC7MME", "vicinity": "Shop 6 near opp railway station cutting edge media academy, Mumbai", "photos": [{"photo_reference": "CmRaAAAATRio674AeUtD2ALDtVGH54qOs5aUczZt6Cwx7sL-0fJF8D4KMeMAfUcEXW-G0uruv-jJ11Az6nwRtm_LsutWyn99s4ZdWPeYaLv6CatL44oy3L3RVOlWs7BpgvcWmoZ4EhAttDMY-mYs-e_EA1xH4lOMGhS69y4YIPEVrIR3m4SoXhiyXfmUKA", "width": 849, "html_attributions": ["<a href=\"https://maps.google.com/maps/contrib/106583242309943957380\">cutting edge media academy</a>"], "height": 566}], "scope": "GOOGLE", "business_status": "CLOSED_TEMPORARILY", "types": ["school", "point_of_interest", "establishment"], "icon": "https://maps.gstatic.com/mapfiles/place_api/icons/v1/png_71/school-71.png"}, {"rating": 4.7, "user_ratings_total": 43, "permanently_closed": true, "name": "KLAY Preschool and DayCare - BKC, Bandra East", "reference": "ChIJa9ZDPOzI5zsR039VK3YF7kM", "geometry": {"location": {"lat": 19.0607933, "lng": 72.86543999999999}, "viewport": {"northeast": {"lat": 19.0617391802915, "lng": 72.8667062302915}, "southwest": {"lat": 19.0590412197085, "lng": 72.86400826970849}}}, "place_id": "ChIJa9ZDPOzI5zsR039VK3YF7kM", "plus_code": {"global_code": "7JFJ3V68+85", "compound_code": "3V68+85 Mumbai, Maharashtra, India"}, "vicinity": "P4, Unit No. 404 One P4, Unit#404, G Block BKC, Mumbai", "scope": "GOOGLE", "business_status": "CLOSED_TEMPORARILY", "types": ["school", "point_of_interest", "establishment"], "icon": "https://maps.gstatic.com/mapfiles/place_api/icons/v1/png_71/school-71.png"}, {"rating": 2.7, "user_ratings_total": 11, "permanently_closed": true, "name": "NIIT Imperia", "reference": "ChIJx_ryYt_I5zsR39bUE73C8XA", "geometry": {"location": {"lat": 19.0558759, "lng": 72.8516491}, "viewport": {"northeast": {"lat": 19.0573204802915, "lng": 72.85289613029151}, "southwest": {"lat": 19.0546225197085, "lng": 72.8501981697085}}}, "place_id": "ChIJx_ryYt_I5zsR39bUE73C8XA", "plus_code": {"global_code": "7JFJ3V42+9M", "compound_code": "3V42+9M Mumbai, Maharashtra, India"}, "vicinity": "near Income Tax Office, MMRDA Road,Beside Family Court, Mumbai, Maharashtra, near Income Tax Office", "scope": "GOOGLE", "business_status": "CLOSED_TEMPORARILY", "types": ["school", "point_of_interest", "establishment"], "icon": "https://maps.gstatic.com/mapfiles/place_api/icons/v1/png_71/school-71.png"}, {"rating": 3.8, "user_ratings_total": 6, "permanently_closed": true, "name": "Little Angels school Government colony bandra east", "reference": "ChIJYTcGOR7J5zsRubJt95Mti1I", "geometry": {"location": {"lat": 19.063268, "lng": 72.850297}, "viewport": {"northeast": {"lat": 19.0645834302915, "lng": 72.85157883029152}, "southwest": {"lat": 19.0618854697085, "lng": 72.8488808697085}}}, "place_id": "ChIJYTcGOR7J5zsRubJt95Mti1I", "plus_code": {"global_code": "7JFJ3V72+84", "compound_code": "3V72+84 Mumbai, Maharashtra, India"}, "vicinity": "Bldg.No. B 111/G, Ground Floor, Near Mahatma Gandhi High School, Govt.Colony, Bandra East, Mumbai", "photos": [{"photo_reference": "CmRaAAAAW6r5gAGcGGnu4jhmNpuOGx7IjX69qu5SMo3uw2OhhsfuiuE9ygWmBzEYkdVYgHqMxOX7nF4k_yJD3XJHx53tyaHzuVM4-DjsJnh6W3A-5nzgnk8pcZYHNvR0LWkf60cLEhC07E_Vt0MBXua6jhbnW875GhRSR_wvgMVhhCqon0sj9qc-Ef8UqA", "width": 800, "html_attributions": ["<a href=\"https://maps.google.com/maps/contrib/103186486745137090776\">Little Angels school Government colony bandra east</a>"], "height": 450}], "scope": "GOOGLE", "business_status": "CLOSED_TEMPORARILY", "types": ["school", "point_of_interest", "establishment"], "icon": "https://maps.gstatic.com/mapfiles/place_api/icons/v1/png_71/school-71.png"}, {"rating": 4.3, "user_ratings_total": 8, "permanently_closed": true, "name": "Al-Qalam English School", "reference": "ChIJsVDMPcXI5zsRumdLzfOai_E", "geometry": {"location": {"lat": 19.051211, "lng": 72.8646689}, "viewport": {"northeast": {"lat": 19.0525222302915, "lng": 72.8659842302915}, "southwest": {"lat": 19.0498242697085, "lng": 72.8632862697085}}}, "place_id": "ChIJsVDMPcXI5zsRumdLzfOai_E", "plus_code": {"global_code": "7JFJ3V27+FV", "compound_code": "3V27+FV Mumbai, Maharashtra, India"}, "vicinity": "near Maharashtra Nature Park, 169, Naik Nagar, L.B.S. Marg, Sion, near Maharashtra Nature Park, Mumbai", "photos": [{"photo_reference": "CmRaAAAAArdGP40e4zzErCwTDa2VyQrv5IoKDXq2nJJfE9F5mbQjXxlE7bGPWTQ29NjKv7tnQT-0PMNXrgXG5L_WgBgFTX0DJpZFz1Wzzr2uXuzQGoN0XZO8qKISyy0-eWQg516dEhBF_ekJ3BVvxMAqHTbJlnK3GhTNy6Ykzb18-_hup4TM1H48xkfsww", "width": 2448, "html_attributions": ["<a href=\"https://maps.google.com/maps/contrib/113588074679941843773\">sadaf ibrahim</a>"], "height": 2571}], "scope": "GOOGLE", "business_status": "CLOSED_TEMPORARILY", "types": ["school", "primary_school", "point_of_interest", "establishment"], "icon": "https://maps.gstatic.com/mapfiles/place_api/icons/v1/png_71/school-71.png"}, {"rating": 4.5, "user_ratings_total": 4, "permanently_closed": true, "name": "Navjeevan vidhya Mandir", "reference": "ChIJq6qquiHJ5zsRlIhIewxt3SE", "geometry": {"location": {"lat": 19.057985, "lng": 72.84898}, "viewport": {"northeast": {"lat": 19.0592734802915, "lng": 72.8503694302915}, "southwest": {"lat": 19.0565755197085, "lng": 72.84767146970849}}}, "place_id": "ChIJq6qquiHJ5zsRlIhIewxt3SE", "plus_code": {"global_code": "7JFJ3R5X+5H", "compound_code": "3R5X+5H Mumbai, Maharashtra, India"}, "vicinity": "behind Rustomjee Oriana, MIG Cricket Club Road, Gandhi Nagar, Bandra East, Mumbai", "photos": [{"photo_reference": "CmRaAAAA1QeSi5orhBKOw64qn12t9bVBR6nXFkXB3OnLsGeopdHxfyW98_yekAQIFs97-NQNE4vXuDt4C0bUOTcZrMMGC3g6jRlnjAxHIRTKwcBa6TToWpe2Sw2YZYwBVg1QDgPtEhB5bE1TnSK5lGco_dbp701EGhSY2TXXmfqFfTEACjeNshMeabHsYA", "width": 4096, "html_attributions": ["<a href=\"https://maps.google.com/maps/contrib/116105516959276609641\">Aniket Gawade</a>"], "height": 2304}], "scope": "GOOGLE", "business_status": "CLOSED_TEMPORARILY", "types": ["school", "point_of_interest", "establishment"], "icon": "https://maps.gstatic.com/mapfiles/place_api/icons/v1/png_71/school-71.png"}, {"rating": 5, "user_ratings_total": 2, "name": "Prangan - Playschool & Day Care in Bandra East Mumbai", "reference": "ChIJ2fVFVeDI5zsR-pkjQKd0th0", "geometry": {"location": {"lat": 19.0592384, "lng": 72.8485891}, "viewport": {"northeast": {"lat": 19.0605881302915, "lng": 72.84990113029151}, "southwest": {"lat": 19.0578901697085, "lng": 72.84720316970851}}}, "opening_hours": {"open_now": false}, "place_id": "ChIJ2fVFVeDI5zsR-pkjQKd0th0", "plus_code": {"global_code": "7JFJ3R5X+MC", "compound_code": "3R5X+MC Mumbai, Maharashtra, India"}, "vicinity": "near M.I.G. Cricket Club, 64/2785, Ground Floor, Ganesh Krupa CHS, near M.I.G. Cricket Club, Gandhi Nagar, Bandra East, Mumbai", "scope": "GOOGLE", "business_status": "OPERATIONAL", "types": ["school", "point_of_interest", "establishment"], "icon": "https://maps.gstatic.com/mapfiles/place_api/icons/v1/png_71/school-71.png"}, {"rating": 3.3, "user_ratings_total": 3, "permanently_closed": true, "name": "Bal Sanskriti Mandir", "reference": "ChIJ7fEq7iDJ5zsR3bvx_oV1mlk", "geometry": {"location": {"lat": 19.0554495, "lng": 72.8491533}, "viewport": {"northeast": {"lat": 19.0568952302915, "lng": 72.8504071802915}, "southwest": {"lat": 19.0541972697085, "lng": 72.84770921970849}}}, "place_id": "ChIJ7fEq7iDJ5zsR3bvx_oV1mlk", "plus_code": {"global_code": "7JFJ3R4X+5M", "compound_code": "3R4X+5M Mumbai, Maharashtra, India"}, "vicinity": "near Kalanagar, Nadbrahma Mandir, Plot No 629, Madhusudan Kalelkar Marg, Bandra East, near Kalanagar, Mumbai", "scope": "GOOGLE", "business_status": "CLOSED_TEMPORARILY", "types": ["school", "point_of_interest", "establishment"], "icon": "https://maps.gstatic.com/mapfiles/place_api/icons/v1/png_71/school-71.png"}, {"permanently_closed": true, "name": "Kid.Doc Child Development And Research Centre In Bandra East, Mumbai", "reference": "ChIJd5uy0SHJ5zsRv6UxG1J22RE", "geometry": {"location": {"lat": 19.058683, "lng": 72.84804799999999}, "viewport": {"northeast": {"lat": 19.0600560802915, "lng": 72.8493969302915}, "southwest": {"lat": 19.0573581197085, "lng": 72.8466989697085}}}, "place_id": "ChIJd5uy0SHJ5zsRv6UxG1J22RE", "plus_code": {"global_code": "7JFJ3R5X+F6", "compound_code": "3R5X+F6 Mumbai, Maharashtra, India"}, "vicinity": "MHADA Bldg, Bharat Nagar, Bandra East, Mumbai", "scope": "GOOGLE", "business_status": "CLOSED_TEMPORARILY", "types": ["school", "point_of_interest", "establishment"], "icon": "https://maps.gstatic.com/mapfiles/place_api/icons/v1/png_71/school-71.png"}, {"rating": 5, "user_ratings_total": 1, "permanently_closed": true, "name": "Hemant Shivaji Jadhav", "reference": "ChIJ2R37EB_J5zsRWlgSNeTkwHg", "geometry": {"location": {"lat": 19.0612374, "lng": 72.8476319}, "viewport": {"northeast": {"lat": 19.0625861802915, "lng": 72.8489521802915}, "southwest": {"lat": 19.0598882197085, "lng": 72.84625421970848}}}, "place_id": "ChIJ2R37EB_J5zsRWlgSNeTkwHg", "plus_code": {"global_code": "7JFJ3R6X+F3", "compound_code": "3R6X+F3 Mumbai, Maharashtra, India"}, "vicinity": "Ali Yavar Jung Marg, Government Colony, Bandra East, Mumbai", "scope": "GOOGLE", "business_status": "CLOSED_TEMPORARILY", "types": ["school", "point_of_interest", "establishment"], "icon": "https://maps.gstatic.com/mapfiles/place_api/icons/v1/png_71/school-71.png"}, {"rating": 4.1, "user_ratings_total": 718, "name": "Dhirubhai Ambani International School", "reference": "ChIJ6ePf8uvI5zsRd5qLnBsvQB4", "geometry": {"location": {"lat": 19.06668029999999, "lng": 72.87048310000002}, "viewport": {"northeast": {"lat": 19.0681986302915, "lng": 72.8717509302915}, "southwest": {"lat": 19.06550066970849, "lng": 72.86905296970849}}}, "opening_hours": {"open_now": false}, "place_id": "ChIJ6ePf8uvI5zsRd5qLnBsvQB4", "plus_code": {"global_code": "7JFJ3V8C+M5", "compound_code": "3V8C+M5 Mumbai, Maharashtra, India"}, "vicinity": "g block, 46, Trident Road, Bandra Kurla Complex, Bandra East, Mumbai", "photos": [{"photo_reference": "CmRaAAAAZD7XamRiKiy0GJ_wpfph3DrrsAyl_juBXqRbOWNjp0vJZ1PhW7XfoBCDE1edZhr37G4EBLNsrkG64hkgdDmROHUIr-XqtgDRgX-cExG_5qeb_7S7Xh-f_OZVzsrmGdpiEhC-Xc-N5Sa48thLUcYqlphCGhSazBCL-80Y3-cO4WfA38qDBClkVA", "width": 4160, "html_attributions": ["<a href=\"https://maps.google.com/maps/contrib/117813445205788199485\">Dhanaji Dalavi</a>"], "height": 3120}], "scope": "GOOGLE", "business_status": "OPERATIONAL", "types": ["school", "point_of_interest", "establishment"], "icon": "https://maps.gstatic.com/mapfiles/place_api/icons/v1/png_71/school-71.png"}, {"rating": 3.9, "user_ratings_total": 33, "permanently_closed": true, "name": "Department Of Statistics( 2nd & 3rd floor)", "reference": "ChIJ0yBtTPvI5zsRDCPK27o8e54", "geometry": {"location": {"lat": 19.0720239, "lng": 72.8585064}, "viewport": {"northeast": {"lat": 19.0737075302915, "lng": 72.8598394802915}, "southwest": {"lat": 19.0710095697085, "lng": 72.85714151970849}}}, "place_id": "ChIJ0yBtTPvI5zsRDCPK27o8e54", "plus_code": {"global_code": "7JFJ3VC5+RC", "compound_code": "3VC5+RC Mumbai, Maharashtra, India"}, "vicinity": "CST Road, Kalina, Santacruz East Santacruz East Mumbai, Maharashtra 400098", "photos": [{"photo_reference": "CmRaAAAApWxVD5Sw_sl0V8pH1gCv4ChRNl2nqBfyfZO8LOBhlMuzGPNtmM3bNGfICX--wccmjjZHg1P5uw-1gJ5gMO08-uftNvPJRczLahbCjuHGZCiVaqoWCfuR23ktzRtCHtpZEhDvtdz9pKal2UF7pSPplgeIGhTU4kcA6GdC9YRxtMaU0wSSudSFuA", "width": 2592, "html_attributions": ["<a href=\"https://maps.google.com/maps/contrib/113274038935371211389\">Jatin Kundhadia</a>"], "height": 1944}], "scope": "GOOGLE", "business_status": "CLOSED_TEMPORARILY", "types": ["school", "point_of_interest", "establishment"], "icon": "https://maps.gstatic.com/mapfiles/place_api/icons/v1/png_71/school-71.png"}, {"rating": 5, "user_ratings_total": 3, "permanently_closed": true, "name": "Pinks & Blues Play School", "reference": "ChIJq5l8KBzJ5zsRnF5SoLYWByE", "geometry": {"location": {"lat": 19.0593498, "lng": 72.8470313}, "viewport": {"northeast": {"lat": 19.0607023302915, "lng": 72.8482629302915}, "southwest": {"lat": 19.0580043697085, "lng": 72.84556496970849}}}, "place_id": "ChIJq5l8KBzJ5zsRnF5SoLYWByE", "plus_code": {"global_code": "7JFJ3R5W+PR", "compound_code": "3R5W+PR Mumbai, Maharashtra, India"}, "vicinity": "37, Road Number 1, Gandhi Nagar, Bandra East, Mumbai", "photos": [{"photo_reference": "CmRaAAAAq7PDJx3zQVOWultowjUB6PxaBttfg26tKuCuwgKXFgrabIM_cmdvjY7vymD7fR-lNR1R3FOn0hvr-2drTC0Ws9sNsdtVfYS0q9Scmv72Hsn-L920nrg2iFLnePYjsuDuEhAvyVVlauTSTbT37ymq6rMKGhQSM_xtTWOhkPhIe0jk0aE6zQ7NEQ", "width": 720, "html_attributions": ["<a href=\"https://maps.google.com/maps/contrib/113868224335015467541\">Pinks &amp; Blues Play School</a>"], "height": 482}], "scope": "GOOGLE", "business_status": "CLOSED_TEMPORARILY", "types": ["school", "primary_school", "point_of_interest", "establishment"], "icon": "https://maps.gstatic.com/mapfiles/place_api/icons/v1/png_71/school-71.png"}, {"rating": 4.3, "user_ratings_total": 87, "permanently_closed": true, "name": "Vasudev C Wadhwa Arya Vidya Mandir", "reference": "ChIJUQgBmObI5zsRqOiNGpVQDcU", "geometry": {"location": {"lat": 19.0650928, "lng": 72.8589272}, "viewport": {"northeast": {"lat": 19.06657313029151, "lng": 72.86047908029151}, "southwest": {"lat": 19.0638751697085, "lng": 72.85778111970849}}}, "place_id": "ChIJUQgBmObI5zsRqOiNGpVQDcU", "plus_code": {"global_code": "7JFJ3V85+2H", "compound_code": "3V85+2H Mumbai, Maharashtra, India"}, "vicinity": "GN Block, opp ICICI Building, Bandra Kurla Complex, Bandra East, Mumbai", "photos": [{"photo_reference": "CmRaAAAAuL6CctvxW1sOYyKIpQVB59Fj0ztTDE6WRxdvRvG0FcWORjvxKW7CkTouxyHdJ0IVpWZEQIlgu63Km6x7T7G1N2ZSWxkggfYdYBmVhpc_gqWoDrK9JyO0r50TLt7Iip3lEhATnkdRIKRuwOZnq-jmFxAEGhQd7QvH38ysbzOh7e9GGaoTIZJNRg", "width": 1280, "html_attributions": ["<a href=\"https://maps.google.com/maps/contrib/104167067795280590070\">kunal damania</a>"], "height": 960}], "scope": "GOOGLE", "business_status": "CLOSED_TEMPORARILY", "types": ["school", "point_of_interest", "establishment"], "icon": "https://maps.gstatic.com/mapfiles/place_api/icons/v1/png_71/school-71.png"}, {"rating": 5, "user_ratings_total": 26, "permanently_closed": true, "name": "Best Preschool, Daycare, Playgroup in Bandra- Munchkins Child Care", "reference": "ChIJ3dw1nyHJ5zsRVUIeWc8SUKs", "geometry": {"location": {"lat": 19.05751, "lng": 72.8470519}, "viewport": {"northeast": {"lat": 19.0588560302915, "lng": 72.8482625302915}, "southwest": {"lat": 19.0561580697085, "lng": 72.8455645697085}}}, "place_id": "ChIJ3dw1nyHJ5zsRVUIeWc8SUKs", "plus_code": {"global_code": "7JFJ3R5W+2R", "compound_code": "3R5W+2R Mumbai, Maharashtra, India"}, "vicinity": "Unit No.2107,Bldg.No.42, Anand Co-op Housing Society Ltd, Gandhi Nagar, Bandra East, Mumbai", "photos": [{"photo_reference": "CmRZAAAAW_LFXRVdSb_plkbmee7B7qhKcwF_8P6wLCiRU_W8l5Zkutj1Y8pcjhcx0k58XSmGyojaVz2Kx_raHP5Sjhi3I5zZh_A2T72jsX07heKRc2axGNr6gIbFpWnC2HUFzXcDEhDxRFRr_bnZDva8w614NdhvGhSZ6CHvHrMcWKdvRwTKSHCbUs4G9g", "width": 1280, "html_attributions": ["<a href=\"https://maps.google.com/maps/contrib/117776578903860500608\">Best Preschool, Daycare, Playgroup in Bandra- Munchkins Child Care</a>"], "height": 960}], "scope": "GOOGLE", "business_status": "CLOSED_TEMPORARILY", "types": ["school", "point_of_interest", "establishment"], "icon": "https://maps.gstatic.com/mapfiles/place_api/icons/v1/png_71/school-71.png"}, {"rating": 3.3, "user_ratings_total": 29, "permanently_closed": true, "name": "Chhatrapati Shivaji Vidyalaya", "reference": "ChIJYfJ5PsXI5zsRprfTct8xDPo", "geometry": {"location": {"lat": 19.050825, "lng": 72.86255849999999}, "viewport": {"northeast": {"lat": 19.0521175802915, "lng": 72.8638224802915}, "southwest": {"lat": 19.0494196197085, "lng": 72.86112451970848}}}, "place_id": "ChIJYfJ5PsXI5zsRprfTct8xDPo", "plus_code": {"global_code": "7JFJ3V27+82", "compound_code": "3V27+82 Mumbai, Maharashtra, India"}, "vicinity": "P. M. G. P. Colony, Sion (W), Dharavi, Mumbai", "photos": [{"photo_reference": "CmRaAAAAt3qwrimIPiMEHjd2JgPL1j8YivbqqtLkNpW2rghYGjkoIVnwTZlnv99u1xEnlrrXSpkxhrq6W6mK8ElMeeYPUPhxFfQK6xsU4rG86zjLkGJ9zDzo1tttw9IsocAvJX-ZEhBzSC9sUk0WF5IdgBIskRYzGhT9pHf-5V81d3EDSvI1lkdAKQWSDg", "width": 2340, "html_attributions": ["<a href=\"https://maps.google.com/maps/contrib/114532681885724203051\">Aniket Sonde</a>"], "height": 4160}], "scope": "GOOGLE", "business_status": "CLOSED_TEMPORARILY", "types": ["school", "point_of_interest", "establishment"], "icon": "https://maps.gstatic.com/mapfiles/place_api/icons/v1/png_71/school-71.png"}, {"permanently_closed": true, "name": "Salman Mastar Maind", "reference": "ChIJmYvQGufI5zsRINbhEqTH9YY", "geometry": {"location": {"lat": 19.0626734, "lng": 72.85963}, "viewport": {"northeast": {"lat": 19.0640309802915, "lng": 72.8609469302915}, "southwest": {"lat": 19.0613330197085, "lng": 72.8582489697085}}}, "place_id": "ChIJmYvQGufI5zsRINbhEqTH9YY", "plus_code": {"global_code": "7JFJ3V75+3V", "compound_code": "3V75+3V Mumbai, Maharashtra, India"}, "vicinity": "Bandra Kurla Complex Road, G Block BKC, Bandra Kurla Complex, Bandra East, Mumbai", "photos": [{"photo_reference": "CmRaAAAAIGYqDcY2vRcqG5RLX45d6YuMCXYO8I5cOxKwwr7bWUYE5aRYWR8QV4_V7Vhec8eTERT72DIVIxWh21qPs3k4_g2wEtot-2bBZnTOI--TTyxpp1eBtT7rmYurT5d3DadoEhCOqbIggpseiqyZn0UjkzRwGhTNukgpNRS7yEg-siLyiCSQF-WkxQ", "width": 480, "html_attributions": ["<a href=\"https://maps.google.com/maps/contrib/110131033030197136845\">kya baat hai UX</a>"], "height": 678}], "scope": "GOOGLE", "business_status": "CLOSED_TEMPORARILY", "types": ["school", "point_of_interest", "establishment"], "icon": "https://maps.gstatic.com/mapfiles/place_api/icons/v1/png_71/school-71.png"}]}