{"status": "OK", "next_page_token": "CsQDuAEAAPp7Zl8RGPAjpTA2BmlM005Nb5SNnUqZF4Fs2xLn93J0GhX8yPTMpRG595dkTEw2kdbcqBkDAuWrMh46CwZc4EqlQkVMQLAkSE9IUGKkzaHspLSVXhx9DyBwFrAX2SglUY7nPAcx9YDR9ZuOlVTzQd2Uqvk6AyFPxmKR53LJB1aOjbzesC-IyEU1PmwQusIjNfCvqOyVobWo8Mt5Rgy90l1D4S7eaNtct5hMdpoe_PzA1tODFjrwtg_tUVPGFe0-xWO4HvK1OkVIF8HCPXVNrMa3J92sSWUZgbDapRu0wfF0CflNf6WcqjUAE9IXStVCEXV1nZHjVGsJRAaCoKZ2QMfeqtnFXk1BKIIPOa6ZU9fEpcsi2JJj4bhvKWAiRfqVqn4Hb4KlkRtY-jFIRP663UScQmB3nZ5r8slPE7mV5fDroa-srtrv72uHzaMKCqX58XUjQNlxEso46Yb2NIy1i4Npu44KFjzr9o8zQk-oZSue9APbm1VfSqQ3nI6IY_FnqjcChl7FqNKgaOJmLabecajL49zAB8mGXqTSHBySa4h_ui_4tJqqTCqi_xyG-IB5sOS6A6hlmjTY4nQDH0pvTa4SEEI_PXUASDGXjne_0ax5Q5EaFLfMORdDutZkdcq8Yu9l72dAh59t", "html_attributions": [], "results": [{"name": "Tiny Tots Kandivali East", "reference": "ChIJK5uvH4-35zsRQwB5n2kdOaM", "geometry": {"location": {"lat": 19.217885, "lng": 72.870701}, "viewport": {"northeast": {"lat": 19.2192355802915, "lng": 72.87195918029151}, "southwest": {"lat": 19.21653761970849, "lng": 72.86926121970849}}}, "place_id": "ChIJK5uvH4-35zsRQwB5n2kdOaM", "plus_code": {"global_code": "7JFJ6V9C+57", "compound_code": "6V9C+57 Mumbai, Maharashtra, India"}, "vicinity": "Shop No 17,18, Dheeraj Savera, Khatau Mill Compound, Kandivali East, Mumbai", "photos": [{"photo_reference": "CmRaAAAAXCNMAHNDBcHNc2Ds1slBlVc5Wrc9DReKSw6oSZnz2Iip5ibz-GEGAWuzfNfD5exfWwbPFbEDsVLVdh3rkLhhldzTSuE_unVb1MnE1qpEhx9vLKQpeSN4RCsXUL_p2C9OEhAD4FBM4TPCkKEnnwi9P2sXGhQslsF5R8XtthVDOAH8GUW7m2HCOA", "width": 2048, "html_attributions": ["<a href=\"https://maps.google.com/maps/contrib/112842702067110640148\">Bhavesh Shetty</a>"], "height": 1536}], "scope": "GOOGLE", "business_status": "OPERATIONAL", "types": ["school", "point_of_interest", "establishment"], "icon": "https://maps.gstatic.com/mapfiles/place_api/icons/v1/png_71/school-71.png"}, {"permanently_closed": true, "name": "Vrindavan Balagokulam, Thakur Complex", "reference": "ChIJh7cfDWq35zsRay6HyZrujRY", "geometry": {"location": {"lat": 19.2126867, "lng": 72.8743958}, "viewport": {"northeast": {"lat": 19.2139770302915, "lng": 72.8751144302915}, "southwest": {"lat": 19.2112790697085, "lng": 72.8724164697085}}}, "place_id": "ChIJh7cfDWq35zsRay6HyZrujRY", "plus_code": {"global_code": "7JFJ6V7F+3Q", "compound_code": "6V7F+3Q Mumbai, Maharashtra, India"}, "vicinity": "Shyamnarayan Thakur Marg, Kanakiya, Thakur Village, Kandivali East, Mumbai", "photos": [{"photo_reference": "CmRaAAAAn2jHsTWjoKxEkSpRJx6K8HnYZKAUh3yszHpre88AFMvyiqMzSJvNf3R2kgDkgjFAixaU2ZQT-tf0WQL0R4VK06XtvyTrvuk4q8FXbVMeOsoBNRk60_kCCv_2QegekunREhCLTFtPWnRmojUSUHnwAuLKGhRFXNdsVZIbOUvDHiGHh0oLcIT5Qw", "width": 640, "html_attributions": ["<a href=\"https://maps.google.com/maps/contrib/101949443678817134351\">Prasad S</a>"], "height": 480}], "scope": "GOOGLE", "business_status": "CLOSED_TEMPORARILY", "types": ["school", "point_of_interest", "establishment"], "icon": "https://maps.gstatic.com/mapfiles/place_api/icons/v1/png_71/school-71.png"}, {"name": "Reiki Amazes", "reference": "ChIJubk_n2G35zsR7UW-ga8XlQk", "geometry": {"location": {"lat": 19.2181315, "lng": 72.8705641}, "viewport": {"northeast": {"lat": 19.2195035802915, "lng": 72.8719173802915}, "southwest": {"lat": 19.2168056197085, "lng": 72.8692194197085}}}, "opening_hours": {"open_now": false}, "place_id": "ChIJubk_n2G35zsR7UW-ga8XlQk", "plus_code": {"global_code": "7JFJ6V9C+76", "compound_code": "6V9C+76 Mumbai, Maharashtra, India"}, "vicinity": "B/1, Labh Krupa, Santoshi Mata Road, Navagaon, Mandapeshwar, Dahisar West, Mumbai", "photos": [{"photo_reference": "CmRaAAAAIVGpMiIz03_RWLP7EIBS0l7TP6_qkzCjYNknrzAnslXX_sJASBLRnkS8v4588pjLF57v-M8yHsXt62fqhJF0nTxxVcX4nt6n6lrToViiJU4xjkLVY-gfUebLePF9pO8HEhDZ8-5kNe87Qyh3BWbUfJiNGhRoZZfCYYmQE3l8VMZwES4oJc1aNg", "width": 868, "html_attributions": ["<a href=\"https://maps.google.com/maps/contrib/102789945158103265373\">Reiki Amazes</a>"], "height": 588}], "scope": "GOOGLE", "business_status": "OPERATIONAL", "types": ["school", "health", "point_of_interest", "establishment"], "icon": "https://maps.gstatic.com/mapfiles/place_api/icons/v1/png_71/generic_business-71.png"}, {"permanently_closed": true, "name": "Matrubhoomi School", "reference": "ChIJG4YRsi-35zsRTgAvWpJPSbg", "geometry": {"location": {"lat": 19.2109005, "lng": 72.8797819}, "viewport": {"northeast": {"lat": 19.21230368029151, "lng": 72.88108023029152}, "southwest": {"lat": 19.2096057197085, "lng": 72.8783822697085}}}, "place_id": "ChIJG4YRsi-35zsRTgAvWpJPSbg", "plus_code": {"global_code": "7JFJ6V6H+9W", "compound_code": "6V6H+9W Mumbai, Maharashtra, India"}, "vicinity": "Janupada, Huzefa Nagar, Kandivali East, Mumbai", "scope": "GOOGLE", "business_status": "CLOSED_TEMPORARILY", "types": ["school", "point_of_interest", "establishment"], "icon": "https://maps.gstatic.com/mapfiles/place_api/icons/v1/png_71/school-71.png"}, {"rating": 5, "user_ratings_total": 1, "permanently_closed": true, "name": "Jeh's Dance Academy", "reference": "ChIJgZMaLjO35zsRlFyg5AHwQF8", "geometry": {"location": {"lat": 19.2172875, "lng": 72.8707008}, "viewport": {"northeast": {"lat": 19.2186311302915, "lng": 72.8719712302915}, "southwest": {"lat": 19.2159331697085, "lng": 72.86927326970849}}}, "place_id": "ChIJgZMaLjO35zsRlFyg5AHwQF8", "plus_code": {"global_code": "7JFJ6V8C+W7", "compound_code": "6V8C+W7 Mumbai, Maharashtra, India"}, "vicinity": "Dheeraj Savera, Row House #4, opposite Siddharth Nagar Bus Stop, Borivali, Mumbai", "photos": [{"photo_reference": "CmRaAAAAjxmI5CSnAIWVZw_DigpSsWDB_DYTCtqWVPCKI3firlj7tsdF5UCbZNvaiagBdyk1daPkU8OMpis5ccKjmQhLHtC1hVPctoSHilxConnWEmHmsFfHT4WEFjjjZlACxJBGEhBaRxvEFscPl2UDSRxJE5JOGhSPQbkBaRNWca1pO9L5ziECfffjWQ", "width": 2289, "html_attributions": ["<a href=\"https://maps.google.com/maps/contrib/107091502572376832993\">Jeh Varal</a>"], "height": 2289}], "scope": "GOOGLE", "business_status": "CLOSED_TEMPORARILY", "types": ["school", "point_of_interest", "establishment"], "icon": "https://maps.gstatic.com/mapfiles/place_api/icons/v1/png_71/school-71.png"}, {"rating": 1, "user_ratings_total": 1, "permanently_closed": true, "name": "smart Garage Two Wheel And Tyre", "reference": "ChIJj8bbdV-35zsRe0CLLn0k9y0", "geometry": {"location": {"lat": 19.2143551, "lng": 72.8720355}, "viewport": {"northeast": {"lat": 19.2157035302915, "lng": 72.8733838802915}, "southwest": {"lat": 19.2130055697085, "lng": 72.87068591970849}}}, "place_id": "ChIJj8bbdV-35zsRe0CLLn0k9y0", "plus_code": {"global_code": "7JFJ6V7C+PR", "compound_code": "6V7C+PR Mumbai, Maharashtra, India"}, "vicinity": "120 Feet Road, Dattani Park, Thakur Village, Kandivali East, Mumbai", "scope": "GOOGLE", "business_status": "CLOSED_TEMPORARILY", "types": ["school", "point_of_interest", "establishment"], "icon": "https://maps.gstatic.com/mapfiles/place_api/icons/v1/png_71/school-71.png"}, {"rating": 4.8, "user_ratings_total": 10, "permanently_closed": true, "name": "Studio 1dhdc 1dance heals dance company", "reference": "ChIJK2DMEDS35zsRlQy3TWXnmYc", "geometry": {"location": {"lat": 19.217442, "lng": 72.87036719999999}, "viewport": {"northeast": {"lat": 19.2187900802915, "lng": 72.8717057802915}, "southwest": {"lat": 19.2160921197085, "lng": 72.8690078197085}}}, "place_id": "ChIJK2DMEDS35zsRlQy3TWXnmYc", "plus_code": {"global_code": "7JFJ6V8C+X4", "compound_code": "6V8C+X4 Mumbai, Maharashtra, India"}, "vicinity": "bldg a1, shop no.3B siddharth nagar, Borivali East, Mumbai", "photos": [{"photo_reference": "CmRaAAAAP80ARSmqA1IiaqKgj_Vk9CNigEbEN0QHXoc1rgM6OHlvUBUcq2g7BlW5yW0aOPmO8nLa68QPBDZYLyEosLqYII1-r4hRNsL37CFMf_8e3suSjchg5cX71ZEYPNDVL8gmEhDMcodOeMKS0A8mOzKvujhyGhT6V9TdjoNkA7ZZ6pIFc0dVUHqoLw", "width": 4032, "html_attributions": ["<a href=\"https://maps.google.com/maps/contrib/103880943482355293554\">Studio 1dhdc 1dance heals dance company</a>"], "height": 3024}], "scope": "GOOGLE", "business_status": "CLOSED_TEMPORARILY", "types": ["gym", "school", "health", "point_of_interest", "establishment"], "icon": "https://maps.gstatic.com/mapfiles/place_api/icons/v1/png_71/generic_business-71.png"}, {"permanently_closed": true, "name": "Peek K Boo", "reference": "ChIJDUYrB0i35zsRB2PLKaZPyfE", "geometry": {"location": {"lat": 19.2115335, "lng": 72.8755513}, "viewport": {"northeast": {"lat": 19.2128560802915, "lng": 72.87686728029149}, "southwest": {"lat": 19.2101581197085, "lng": 72.87416931970849}}}, "place_id": "ChIJDUYrB0i35zsRB2PLKaZPyfE", "plus_code": {"global_code": "7JFJ6V6G+J6", "compound_code": "6V6G+J6 Mumbai, Maharashtra, India"}, "vicinity": "Emp 11, Kandivali East, Mumbai", "scope": "GOOGLE", "business_status": "CLOSED_TEMPORARILY", "types": ["university", "school", "point_of_interest", "establishment"], "icon": "https://maps.gstatic.com/mapfiles/place_api/icons/v1/png_71/school-71.png"}, {"rating": 4.3, "user_ratings_total": 3, "permanently_closed": true, "name": "\u092e\u093e\u0924\u0943\u092d\u0941\u092e\u093f \u090f\u091c\u094d\u092f\u0941\u0915\u0947\u0936\u0928 \u0938\u094d\u0915\u0942\u0932 Matrubhumi School", "reference": "ChIJ_W5uFEa35zsRXAVb7PIqLFg", "geometry": {"location": {"lat": 19.2105053, "lng": 72.87987059999999}, "viewport": {"northeast": {"lat": 19.2118530802915, "lng": 72.8812231302915}, "southwest": {"lat": 19.20915511970849, "lng": 72.87852516970848}}}, "place_id": "ChIJ_W5uFEa35zsRXAVb7PIqLFg", "plus_code": {"global_code": "7JFJ6V6H+6W", "compound_code": "6V6H+6W Mumbai, Maharashtra, India"}, "vicinity": "Janupada, Huzefa Nagar, Kandivali East, Mumbai", "scope": "GOOGLE", "business_status": "CLOSED_TEMPORARILY", "types": ["school", "point_of_interest", "establishment"], "icon": "https://maps.gstatic.com/mapfiles/place_api/icons/v1/png_71/school-71.png"}, {"rating": 1, "user_ratings_total": 1, "permanently_closed": true, "name": "Matrubhumi High School", "reference": "ChIJIZXVbvS35zsR0ip5eB_F2G8", "geometry": {"location": {"lat": 19.2104892, "lng": 72.87986289999999}, "viewport": {"northeast": {"lat": 19.2118364802915, "lng": 72.88121673029151}, "southwest": {"lat": 19.2091385197085, "lng": 72.87851876970849}}}, "place_id": "ChIJIZXVbvS35zsR0ip5eB_F2G8", "plus_code": {"global_code": "7JFJ6V6H+5W", "compound_code": "6V6H+5W Mumbai, Maharashtra, India"}, "vicinity": "Janupada, Huzefa Nagar, Kandivali East, Mumbai", "scope": "GOOGLE", "business_status": "CLOSED_TEMPORARILY", "types": ["school", "point_of_interest", "establishment"], "icon": "https://maps.gstatic.com/mapfiles/place_api/icons/v1/png_71/school-71.png"}, {"rating": 3.7, "user_ratings_total": 3, "permanently_closed": true, "name": "Old St. John High School", "reference": "ChIJfSX9T8uw5zsRF4bu2P8mDDk", "geometry": {"location": {"lat": 19.2229991, "lng": 72.8700188}, "viewport": {"northeast": {"lat": 19.2243448302915, "lng": 72.8713410802915}, "southwest": {"lat": 19.2216468697085, "lng": 72.8686431197085}}}, "place_id": "ChIJfSX9T8uw5zsRF4bu2P8mDDk", "plus_code": {"global_code": "7JFJ6VFC+52", "compound_code": "6VFC+52 Mumbai, Maharashtra, India"}, "vicinity": "Mumbai, Trimurty Nagar, Borivali, Mumbai", "scope": "GOOGLE", "business_status": "CLOSED_TEMPORARILY", "types": ["school", "point_of_interest", "establishment"], "icon": "https://maps.gstatic.com/mapfiles/place_api/icons/v1/png_71/school-71.png"}, {"rating": 4, "user_ratings_total": 131, "name": "St. John\u2019s High School (ICSE)", "reference": "ChIJTwDDCzS35zsRxKgoLciH4K8", "geometry": {"location": {"lat": 19.2176003, "lng": 72.86948250000002}, "viewport": {"northeast": {"lat": 19.2189524302915, "lng": 72.87090508029151}, "southwest": {"lat": 19.2162544697085, "lng": 72.8682071197085}}}, "opening_hours": {"open_now": false}, "place_id": "ChIJTwDDCzS35zsRxKgoLciH4K8", "plus_code": {"global_code": "7JFJ6V99+2Q", "compound_code": "6V99+2Q Mumbai, Maharashtra, India"}, "vicinity": "Siddharth Nagar, Borivali East, Mumbai", "photos": [{"photo_reference": "CmRaAAAAjvrg4pKwVy9gdph6iyXBm99mL9dFIJkW7UbekwH55ee8XTK-f9ldpCXazsDb0mp_eAe6e_1Y42N_o_ke4gBB4O_kKjUEkBMAYtnhZuXo1ZL9zrKg8DwnO60JLH9AtWfJEhAjW5nQn_X5Lsxn2D2KpsphGhSdoNCTEVKorqfKBZXQEy6WmDxM1Q", "width": 768, "html_attributions": ["<a href=\"https://maps.google.com/maps/contrib/105253200742513857399\">Thanikesan Mudaliar</a>"], "height": 1024}], "scope": "GOOGLE", "business_status": "OPERATIONAL", "types": ["school", "point_of_interest", "establishment"], "icon": "https://maps.gstatic.com/mapfiles/place_api/icons/v1/png_71/school-71.png"}, {"permanently_closed": true, "name": "Kitty gym", "reference": "ChIJTWJ3joS35zsRKMu4-RdLek4", "geometry": {"location": {"lat": 19.2114947, "lng": 72.8737938}, "viewport": {"northeast": {"lat": 19.2128516802915, "lng": 72.8751625302915}, "southwest": {"lat": 19.2101537197085, "lng": 72.8724645697085}}}, "place_id": "ChIJTWJ3joS35zsRKMu4-RdLek4", "plus_code": {"global_code": "7JFJ6V6F+HG", "compound_code": "6V6F+HG Mumbai, Maharashtra, India"}, "vicinity": "Shop number 01 behind post offices, Kandivali East, Mumbai", "scope": "GOOGLE", "business_status": "CLOSED_TEMPORARILY", "types": ["school", "point_of_interest", "establishment"], "icon": "https://maps.gstatic.com/mapfiles/place_api/icons/v1/png_71/school-71.png"}, {"permanently_closed": true, "name": "Ashok nagar bmc new secondary school", "reference": "ChIJ2cK19De35zsRlRD1CCtNudg", "geometry": {"location": {"lat": 19.2114947, "lng": 72.8737938}, "viewport": {"northeast": {"lat": 19.2128516802915, "lng": 72.8751625302915}, "southwest": {"lat": 19.2101537197085, "lng": 72.8724645697085}}}, "place_id": "ChIJ2cK19De35zsRlRD1CCtNudg", "plus_code": {"global_code": "7JFJ6V6F+HG", "compound_code": "6V6F+HG Mumbai, Maharashtra, India"}, "vicinity": "Kandivali East, Mumbai", "scope": "GOOGLE", "business_status": "CLOSED_TEMPORARILY", "types": ["school", "point_of_interest", "establishment"], "icon": "https://maps.gstatic.com/mapfiles/place_api/icons/v1/png_71/school-71.png"}, {"rating": 5, "user_ratings_total": 1, "permanently_closed": true, "name": "Gyan Coaching Classes", "reference": "ChIJIcO19De35zsRfr_VGRUZDCA", "geometry": {"location": {"lat": 19.2114947, "lng": 72.8737938}, "viewport": {"northeast": {"lat": 19.2128516802915, "lng": 72.8751625302915}, "southwest": {"lat": 19.2101537197085, "lng": 72.8724645697085}}}, "place_id": "ChIJIcO19De35zsRfr_VGRUZDCA", "plus_code": {"global_code": "7JFJ6V6F+HG", "compound_code": "6V6F+HG Mumbai, Maharashtra, India"}, "vicinity": "Evershine Millennium Paradise, Thakur Village, Kandivali East, Mumbai", "photos": [{"photo_reference": "CmRaAAAAIp_RHBqg59OAb0O9mqOfqHjXPN5VPmpLU0pZdHg9kTHMTTAIGAyZESZ-FZXmVDwa7NVu6fVTBYMMVQbmxVHnzNBKgJN7MNEA0MObMeWhOf6OZ_JuXYbHRJcNbzelykNQEhAF7MyksyVbLa1IVZq1lGDqGhT3w8OpBZZsULUw42OM4LijOpN5GA", "width": 5344, "html_attributions": ["<a href=\"https://maps.google.com/maps/contrib/115592044038508427743\">Avinash Jha</a>"], "height": 4008}], "scope": "GOOGLE", "business_status": "CLOSED_TEMPORARILY", "types": ["school", "point_of_interest", "establishment"], "icon": "https://maps.gstatic.com/mapfiles/place_api/icons/v1/png_71/school-71.png"}, {"permanently_closed": true, "name": "Future Computer Academy", "reference": "ChIJNd219De35zsRRbXGNcibUpA", "geometry": {"location": {"lat": 19.2114947, "lng": 72.8737936}, "viewport": {"northeast": {"lat": 19.2128516802915, "lng": 72.8751625302915}, "southwest": {"lat": 19.2101537197085, "lng": 72.8724645697085}}}, "place_id": "ChIJNd219De35zsRRbXGNcibUpA", "plus_code": {"global_code": "7JFJ6V6F+HG", "compound_code": "6V6F+HG Mumbai, Maharashtra, India"}, "vicinity": "Opp. Cooperation Bank Lokhandwala, Kandivali East, Mumbai", "scope": "GOOGLE", "business_status": "CLOSED_TEMPORARILY", "types": ["school", "point_of_interest", "establishment"], "icon": "https://maps.gstatic.com/mapfiles/place_api/icons/v1/png_71/school-71.png"}, {"permanently_closed": true, "name": "Vinod Yoga", "reference": "ChIJW0ZfxnW35zsRCn-pNtxRl5k", "geometry": {"location": {"lat": 19.210611, "lng": 72.875299}, "viewport": {"northeast": {"lat": 19.2119572302915, "lng": 72.8766465802915}, "southwest": {"lat": 19.2092592697085, "lng": 72.8739486197085}}}, "place_id": "ChIJW0ZfxnW35zsRCn-pNtxRl5k", "plus_code": {"global_code": "7JFJ6V6G+64", "compound_code": "6V6G+64 Mumbai, Maharashtra, India"}, "vicinity": "EMP 19/505, Evershine Millennium Paradise, Thakur Village, Kandivali East, Mumbai", "photos": [{"photo_reference": "CmRaAAAAWcvIZ-YU-dxdAD73t-AK6_8cIF7SgLod_JIA6uD_CwywEpAfS0pCBYzaYoIXgz8cDAKFfYJSSwEpw3EfisVl85nFey5A8X6ippGGRLtUGeylGobt_JXvm1iIloVk7oXOEhBNcE6jFkCaxxIgpUoYuUJjGhS6NLi4DVQ1kxLfRxjDbic03903uQ", "width": 576, "html_attributions": ["<a href=\"https://maps.google.com/maps/contrib/107442175523100918940\">Vinod Yoga</a>"], "height": 960}], "scope": "GOOGLE", "business_status": "CLOSED_TEMPORARILY", "types": ["school", "point_of_interest", "establishment"], "icon": "https://maps.gstatic.com/mapfiles/place_api/icons/v1/png_71/school-71.png"}, {"rating": 5, "user_ratings_total": 2, "permanently_closed": true, "name": "Kufit (Yoga & Martial Arts Trainers at home)", "reference": "ChIJ82glRTm35zsRL_J5QMBgufM", "geometry": {"location": {"lat": 19.2098527, "lng": 72.87758939999999}, "viewport": {"northeast": {"lat": 19.2112062302915, "lng": 72.87899448029151}, "southwest": {"lat": 19.2085082697085, "lng": 72.87629651970849}}}, "place_id": "ChIJ82glRTm35zsRL_J5QMBgufM", "plus_code": {"global_code": "7JFJ6V5H+W2", "compound_code": "6V5H+W2 Mumbai, Maharashtra, India"}, "vicinity": "near Janupada Junction, C Wing - 402, 4th floor, Mahadev Apartment, near Janupada Junction, Thakur Village, Kandivali East, Mumbai", "photos": [{"photo_reference": "CmRaAAAANeZPd7vmPVtNOYOwpvKatKHR3vn7yrtldt9IuJIbvVDO8j9llN1tSDO9iI3Lw7pjrO0wdYX44DYnWTdZ7zIp7qyWaddbg9-SnR7_ypSrg7RKH__TGBK2hkynSiVqnewDEhDMvv2nB3fSmGke15OnfH_ZGhQowLF6n9VHlcTKKbudH10kzsMrGA", "width": 4608, "html_attributions": ["<a href=\"https://maps.google.com/maps/contrib/113148027144492556372\">Kufit (Yoga &amp; Martial Arts Trainers at home)</a>"], "height": 3456}], "scope": "GOOGLE", "business_status": "CLOSED_TEMPORARILY", "types": ["school", "gym", "health", "point_of_interest", "establishment"], "icon": "https://maps.gstatic.com/mapfiles/place_api/icons/v1/png_71/school-71.png"}, {"permanently_closed": true, "name": "Marigold Housing Society", "reference": "ChIJCQAhLHO35zsR6J8oXP99u7A", "geometry": {"location": {"lat": 19.2108314, "lng": 72.874741}, "viewport": {"northeast": {"lat": 19.2121810802915, "lng": 72.87600053029149}, "southwest": {"lat": 19.20948311970849, "lng": 72.87330256970849}}}, "place_id": "ChIJCQAhLHO35zsR6J8oXP99u7A", "plus_code": {"global_code": "7JFJ6V6F+8V", "compound_code": "6V6F+8V Mumbai, Maharashtra, India"}, "vicinity": "Thakur Village, Kandivali East, Mumbai", "scope": "GOOGLE", "business_status": "CLOSED_TEMPORARILY", "types": ["school", "point_of_interest", "establishment"], "icon": "https://maps.gstatic.com/mapfiles/place_api/icons/v1/png_71/school-71.png"}, {"permanently_closed": true, "name": "Gurukul Academy", "reference": "ChIJGwsWBDi35zsRjHlCsp0PzXM", "geometry": {"location": {"lat": 19.210831, "lng": 72.874741}, "viewport": {"northeast": {"lat": 19.2121806802915, "lng": 72.87600053029149}, "southwest": {"lat": 19.2094827197085, "lng": 72.87330256970849}}}, "place_id": "ChIJGwsWBDi35zsRjHlCsp0PzXM", "vicinity": "Shop No.15, opp. D'Mart, Thakur Village, Kandivali East, Mumbai", "scope": "GOOGLE", "business_status": "CLOSED_TEMPORARILY", "types": ["school", "point_of_interest", "establishment"], "icon": "https://maps.gstatic.com/mapfiles/place_api/icons/v1/png_71/school-71.png"}]}