{"status": "OK", "html_attributions": [], "results": [{"rating": 2.7, "user_ratings_total": 12, "permanently_closed": true, "name": "Sir J P High School Aksa", "reference": "ChIJDTw3uSy05zsRiLkVW9uwyuw", "geometry": {"location": {"lat": 19.1703741, "lng": 72.7971665}, "viewport": {"northeast": {"lat": 19.1717815802915, "lng": 72.7983579302915}, "southwest": {"lat": 19.16908361970849, "lng": 72.7956599697085}}}, "place_id": "ChIJDTw3uSy05zsRiLkVW9uwyuw", "plus_code": {"global_code": "7JFJ5QCW+4V", "compound_code": "5QCW+4V Mumbai, Maharashtra, India"}, "vicinity": "11, Madh - Marve Road, Dharvali, Aksa Gaon, Madh, Mumbai", "scope": "GOOGLE", "business_status": "CLOSED_TEMPORARILY", "types": ["school", "point_of_interest", "establishment"], "icon": "https://maps.gstatic.com/mapfiles/place_api/icons/v1/png_71/school-71.png"}, {"permanently_closed": true, "name": "God\u2019s Love Institute of Spirituality", "reference": "ChIJsaatELm15zsRNDp38rQpd7c", "geometry": {"location": {"lat": 19.148747, "lng": 72.795643}, "viewport": {"northeast": {"lat": 19.1501160802915, "lng": 72.79695068029152}, "southwest": {"lat": 19.1474181197085, "lng": 72.79425271970851}}}, "place_id": "ChIJsaatELm15zsRNDp38rQpd7c", "plus_code": {"global_code": "7JFJ4QXW+F7", "compound_code": "4QXW+F7 Mumbai, Maharashtra, India"}, "vicinity": "Raheja Exotica, Pascal Wadi, Madh, Mumbai", "scope": "GOOGLE", "business_status": "CLOSED_TEMPORARILY", "types": ["school", "point_of_interest", "establishment"], "icon": "https://maps.gstatic.com/mapfiles/place_api/icons/v1/png_71/school-71.png"}, {"name": "St. Rigus Conventional School", "reference": "ChIJ8WD3SUK15zsRgZ1qn9f0tFQ", "geometry": {"location": {"lat": 19.16298819999999, "lng": 72.7877256}, "viewport": {"northeast": {"lat": 19.1643371802915, "lng": 72.78907458029151}, "southwest": {"lat": 19.16163921970849, "lng": 72.78637661970849}}}, "place_id": "ChIJ8WD3SUK15zsRgZ1qn9f0tFQ", "plus_code": {"global_code": "7JFJ5Q7Q+53", "compound_code": "5Q7Q+53 Mumbai, Maharashtra, India"}, "vicinity": "Madh, Mumbai", "scope": "GOOGLE", "business_status": "OPERATIONAL", "types": ["school", "point_of_interest", "establishment"], "icon": "https://maps.gstatic.com/mapfiles/place_api/icons/v1/png_71/school-71.png"}]}