{"status": "OK", "html_attributions": [], "results": [{"rating": 1, "user_ratings_total": 2, "permanently_closed": true, "name": "Zilla Parishad Primary School Sonari", "reference": "ChIJKW-N7oHb5zsRZA_WGr05nwM", "geometry": {"location": {"lat": 18.9106104, "lng": 72.9883576}, "viewport": {"northeast": {"lat": 18.9118980802915, "lng": 72.98976813029151}, "southwest": {"lat": 18.90920011970849, "lng": 72.9870701697085}}}, "place_id": "ChIJKW-N7oHb5zsRZA_WGr05nwM", "plus_code": {"global_code": "7JCJWX6Q+68", "compound_code": "WX6Q+68 Sonari, Maharashtra, India"}, "vicinity": "Phulambri, Sonari", "scope": "GOOGLE", "business_status": "CLOSED_TEMPORARILY", "types": ["school", "point_of_interest", "establishment"], "icon": "https://maps.gstatic.com/mapfiles/place_api/icons/v1/png_71/school-71.png"}, {"rating": 4, "user_ratings_total": 2, "permanently_closed": true, "name": "Zpd School, Sonari", "reference": "ChIJCdyeSn_b5zsRhwqk2ys4IpI", "geometry": {"location": {"lat": 18.9118744, "lng": 72.9855316}, "viewport": {"northeast": {"lat": 18.9133794802915, "lng": 72.9867921302915}, "southwest": {"lat": 18.9106815197085, "lng": 72.98409416970848}}}, "place_id": "ChIJCdyeSn_b5zsRhwqk2ys4IpI", "plus_code": {"global_code": "7JCJWX6P+P6", "compound_code": "WX6P+P6 Sonari, Maharashtra, India"}, "vicinity": "At Taluran, Sonari", "photos": [{"photo_reference": "CmRaAAAA6jN7Lm2E2UvvUZVGB1X27HbUNI1cmFNxWAuLKvjM_73KfOUdi4oeP7M4607k1AewqksZeZKmlIrw-qHwmvt8pknYZOlYtFmNXjuXzJIoqu56k5WxS34SDYweBX7SI-vSEhC0bzD-Xqe0Vbu8PIVIiGFDGhQLF27kLnwGYiGILmzHpYQ1t-2WSg", "width": 1920, "html_attributions": ["<a href=\"https://maps.google.com/maps/contrib/114441043579294267601\">Vivek Mhatre</a>"], "height": 1080}], "scope": "GOOGLE", "business_status": "CLOSED_TEMPORARILY", "types": ["school", "point_of_interest", "establishment"], "icon": "https://maps.gstatic.com/mapfiles/place_api/icons/v1/png_71/school-71.png"}, {"name": "R.Z.P School , Jhaskhar", "reference": "ChIJn--zAYTb5zsRRIw7YtXpCdM", "geometry": {"location": {"lat": 18.9095548, "lng": 72.9823437}, "viewport": {"northeast": {"lat": 18.9109716802915, "lng": 72.9838979302915}, "southwest": {"lat": 18.9082737197085, "lng": 72.9811999697085}}}, "place_id": "ChIJn--zAYTb5zsRRIw7YtXpCdM", "plus_code": {"global_code": "7JCJWX5J+RW", "compound_code": "WX5J+RW Jaskhar, Maharashtra, India"}, "vicinity": "Jaskhar", "scope": "GOOGLE", "business_status": "OPERATIONAL", "types": ["school", "point_of_interest", "establishment"], "icon": "https://maps.gstatic.com/mapfiles/place_api/icons/v1/png_71/school-71.png"}, {"rating": 3, "user_ratings_total": 1, "permanently_closed": true, "name": "Tejas Naresh Thakur", "reference": "ChIJXdw4x4Lb5zsRpaFgWt-RPa0", "geometry": {"location": {"lat": 18.9095227, "lng": 72.9825304}, "viewport": {"northeast": {"lat": 18.9108616802915, "lng": 72.9840025802915}, "southwest": {"lat": 18.9081637197085, "lng": 72.9813046197085}}}, "place_id": "ChIJXdw4x4Lb5zsRpaFgWt-RPa0", "plus_code": {"global_code": "7JCJWX5M+R2", "compound_code": "WX5M+R2 Jaskhar, Maharashtra, India"}, "vicinity": "Jaskhar", "scope": "GOOGLE", "business_status": "CLOSED_TEMPORARILY", "types": ["school", "point_of_interest", "establishment"], "icon": "https://maps.gstatic.com/mapfiles/place_api/icons/v1/png_71/school-71.png"}, {"permanently_closed": true, "name": "\u091c\u0938\u0916\u093e\u0930\u091a\u093e \u0932\u0902\u092c\u094b\u0926\u0930 \u0930\u093e\u091c\u093e", "reference": "ChIJY17VF1Tb5zsR4L8gpSwiN6c", "geometry": {"location": {"lat": 18.9088747, "lng": 72.9822258}, "viewport": {"northeast": {"lat": 18.9102849302915, "lng": 72.98358268029149}, "southwest": {"lat": 18.9075869697085, "lng": 72.98088471970848}}}, "place_id": "ChIJY17VF1Tb5zsR4L8gpSwiN6c", "plus_code": {"global_code": "7JCJWX5J+GV", "compound_code": "WX5J+GV Jaskhar, Maharashtra, India"}, "vicinity": "Jaskhar", "scope": "GOOGLE", "business_status": "CLOSED_TEMPORARILY", "types": ["school", "point_of_interest", "establishment"], "icon": "https://maps.gstatic.com/mapfiles/place_api/icons/v1/png_71/school-71.png"}, {"rating": 4, "user_ratings_total": 5, "permanently_closed": true, "name": "R. Z. P. Central School , Jaskhar", "reference": "ChIJt16p0YLb5zsR5u2X4W96LS8", "geometry": {"location": {"lat": 18.9086936, "lng": 72.9820171}, "viewport": {"northeast": {"lat": 18.9099825302915, "lng": 72.9833513302915}, "southwest": {"lat": 18.9072845697085, "lng": 72.98065336970849}}}, "place_id": "ChIJt16p0YLb5zsR5u2X4W96LS8", "plus_code": {"global_code": "7JCJWX5J+FR", "compound_code": "WX5J+FR Jaskhar, Maharashtra, India"}, "vicinity": "Jaskhar", "scope": "GOOGLE", "business_status": "CLOSED_TEMPORARILY", "types": ["school", "point_of_interest", "establishment"], "icon": "https://maps.gstatic.com/mapfiles/place_api/icons/v1/png_71/school-71.png"}, {"rating": 5, "user_ratings_total": 1, "permanently_closed": true, "name": "Anil Toturial", "reference": "ChIJPbnZSnbb5zsRQjReE707FFY", "geometry": {"location": {"lat": 18.9082156, "lng": 72.9821315}, "viewport": {"northeast": {"lat": 18.9095711302915, "lng": 72.9833159302915}, "southwest": {"lat": 18.9068731697085, "lng": 72.98061796970849}}}, "place_id": "ChIJPbnZSnbb5zsRQjReE707FFY", "plus_code": {"global_code": "7JCJWX5J+7V", "compound_code": "WX5J+7V Jaskhar, Maharashtra, India"}, "vicinity": "Jaskhar", "scope": "GOOGLE", "business_status": "CLOSED_TEMPORARILY", "types": ["school", "point_of_interest", "establishment"], "icon": "https://maps.gstatic.com/mapfiles/place_api/icons/v1/png_71/school-71.png"}]}