{"status": "OK", "html_attributions": [], "results": [{"rating": 1.3, "user_ratings_total": 3, "permanently_closed": true, "name": "ElEcktrical", "reference": "ChIJoS4fDRDO5zsRfTWOlgDlWJQ", "geometry": {"location": {"lat": 18.9534959, "lng": 72.8174727}, "viewport": {"northeast": {"lat": 18.9548757302915, "lng": 72.8187424802915}, "southwest": {"lat": 18.9521777697085, "lng": 72.8160445197085}}}, "place_id": "ChIJoS4fDRDO5zsRfTWOlgDlWJQ", "plus_code": {"global_code": "7JCJXR38+9X", "compound_code": "XR38+9X Mumbai, Maharashtra, India"}, "vicinity": "Charniroad, Gaiwadi Road, Opera House, Mumbai", "photos": [{"photo_reference": "CmRaAAAAMtycWlBkFO_9D1ZOrniSnO4cJ6eSCWGUfuCAEqGLfkBpGWSRiEi0LS4aHsrW5VQ4WDaMKvq6-s9VfQVlsxQyBOfpwEvSKp6b0j3Q8uz0hi51d395lQOInlyl38t-lQ-2EhCOPE9vy91cJU7Fph8Et6L3GhTNJ8L13JoUtscq3WCzzPBUk6KJ8w", "width": 1280, "html_attributions": ["<a href=\"https://maps.google.com/maps/contrib/109192720957206590282\">Gaurav Bhardwaj</a>"], "height": 720}], "scope": "GOOGLE", "business_status": "CLOSED_TEMPORARILY", "types": ["school", "point_of_interest", "establishment"], "icon": "https://maps.gstatic.com/mapfiles/place_api/icons/v1/png_71/school-71.png"}, {"permanently_closed": true, "name": "ideal classes", "reference": "ChIJDwAANBbO5zsRV0sYeb3xf4A", "geometry": {"location": {"lat": 18.957054, "lng": 72.826807}, "viewport": {"northeast": {"lat": 18.9584471802915, "lng": 72.82812183029151}, "southwest": {"lat": 18.95574921970849, "lng": 72.8254238697085}}}, "place_id": "ChIJDwAANBbO5zsRV0sYeb3xf4A", "plus_code": {"global_code": "7JCJXR4G+RP", "compound_code": "XR4G+RP Mumbai, Maharashtra, India"}, "vicinity": "chwaji bhuneshwer mumbai, Cawasji Patel Tank, Bhuleshwar, Mumbai", "photos": [{"photo_reference": "CmRaAAAAqItWab-GAQyC8uvyFX82vpwWKfmYCBWH8rkaeKxd2vUD9MPzq1VYlNMjWwkI9M7x9xWWJ8nnqQckXyvr64spVB5CJoubzw1hlPPb6tm2HCUFOGX1iew8MKyqNb54bDheEhDd1TvSS9AXQLOnJJ4yACuAGhSWQoQud0uFmdYVCzD0YjWEUii7_g", "width": 800, "html_attributions": ["<a href=\"https://maps.google.com/maps/contrib/108025236142667590858\">ideal classes</a>"], "height": 1280}], "scope": "GOOGLE", "business_status": "CLOSED_TEMPORARILY", "types": ["school", "point_of_interest", "establishment"], "icon": "https://maps.gstatic.com/mapfiles/place_api/icons/v1/png_71/school-71.png"}, {"rating": 4.3, "user_ratings_total": 6, "permanently_closed": true, "name": "St. Columba Marathi Primary School", "reference": "ChIJsSR8_QzO5zsRffF1xqI1IHw", "geometry": {"location": {"lat": 18.961642, "lng": 72.8123822}, "viewport": {"northeast": {"lat": 18.9629909802915, "lng": 72.81373118029151}, "southwest": {"lat": 18.9602930197085, "lng": 72.81103321970849}}}, "place_id": "ChIJsSR8_QzO5zsRffF1xqI1IHw", "plus_code": {"global_code": "7JCJXR66+MX", "compound_code": "XR66+MX Mumbai, Maharashtra, India"}, "vicinity": "Kashibai Navrange Marg, Gamdevi, Nana Chowk, Mumbai", "photos": [{"photo_reference": "CmRaAAAAe5Xm0cXBUciRKimf3yddhdyO0rO2H3v8ZnhC8on_bGd3UT4vYBuinvM8-raNWgNUBYfjZZvvJZCFW4SBdw01b4LSIdE8RAOcN-wAkg-SHKxl9OHYf6JSO0SRdVTPEdEzEhDcD5dZqVKAYIhUl9YT9qAyGhQk5Jni8pFC9TNG79nM454GB5NnpQ", "width": 720, "html_attributions": ["<a href=\"https://maps.google.com/maps/contrib/106761673975564662594\">Shweta Surve</a>"], "height": 540}], "scope": "GOOGLE", "business_status": "CLOSED_TEMPORARILY", "types": ["primary_school", "school", "point_of_interest", "establishment"], "icon": "https://maps.gstatic.com/mapfiles/place_api/icons/v1/png_71/school-71.png"}, {"rating": 1, "user_ratings_total": 1, "name": "Mrudul Audiology Hearing And Speech Center", "reference": "ChIJd7wAv3LO5zsRJ7t_ajW9GZg", "geometry": {"location": {"lat": 18.9654185, "lng": 72.8146224}, "viewport": {"northeast": {"lat": 18.9667246802915, "lng": 72.8159627802915}, "southwest": {"lat": 18.9640267197085, "lng": 72.8132648197085}}}, "opening_hours": {"open_now": true}, "place_id": "ChIJd7wAv3LO5zsRJ7t_ajW9GZg", "plus_code": {"global_code": "7JCJXR87+5R", "compound_code": "XR87+5R Mumbai, Maharashtra, India"}, "vicinity": "1, Shop No 6, Dattatraya Building Tukaram Javaji Marg, Bhatia Hospital Lane, Grant Road West, Chikalwadi, Tardeo, Mumbai", "scope": "GOOGLE", "business_status": "OPERATIONAL", "types": ["school", "health", "point_of_interest", "store", "establishment"], "icon": "https://maps.gstatic.com/mapfiles/place_api/icons/v1/png_71/school-71.png"}, {"rating": 1, "user_ratings_total": 1, "permanently_closed": true, "name": "ideal classes", "reference": "ChIJPxseNBXO5zsRtI2scxSg798", "geometry": {"location": {"lat": 18.964892, "lng": 72.82614099999999}, "viewport": {"northeast": {"lat": 18.9662400302915, "lng": 72.8274894802915}, "southwest": {"lat": 18.9635420697085, "lng": 72.8247915197085}}}, "place_id": "ChIJPxseNBXO5zsRtI2scxSg798", "plus_code": {"global_code": "7JCJXR7G+XF", "compound_code": "XR7G+XF Mumbai, Maharashtra, India"}, "vicinity": "138 ground floor patel bulding jangle well nagpada, Kamathipura, Mumbai", "photos": [{"photo_reference": "CmRaAAAAH-379bEFLVZ_MH7CM9Xb3IKjEpshG6Era7Ta8drodmoL4Qmar0m4xcPxjqeWM-ppIvTK1xtpZUPn00gGvmWyvRyq_owjdAZz6jI3_Bz6nTGaYWCJRrzdcaxiHNUIuJpNEhCRv_-pxlWFMVK31bQJfaK9GhRwOm739a5lCBzfkzoG8Kbs5qku1w", "width": 800, "html_attributions": ["<a href=\"https://maps.google.com/maps/contrib/102624244234745042393\">ideal classes</a>"], "height": 1280}], "scope": "GOOGLE", "business_status": "CLOSED_TEMPORARILY", "types": ["school", "point_of_interest", "establishment"], "icon": "https://maps.gstatic.com/mapfiles/place_api/icons/v1/png_71/school-71.png"}, {"rating": 4.6, "user_ratings_total": 76, "name": "Girton High School", "reference": "ChIJBVkwhHLO5zsRLnXrmfRGv-I", "geometry": {"location": {"lat": 18.9664811, "lng": 72.8157604}, "viewport": {"northeast": {"lat": 18.9677861302915, "lng": 72.81719448029152}, "southwest": {"lat": 18.9650881697085, "lng": 72.8144965197085}}}, "opening_hours": {"open_now": false}, "place_id": "ChIJBVkwhHLO5zsRLnXrmfRGv-I", "plus_code": {"global_code": "7JCJXR88+H8", "compound_code": "XR88+H8 Mumbai, Maharashtra, India"}, "vicinity": "20-E, Wimbridge Compound, Naushir Bharucha Road, Mumbai", "photos": [{"photo_reference": "CmRaAAAAiFVGTy408h0OazTJQjUA54P_gOu_wPbbmZoZPyGDc8Ib4mvlHbNhbjaEQd0RJj7tH3mLTNRM4K610_JFCBRyTXc7KtoXRInK1YZ_56XITDoqgi0TA_YexD2f1i9bYp2IEhA2EqBIdyuPB5lQEHWpiL0sGhTnNmlbJluTa46bgshVVm1dYyQQYA", "width": 529, "html_attributions": ["<a href=\"https://maps.google.com/maps/contrib/108796187005065517085\">Rushali Bafna</a>"], "height": 390}], "scope": "GOOGLE", "business_status": "OPERATIONAL", "types": ["school", "point_of_interest", "establishment"], "icon": "https://maps.gstatic.com/mapfiles/place_api/icons/v1/png_71/school-71.png"}, {"rating": 5, "user_ratings_total": 4, "permanently_closed": true, "name": "Gokool Kids Playgroup & Nursery", "reference": "ChIJifrcvxfO5zsRSKLOtxwddD4", "geometry": {"location": {"lat": 18.9551409, "lng": 72.8261701}, "viewport": {"northeast": {"lat": 18.9565160802915, "lng": 72.82750078029152}, "southwest": {"lat": 18.95381811970849, "lng": 72.8248028197085}}}, "place_id": "ChIJifrcvxfO5zsRSKLOtxwddD4", "plus_code": {"global_code": "7JCJXR4G+3F", "compound_code": "XR4G+3F Mumbai, Maharashtra, India"}, "vicinity": "153, 155, Cawasji Patel Tank Road, Madhav Baug, Mumbai", "scope": "GOOGLE", "business_status": "CLOSED_TEMPORARILY", "types": ["school", "point_of_interest", "establishment"], "icon": "https://maps.gstatic.com/mapfiles/place_api/icons/v1/png_71/school-71.png"}, {"permanently_closed": true, "name": "Kamatipura Municipal Upper Primary School", "reference": "ChIJA8TSJmvO5zsRF2-Z6kROd6o", "geometry": {"location": {"lat": 18.966189, "lng": 72.82473710000001}, "viewport": {"northeast": {"lat": 18.9675610302915, "lng": 72.8260766302915}, "southwest": {"lat": 18.96486306970849, "lng": 72.82337866970848}}}, "place_id": "ChIJA8TSJmvO5zsRF2-Z6kROd6o", "plus_code": {"global_code": "7JCJXR8F+FV", "compound_code": "XR8F+FV Mumbai, Maharashtra, India"}, "vicinity": "Muncipal School Building, 7th Lane, Sukhlaji Street, Mumbai", "scope": "GOOGLE", "business_status": "CLOSED_TEMPORARILY", "types": ["school", "point_of_interest", "establishment"], "icon": "https://maps.gstatic.com/mapfiles/place_api/icons/v1/png_71/school-71.png"}, {"rating": 3.5, "user_ratings_total": 2, "permanently_closed": true, "name": "Education Inspector South", "reference": "ChIJM4p1qW3O5zsR4xQV29FlKKw", "geometry": {"location": {"lat": 18.967586, "lng": 72.8186065}, "viewport": {"northeast": {"lat": 18.9689232302915, "lng": 72.8199245802915}, "southwest": {"lat": 18.9662252697085, "lng": 72.81722661970848}}}, "place_id": "ChIJM4p1qW3O5zsR4xQV29FlKKw", "plus_code": {"global_code": "7JCJXR99+2C", "compound_code": "XR99+2C Mumbai, Maharashtra, India"}, "vicinity": "Gilder Path, Marzban Parsi Colony, Dalal Estate, Mumbai Central, Mumbai", "scope": "GOOGLE", "business_status": "CLOSED_TEMPORARILY", "types": ["school", "point_of_interest", "establishment"], "icon": "https://maps.gstatic.com/mapfiles/place_api/icons/v1/png_71/school-71.png"}, {"rating": 4.6, "user_ratings_total": 14, "name": "Little Hearts Pre School", "reference": "ChIJE4qkPXPO5zsRPiEzc2hpmGI", "geometry": {"location": {"lat": 18.9652147, "lng": 72.8120814}, "viewport": {"northeast": {"lat": 18.9665609302915, "lng": 72.8134940802915}, "southwest": {"lat": 18.9638629697085, "lng": 72.81079611970848}}}, "place_id": "ChIJE4qkPXPO5zsRPiEzc2hpmGI", "plus_code": {"global_code": "7JCJXR86+3R", "compound_code": "XR86+3R Mumbai, Maharashtra, India"}, "vicinity": "opposite Bhatia Hospital, Rati Villa, Motibai Street,, opposite Bhatia Hospital, Javji Dadaji Marg, Kemps Corner, Tardeo, Mumbai", "photos": [{"photo_reference": "CmRaAAAAqjJvNcZXWTXowR-BghiKEtNiImX_a-rcWwDZrJLQ4fLv7EbDeCG-502gqSEEDtmBUuD8wP3Fe9vHqdsPpyERJuyUbd5WWpG_cmOYHRX8NI1YIB2LUA7K53HZxaX3eLrcEhDrJqCS72WcweL7tNjpecPMGhQkFsvDvr5hpQsW80wJVQEZ-P65QA", "width": 2982, "html_attributions": ["<a href=\"https://maps.google.com/maps/contrib/108233014817397010398\">Darshan Kulkarni</a>"], "height": 1678}], "scope": "GOOGLE", "business_status": "OPERATIONAL", "types": ["school", "point_of_interest", "establishment"], "icon": "https://maps.gstatic.com/mapfiles/place_api/icons/v1/png_71/school-71.png"}, {"rating": 4.4, "user_ratings_total": 23, "permanently_closed": true, "name": "St. Columba School", "reference": "ChIJ16YwXAzO5zsRo6F_Kx-tEBM", "geometry": {"location": {"lat": 18.9606002, "lng": 72.8118236}, "viewport": {"northeast": {"lat": 18.9618909802915, "lng": 72.8131294802915}, "southwest": {"lat": 18.9591930197085, "lng": 72.81043151970849}}}, "place_id": "ChIJ16YwXAzO5zsRo6F_Kx-tEBM", "plus_code": {"global_code": "7JCJXR66+6P", "compound_code": "XR66+6P Mumbai, Maharashtra, India"}, "vicinity": "August Kranti Road, Papanas Wadi, Tardeo, Mumbai", "photos": [{"photo_reference": "CmRaAAAApqfABwA_9rGAuoNLFyyOKmGDAO8ZSyKUVNbBSGqUvksBDycuQqtifODIoeRvGXPij3HEOiqWHVnYtYFrg3kWX_V6nrGKBESu4vAejAjwT1sinbvauiaaKTFZzz29lBfYEhB_Du5g4pXgQZkbHrUyV-fnGhQP9ydDGbbcr8QXf-_OYMHu2-B_qQ", "width": 4128, "html_attributions": ["<a href=\"https://maps.google.com/maps/contrib/105492090745846001900\">Sudhir Raut</a>"], "height": 3096}], "scope": "GOOGLE", "business_status": "CLOSED_TEMPORARILY", "types": ["school", "point_of_interest", "establishment"], "icon": "https://maps.gstatic.com/mapfiles/place_api/icons/v1/png_71/school-71.png"}, {"rating": 5, "user_ratings_total": 2, "permanently_closed": true, "name": "MERRY CHILDREN'S PLAYSCHOOL, TARDEO, MUMBAI", "reference": "ChIJs9RZJm3O5zsRcI4118h6tUI", "geometry": {"location": {"lat": 18.967418, "lng": 72.81558}, "viewport": {"northeast": {"lat": 18.9687331802915, "lng": 72.8169162302915}, "southwest": {"lat": 18.9660352197085, "lng": 72.81421826970849}}}, "place_id": "ChIJs9RZJm3O5zsRcI4118h6tUI", "plus_code": {"global_code": "7JCJXR88+X6", "compound_code": "XR88+X6 Mumbai, Maharashtra, India"}, "vicinity": "near Sham Rao Vittal Co.Bank, Shop No. 8, Ground Floor Sonawala Building No 8,, Sleater Road, Tardeo,, near Sham Rao Vittal Co.Bank, Mumbai", "photos": [{"photo_reference": "CmRaAAAAeezXz7uJjeSparIb1zQwHIb5EfhjCD2EZfKHQO9ymJO7aP1xzSLNtrEBllhYnVReh3y4hyWmsYjeGGjOpTXKD8q2swtHET_Hhlhf1m-6LIT5WI5WPuTTDVBUWvU3qLFrEhDujgVjv9wIaTDrU8FS5MGOGhTYcxw600Hlm2-xFbuqE5uRmHbhmA", "width": 4898, "html_attributions": ["<a href=\"https://maps.google.com/maps/contrib/112085221436261874177\">Spirie India</a>"], "height": 3265}], "scope": "GOOGLE", "business_status": "CLOSED_TEMPORARILY", "types": ["school", "point_of_interest", "establishment"], "icon": "https://maps.gstatic.com/mapfiles/place_api/icons/v1/png_71/school-71.png"}, {"rating": 5, "user_ratings_total": 3, "permanently_closed": true, "name": "Play Group Nursery", "reference": "ChIJidMReWzO5zsRHRrOwfi_Tf0", "geometry": {"location": {"lat": 18.968198, "lng": 72.8217631}, "viewport": {"northeast": {"lat": 18.9695265802915, "lng": 72.8231735302915}, "southwest": {"lat": 18.9668286197085, "lng": 72.82047556970848}}}, "place_id": "ChIJidMReWzO5zsRHRrOwfi_Tf0", "plus_code": {"global_code": "7JCJXR9C+7P", "compound_code": "XR9C+7P Mumbai, Maharashtra, India"}, "vicinity": "K Kadam Marg, Navjeevan Society, Mumbai Central, Mumbai", "photos": [{"photo_reference": "CmRaAAAAtYk7OLH9Q5SLcnDy-0_D8wF2gMFrDfUP1pUzYAPXX4zRYfcvxsXo3somcrlbAQyBNZxtxjn-YusHt53zMw5iXOX5zW8wS32J49V7gW9ckS2eZzWiN2RBAZF9hliMU2vKEhAdTjnaCXZxnQUuHJUngeLKGhSQB8okJMSrsgYyT26_pdHhDpDcsw", "width": 5312, "html_attributions": ["<a href=\"https://maps.google.com/maps/contrib/111465125862666716690\">Mrs. Asha Raja</a>"], "height": 2988}], "scope": "GOOGLE", "business_status": "CLOSED_TEMPORARILY", "types": ["school", "point_of_interest", "establishment"], "icon": "https://maps.gstatic.com/mapfiles/place_api/icons/v1/png_71/school-71.png"}, {"rating": 2, "user_ratings_total": 2, "permanently_closed": true, "name": "Good Luck Motor Training School", "reference": "ChIJhZVMXhrO5zsRPRpnQa7R5YI", "geometry": {"location": {"lat": 18.9515513, "lng": 72.8192426}, "viewport": {"northeast": {"lat": 18.9528624302915, "lng": 72.8205615302915}, "southwest": {"lat": 18.9501644697085, "lng": 72.81786356970848}}}, "place_id": "ChIJhZVMXhrO5zsRPRpnQa7R5YI", "plus_code": {"global_code": "7JCJXR29+JM", "compound_code": "XR29+JM Mumbai, Maharashtra, India"}, "vicinity": "33, Maharshi Karve Road, Kranti Nagar, Mangal Wadi, Girgaon, Mumbai", "photos": [{"photo_reference": "CmRaAAAA7eiTf5Ac11eUmrgGFeh9EXg00yZR02WM7lrbLMf80qGezdtK96zWDtKjPcV8TM-lw6xH_X6xc27hsUNvoNtV4-zORgAJdgzp30bT8Zb2ljWL8nYAbXfKd0NaVC9L-B2GEhD924Rx1f8KywoHHfsPXdzeGhQ44HKSUct2nEDYjs9LZZpJOQRmdQ", "width": 3456, "html_attributions": ["<a href=\"https://maps.google.com/maps/contrib/113454711402653291329\">Deepkumar Girdhar</a>"], "height": 4608}], "scope": "GOOGLE", "business_status": "CLOSED_TEMPORARILY", "types": ["school", "point_of_interest", "establishment"], "icon": "https://maps.gstatic.com/mapfiles/place_api/icons/v1/png_71/school-71.png"}, {"rating": 4, "user_ratings_total": 1, "permanently_closed": true, "name": "Quite Cool Private Limited", "reference": "ChIJQ3LQoGvO5zsRclh4VF8k7RU", "geometry": {"location": {"lat": 18.9680414, "lng": 72.82380909999999}, "viewport": {"northeast": {"lat": 18.9694908302915, "lng": 72.8251870802915}, "southwest": {"lat": 18.9667928697085, "lng": 72.8224891197085}}}, "place_id": "ChIJQ3LQoGvO5zsRclh4VF8k7RU", "plus_code": {"global_code": "7JCJXR9F+6G", "compound_code": "XR9F+6G Mumbai, Maharashtra, India"}, "vicinity": "Orchid Enclave, Navjeevan Society, Dalal Estate, Kamathipura, Mumbai", "scope": "GOOGLE", "business_status": "CLOSED_TEMPORARILY", "types": ["school", "point_of_interest", "establishment"], "icon": "https://maps.gstatic.com/mapfiles/place_api/icons/v1/png_71/school-71.png"}, {"name": "Masoom", "reference": "ChIJwWCJC3LO5zsR8IKU9Vhvrac", "geometry": {"location": {"lat": 18.9667595, "lng": 72.8138208}, "viewport": {"northeast": {"lat": 18.9681133802915, "lng": 72.8151520302915}, "southwest": {"lat": 18.9654154197085, "lng": 72.8124540697085}}}, "place_id": "ChIJwWCJC3LO5zsR8IKU9Vhvrac", "plus_code": {"global_code": "7JCJXR87+PG", "compound_code": "XR87+PG Mumbai, Maharashtra, India"}, "vicinity": "Shop Number 3, 195-A, Tardeo Road, Near Ganga-Jamuna Theatres, Mumbai Central, Talmakiwadi Co-operative Housing Society, Old Chikalwadi, Tulsiwadi, Tardeo, Mumbai", "scope": "GOOGLE", "business_status": "OPERATIONAL", "types": ["school", "point_of_interest", "establishment"], "icon": "https://maps.gstatic.com/mapfiles/place_api/icons/v1/png_71/school-71.png"}, {"rating": 4.7, "user_ratings_total": 15, "permanently_closed": true, "name": "Shreeji Motor Training School", "reference": "ChIJnbiT_xnO5zsRCV9b7FnlXvE", "geometry": {"location": {"lat": 18.9537038, "lng": 72.82655129999999}, "viewport": {"northeast": {"lat": 18.9550311302915, "lng": 72.8279082302915}, "southwest": {"lat": 18.9523331697085, "lng": 72.82521026970848}}}, "place_id": "ChIJnbiT_xnO5zsRCV9b7FnlXvE", "plus_code": {"global_code": "7JCJXR3G+FJ", "compound_code": "XR3G+FJ Mumbai, Maharashtra, India"}, "vicinity": "Mangal Wadi, Girgaon, Mumbai", "photos": [{"photo_reference": "CmRaAAAAApnUx-UkoBrbk__-db95LSaHK_CqzRoT3mklScd2ZueFzWLV5gtWb-jiKp4lC0HYxYA-NMt8NJtiiUjDNZDvYhAV7c5fFl0NvWJ_lD86CgJisiQJlqzd81e8cOTF4PMVEhB2TJPF0uefhDlnnZYhYy44GhSOSAKHSpI2iZ6m_i4gJV3OKx4TBQ", "width": 3474, "html_attributions": ["<a href=\"https://maps.google.com/maps/contrib/103888466219018656681\">Aniket Gudadhe</a>"], "height": 4632}], "scope": "GOOGLE", "business_status": "CLOSED_TEMPORARILY", "types": ["school", "point_of_interest", "establishment"], "icon": "https://maps.gstatic.com/mapfiles/place_api/icons/v1/png_71/school-71.png"}, {"rating": 4.9, "user_ratings_total": 68, "name": "Paras Piyush Classes [PPC]", "reference": "ChIJN0LHIxjO5zsR1MGWANxy06k", "geometry": {"location": {"lat": 18.953302, "lng": 72.826111}, "viewport": {"northeast": {"lat": 18.9546876802915, "lng": 72.8274435802915}, "southwest": {"lat": 18.9519897197085, "lng": 72.8247456197085}}}, "opening_hours": {"open_now": true}, "place_id": "ChIJN0LHIxjO5zsR1MGWANxy06k", "plus_code": {"global_code": "7JCJXR3G+8C", "compound_code": "XR3G+8C Mumbai, Maharashtra, India"}, "vicinity": "Thakurdwar Road, Marine Lines East, Cawasji Patel Tank, Kalbadevi, Mumbai", "photos": [{"photo_reference": "CmRaAAAA86XlxHyd_AV3fngFSADEcULLTsSxyDuYQcqZdvM_uCKNXcdSMIGfgdpJHgX1pufG4xbRaBKRLoloRNpGJlQH6AeWwVBdiAtNYn5FAkc0PXV4Qqz0LU-EJ-BlcheQvfCyEhCt5XC_18U6m5PsDrXMMI4qGhSe-e9fr11tqO1jS6dDdZcPB5bUGQ", "width": 576, "html_attributions": ["<a href=\"https://maps.google.com/maps/contrib/105804131691469262044\">Paras Piyush Classes [PPC]</a>"], "height": 323}], "scope": "GOOGLE", "business_status": "OPERATIONAL", "types": ["accounting", "finance", "school", "health", "point_of_interest", "establishment"], "icon": "https://maps.gstatic.com/mapfiles/place_api/icons/v1/png_71/school-71.png"}, {"permanently_closed": true, "name": "Tardeo Municipal Marathi Primary School", "reference": "ChIJeekzDW7O5zsR3amnH0zu5RU", "geometry": {"location": {"lat": 18.9654816, "lng": 72.8123882}, "viewport": {"northeast": {"lat": 18.9668604302915, "lng": 72.8137467302915}, "southwest": {"lat": 18.9641624697085, "lng": 72.81104876970849}}}, "place_id": "ChIJeekzDW7O5zsR3amnH0zu5RU", "plus_code": {"global_code": "7JCJXR86+5X", "compound_code": "XR86+5X Mumbai, Maharashtra, India"}, "vicinity": "Municipal School Building , Bane Compound, Sane Guruji Marg, Tardeo Road, Mumbai", "scope": "GOOGLE", "business_status": "CLOSED_TEMPORARILY", "types": ["primary_school", "school", "point_of_interest", "establishment"], "icon": "https://maps.gstatic.com/mapfiles/place_api/icons/v1/png_71/school-71.png"}, {"rating": 4.2, "user_ratings_total": 113, "name": "Anjuman I Islam's Saif Tyabji Girls High School and Junior College", "reference": "ChIJq6qqemrO5zsRZcqED9NYR44", "geometry": {"location": {"lat": 18.9679946, "lng": 72.82554209999999}, "viewport": {"northeast": {"lat": 18.9692994802915, "lng": 72.82687813029149}, "southwest": {"lat": 18.9666015197085, "lng": 72.82418016970848}}}, "opening_hours": {"open_now": false}, "place_id": "ChIJq6qqemrO5zsRZcqED9NYR44", "plus_code": {"global_code": "7JCJXR9G+56", "compound_code": "XR9G+56 Mumbai, Maharashtra, India"}, "vicinity": "BEST Depot, Saboo Baug, 260,Jahangir Boman Behram, Marg, Bellasis Road, Near, Mumbai Central, Mumbai", "photos": [{"photo_reference": "CmRZAAAAMB51bmpXKAXBpwGI_1ctIe52nOVYrCHlGjw-I1QMXrRiecp-ltNmGxBEZVh2PCRQgtS5HqCjyvrzuhsF1ELdaZP897XirUEpisvw5g9_w5gsCcY0WeUzEUZ6aISV2mT0EhD2YdjcwIOSVBm49MJGoNfPGhR2kKJI1_DTAlXUbDA8JAQlLqZs6A", "width": 3456, "html_attributions": ["<a href=\"https://maps.google.com/maps/contrib/102818348200084962469\">Tabassum Masum Ali</a>"], "height": 4608}], "scope": "GOOGLE", "business_status": "OPERATIONAL", "types": ["school", "point_of_interest", "establishment"], "icon": "https://maps.gstatic.com/mapfiles/place_api/icons/v1/png_71/school-71.png"}]}