{"status": "OK", "next_page_token": "CsQDuAEAAF0YNJGkvY18Ag4JArk0hwiUlHx_vDkZk_b9pxzvHEAOOJfINz0rWlo9cHIRoBi-fJubXdCQ3gRvVv9aQxXTGBRa_LZMwdx622B4nLAl6uGSQAM0wn1vLc1v0h52V60jfxmDybOd1tpMqZYl5cveri1Wg-xs-aEc086krw7062xXoRuKEYNZJFBv-aUB8UEazk-NaFFWtSVXxlwQqhg1t7QX6K2oFqxxhc39FIyyK1WDAoGu8nqLSPUcE9didd9ymc6cmqtFXHi2cGEwPPfqiVel-8yf-jsSsyOY39A6h9tmmV_OLH_3Ie-gdPn9PiIDKe387Clmjxf16CCNkjrutbWhEyXVfAnGqfa_C7HejV47gVDgsdjQm6DnZ3N0u7io5t7e4sD-Wob_J6tcdNAmkHo_jz8c2prvK4mi-eId48ufdMgsrnyNKNdVr_QaFJxFmvvuDq4f7rcMbTU4RBE8FxtqnOnKNObyFGVvEbKC-FVEwAfAYq2aMUoN9xdBydRkD5sH54Cme9k1zWoSWDzfe7PycKi7db3XMDKChuxg6Huu5mX726Zd0Ov7KsoJ86AdHtIkVUk4mPgUOoBmr60GLtESEEXV6Y2kwdXK-FXgzTpyHlgaFEXU8z5ZxYZE7joyViDJqkPYc64_", "html_attributions": [], "results": [{"rating": 4.6, "user_ratings_total": 51, "permanently_closed": true, "name": "St. Joseph\u2019s Convent Primary School", "reference": "ChIJE61itz_J5zsRCxyytB6uwwU", "geometry": {"location": {"lat": 19.0559967, "lng": 72.82950070000001}, "viewport": {"northeast": {"lat": 19.0572669302915, "lng": 72.83077483029152}, "southwest": {"lat": 19.0545689697085, "lng": 72.82807686970851}}}, "place_id": "ChIJE61itz_J5zsRCxyytB6uwwU", "plus_code": {"global_code": "7JFJ3R4H+9R", "compound_code": "3R4H+9R Mumbai, Maharashtra, India"}, "vicinity": "8, Manuel Gonsalves Road, Bandra West, Mumbai", "photos": [{"photo_reference": "CmRaAAAAcQRwm5DKMS-VV9N-BkbzseVqRERUlPwEwq-EYurveF1ts4t3i76Mwl2r0c1kU7HU9ZFcjOhAvCLo4QDC8GdiMbmUmh7IBg-Fw_nbcMpHu2Rdoy5Bb8tNWXEo3wMOYUGOEhCva3GMXKzvYSCVUpqO2iqLGhSRUQ6aFl3YqG-KSrfjpAbQTCuUVw", "width": 4160, "html_attributions": ["<a href=\"https://maps.google.com/maps/contrib/106079237630012451677\">Fali Madon</a>"], "height": 3120}], "scope": "GOOGLE", "business_status": "CLOSED_TEMPORARILY", "types": ["primary_school", "school", "point_of_interest", "establishment"], "icon": "https://maps.gstatic.com/mapfiles/place_api/icons/v1/png_71/school-71.png"}, {"permanently_closed": true, "name": "petit school", "reference": "ChIJXzB55VnJ5zsR_8cHquxZxQs", "geometry": {"location": {"lat": 19.06051, "lng": 72.82177329999999}, "viewport": {"northeast": {"lat": 19.0618862802915, "lng": 72.8234235802915}, "southwest": {"lat": 19.0591883197085, "lng": 72.82072561970848}}}, "place_id": "ChIJXzB55VnJ5zsR_8cHquxZxQs", "plus_code": {"global_code": "7JFJ3R6C+6P", "compound_code": "3R6C+6P Mumbai, Maharashtra, India"}, "vicinity": "29-B, Master Vinayak Road, Bandra West, Mumbai", "photos": [{"photo_reference": "CmRaAAAAMi6GSrbot9WuJ_8-TKsUT94x833Dl3SdueZpNhdU57E3dmZ4vCNLD1cvNzm6CjxdBLpBtreym5ua9hpHdtf7Z4Ah6x-e-LOc0nCLI3nDaKQ7AjgSZpg2dM9qGiK9o1i9EhCJ4t5bfZw9wRjokGrBh24EGhSmroWoYCnx9wenVltREeIPo71Q0A", "width": 2448, "html_attributions": ["<a href=\"https://maps.google.com/maps/contrib/111573602697964254010\">Mangesh Badekar</a>"], "height": 3264}], "scope": "GOOGLE", "business_status": "CLOSED_TEMPORARILY", "types": ["school", "point_of_interest", "establishment"], "icon": "https://maps.gstatic.com/mapfiles/place_api/icons/v1/png_71/school-71.png"}, {"permanently_closed": true, "name": "CHIMBAI PUMPING STATION", "reference": "ChIJMf37IGrJ5zsRR08hlX80tmk", "geometry": {"location": {"lat": 19.0590413, "lng": 72.822291}, "viewport": {"northeast": {"lat": 19.0603470802915, "lng": 72.8235942802915}, "southwest": {"lat": 19.0576491197085, "lng": 72.8208963197085}}}, "place_id": "ChIJMf37IGrJ5zsRR08hlX80tmk", "plus_code": {"global_code": "7JFJ3R5C+JW", "compound_code": "3R5C+JW Mumbai, Maharashtra, India"}, "vicinity": "131, Sangeet Samrat Naushad Ali Marg, Bandra West, Mumbai", "scope": "GOOGLE", "business_status": "CLOSED_TEMPORARILY", "types": ["school", "point_of_interest", "establishment"], "icon": "https://maps.gstatic.com/mapfiles/place_api/icons/v1/png_71/school-71.png"}, {"rating": 5, "user_ratings_total": 10, "permanently_closed": true, "name": "Toddler's Den", "reference": "ChIJ3aUbMmrJ5zsRzdI6MK1YDiI", "geometry": {"location": {"lat": 19.0593922, "lng": 72.82284849999999}, "viewport": {"northeast": {"lat": 19.0607371802915, "lng": 72.82421443029152}, "southwest": {"lat": 19.0580392197085, "lng": 72.8215164697085}}}, "place_id": "ChIJ3aUbMmrJ5zsRzdI6MK1YDiI", "plus_code": {"global_code": "7JFJ3R5F+Q4", "compound_code": "3R5F+Q4 Mumbai, Maharashtra, India"}, "vicinity": "Toddler's Den Early Learning Centre, 31 Perry Cross Road, Near Otter's Club, Bandra West, Mumbai", "photos": [{"photo_reference": "CmRaAAAAMDYNJ3qI-RGz_p4hNay9sM6wolZU5Vfs2gjdbrsvA05-0ypenEnqgP22FFd0E5UI8b9L0IVQSccyB3Ikp_wK-hSF3LuvifrYqqkMN8y4KVCO4K-YQGXfurNtco4_h6CSEhBi-YWwng1S7_HXTNoFI3jEGhQUDAdSZ5Rbb9jr1fQb2_MoZ-RLqw", "width": 4032, "html_attributions": ["<a href=\"https://maps.google.com/maps/contrib/115247166147087640837\">Toddler&#39;s Den</a>"], "height": 3024}], "scope": "GOOGLE", "business_status": "CLOSED_TEMPORARILY", "types": ["school", "point_of_interest", "establishment"], "icon": "https://maps.gstatic.com/mapfiles/place_api/icons/v1/png_71/school-71.png"}, {"permanently_closed": true, "name": "Clare's Secretarial School", "reference": "ChIJOdELz2vJ5zsRwHggYUpKpw0", "geometry": {"location": {"lat": 19.060356, "lng": 72.822943}, "viewport": {"northeast": {"lat": 19.0616927302915, "lng": 72.8242858302915}, "southwest": {"lat": 19.0589947697085, "lng": 72.8215878697085}}}, "place_id": "ChIJOdELz2vJ5zsRwHggYUpKpw0", "vicinity": "Green Gate, Master Vinayak Road, Bandra West, Mumbai", "scope": "GOOGLE", "business_status": "CLOSED_TEMPORARILY", "types": ["school", "point_of_interest", "establishment"], "icon": "https://maps.gstatic.com/mapfiles/place_api/icons/v1/png_71/school-71.png"}, {"rating": 4.7, "user_ratings_total": 68, "name": "Nail Lounge Academy", "reference": "ChIJZ8rucT7J5zsRQ_aF6m1KsYI", "geometry": {"location": {"lat": 19.0604378, "lng": 72.8244094}, "viewport": {"northeast": {"lat": 19.0618234802915, "lng": 72.82568283029151}, "southwest": {"lat": 19.0591255197085, "lng": 72.82298486970849}}}, "opening_hours": {"open_now": true}, "place_id": "ChIJZ8rucT7J5zsRQ_aF6m1KsYI", "plus_code": {"global_code": "7JFJ3R6F+5Q", "compound_code": "3R6F+5Q Mumbai, Maharashtra, India"}, "vicinity": "Bhamla House, (Opp. Advanced Hair Studio),, Mumbai", "photos": [{"photo_reference": "CmRaAAAALRmqsX1Z6EnB3adDy01YxItN3i6RruG1hirVjnZsOZlkTu8lHexxChlbgf9SwnF0fF5-0aVj9ZmD9qwpDuueJoX-TRC3yxRpvIQdxSE6WNUoVl4-ehMpT4P-JN8v5XQZEhBAo1kVbnOPf1Ai6aeahJo3GhTUUmnhc5lROZGlFFMp60-46qKRlA", "width": 1280, "html_attributions": ["<a href=\"https://maps.google.com/maps/contrib/112740080368392189465\">Nail Lounge Academy</a>"], "height": 720}], "scope": "GOOGLE", "business_status": "OPERATIONAL", "types": ["school", "point_of_interest", "establishment"], "icon": "https://maps.gstatic.com/mapfiles/place_api/icons/v1/png_71/school-71.png"}, {"rating": 3.5, "user_ratings_total": 17, "permanently_closed": true, "name": "Aseema", "reference": "ChIJC3jZRmrJ5zsR0ix-qf-4ujI", "geometry": {"location": {"lat": 19.0580933, "lng": 72.8243904}, "viewport": {"northeast": {"lat": 19.0593475802915, "lng": 72.82574878029149}, "southwest": {"lat": 19.05664961970849, "lng": 72.82305081970848}}}, "place_id": "ChIJC3jZRmrJ5zsR0ix-qf-4ujI", "plus_code": {"global_code": "7JFJ3R5F+6Q", "compound_code": "3R5F+6Q Mumbai, Maharashtra, India"}, "vicinity": "Bandra West, Mumbai", "photos": [{"photo_reference": "CmRaAAAAHHAoVTdhKN_tQAtHJ1s38XRpCeCw7sr8UsZjtT6QikrFL8c707YKemk2B8qGUdtLjxDl3JkFDwuOKGH2qajRwAOXj2J0JWBq28ZNkgnyLwP5JeWdySkeJijC0Ga1YvkjEhBcBicE1fLViFzq-xFtHGlJGhTus2WbIbzE5Pwwd_QB7hz9C0VD9Q", "width": 3120, "html_attributions": ["<a href=\"https://maps.google.com/maps/contrib/114248163460024162875\">Anisa Shaikh</a>"], "height": 4160}], "scope": "GOOGLE", "business_status": "CLOSED_TEMPORARILY", "types": ["school", "point_of_interest", "establishment"], "icon": "https://maps.gstatic.com/mapfiles/place_api/icons/v1/png_71/school-71.png"}, {"rating": 4.3, "user_ratings_total": 6, "name": "Enjoy Learning ! by Fizaa Mirza", "reference": "ChIJYzm-PoTJ5zsRyKiqldhw-g4", "geometry": {"location": {"lat": 19.06341399999999, "lng": 72.823441}, "viewport": {"northeast": {"lat": 19.0645890302915, "lng": 72.82482278029151}, "southwest": {"lat": 19.0618910697085, "lng": 72.8221248197085}}}, "opening_hours": {"open_now": false}, "place_id": "ChIJYzm-PoTJ5zsRyKiqldhw-g4", "plus_code": {"global_code": "7JFJ3R7F+99", "compound_code": "3R7F+99 Mumbai, Maharashtra, India"}, "vicinity": "near SUNRISE RESTAURANT, 24, Pali Mala Road, Bandra West, Mumbai", "photos": [{"photo_reference": "CmRaAAAA_OA0xL1DfOfUk2W1psD9O7_QRWlbZ6mnE3M2vbEhZI9klBnIRcBt8YpX8wsXyTqTzth6XHKqcWZyeWM46Sihivo6UMcPtEeWdzRbyZ5gqDajciji7e8KgahxMAOlNszmEhCSYSna38FwXcTGjLEML0DfGhTEk-9Sp8O0PiCwlq1VkNeyP3ZQyg", "width": 1068, "html_attributions": ["<a href=\"https://maps.google.com/maps/contrib/100681263377599367011\">Sahir Kotadia</a>"], "height": 953}], "scope": "GOOGLE", "business_status": "OPERATIONAL", "types": ["school", "point_of_interest", "establishment"], "icon": "https://maps.gstatic.com/mapfiles/place_api/icons/v1/png_71/school-71.png"}, {"permanently_closed": true, "name": "Do - Re - Me School of Music", "reference": "ChIJCfEnYmrJ5zsRfHMZlDdOkGc", "geometry": {"location": {"lat": 19.0581302, "lng": 72.824826}, "viewport": {"northeast": {"lat": 19.0593918802915, "lng": 72.82618678029151}, "southwest": {"lat": 19.0566939197085, "lng": 72.82348881970849}}}, "place_id": "ChIJCfEnYmrJ5zsRfHMZlDdOkGc", "plus_code": {"global_code": "7JFJ3R5F+7W", "compound_code": "3R5F+7W Mumbai, Maharashtra, India"}, "vicinity": "Saint Josephs Road, Bandra West, Mumbai", "scope": "GOOGLE", "business_status": "CLOSED_TEMPORARILY", "types": ["school", "point_of_interest", "establishment"], "icon": "https://maps.gstatic.com/mapfiles/place_api/icons/v1/png_71/school-71.png"}, {"permanently_closed": true, "name": "Li\u2019l Yogis", "reference": "ChIJw3hRjRPJ5zsRUgAfLC_jWgc", "geometry": {"location": {"lat": 19.0626153, "lng": 72.82447710000001}, "viewport": {"northeast": {"lat": 19.0640378802915, "lng": 72.8258145302915}, "southwest": {"lat": 19.06133991970849, "lng": 72.82311656970849}}}, "place_id": "ChIJw3hRjRPJ5zsRUgAfLC_jWgc", "plus_code": {"global_code": "7JFJ3R7F+2Q", "compound_code": "3R7F+2Q Mumbai, Maharashtra, India"}, "vicinity": "Sunrock Heights, 11 floor, Off, Perry Cross Road, Bandra West, Mumbai", "photos": [{"photo_reference": "CmRaAAAAxzMVgGHhkyRMx3HcWwz5WX8YYELelsZ8UmPpttrttSYVJzrShLeOdRI_fphjTXoB1Q7x-M-o6uMu4bcRYFpQLz1L-oVSFtQLolGENcca6X4ryyykTl-_K0Dv5KThEumUEhCy1PyJ_jvoOYn3JpWYyinoGhQBkveq2trfh9Z_28bj-2AfppHVkw", "width": 831, "html_attributions": ["<a href=\"https://maps.google.com/maps/contrib/102646492908140988806\">Li\u2019l Yogis</a>"], "height": 778}], "scope": "GOOGLE", "business_status": "CLOSED_TEMPORARILY", "types": ["school", "point_of_interest", "establishment"], "icon": "https://maps.gstatic.com/mapfiles/place_api/icons/v1/png_71/school-71.png"}, {"rating": 4.8, "user_ratings_total": 37, "permanently_closed": true, "name": "KLAY Preschool and DayCare - Bandra West", "reference": "ChIJtbT7y23J5zsRFKrI7CORmns", "geometry": {"location": {"lat": 19.0654731, "lng": 72.82446019999999}, "viewport": {"northeast": {"lat": 19.0668293802915, "lng": 72.82580948029151}, "southwest": {"lat": 19.0641314197085, "lng": 72.8231115197085}}}, "place_id": "ChIJtbT7y23J5zsRFKrI7CORmns", "plus_code": {"global_code": "7JFJ3R8F+5Q", "compound_code": "3R8F+5Q Mumbai, Maharashtra, India"}, "vicinity": "House # 5, Shirley Village, Off Carter Road, Next to Railway Officers Colony, Bandra West, D Block, Railway Colony, Shirley, Bandra West, Mumbai", "scope": "GOOGLE", "business_status": "CLOSED_TEMPORARILY", "types": ["school", "point_of_interest", "establishment"], "icon": "https://maps.gstatic.com/mapfiles/place_api/icons/v1/png_71/school-71.png"}, {"rating": 4.5, "user_ratings_total": 6, "name": "Tech Mahindra SMART Academy for Healthcare", "reference": "ChIJz97nCk7J5zsRhyG4HHk8MSs", "geometry": {"location": {"lat": 19.0616481, "lng": 72.8256683}, "viewport": {"northeast": {"lat": 19.06309498029151, "lng": 72.8270281302915}, "southwest": {"lat": 19.0603970197085, "lng": 72.82433016970849}}}, "place_id": "ChIJz97nCk7J5zsRhyG4HHk8MSs", "plus_code": {"global_code": "7JFJ3R6G+M7", "compound_code": "3R6G+M7 Mumbai, Maharashtra, India"}, "vicinity": "Bandra West, Mumbai", "scope": "GOOGLE", "business_status": "OPERATIONAL", "types": ["school", "point_of_interest", "establishment"], "icon": "https://maps.gstatic.com/mapfiles/place_api/icons/v1/png_71/school-71.png"}, {"permanently_closed": true, "name": "Renaissance The Finishing School", "reference": "ChIJec12y23J5zsRS7XvlxM2Qdc", "geometry": {"location": {"lat": 19.0636663, "lng": 72.8246441}, "viewport": {"northeast": {"lat": 19.0650296302915, "lng": 72.8259607302915}, "southwest": {"lat": 19.0623316697085, "lng": 72.82326276970849}}}, "place_id": "ChIJec12y23J5zsRS7XvlxM2Qdc", "plus_code": {"global_code": "7JFJ3R7F+FV", "compound_code": "3R7F+FV Bandra West, Mumbai, Maharashtra, India"}, "vicinity": "nr. Pali Market, 301, Nicholas, Sherley Rajan Rd, nr. Pali Market, Off Carter Road, Bandra West, W", "scope": "GOOGLE", "business_status": "CLOSED_TEMPORARILY", "types": ["school", "point_of_interest", "establishment"], "icon": "https://maps.gstatic.com/mapfiles/place_api/icons/v1/png_71/school-71.png"}, {"rating": 5, "user_ratings_total": 1, "permanently_closed": true, "name": "Shelter Building", "reference": "ChIJH-QvSnjJ5zsRRKdYAlp--ck", "geometry": {"location": {"lat": 19.0567687, "lng": 72.8256293}, "viewport": {"northeast": {"lat": 19.05811188029151, "lng": 72.8269784802915}, "southwest": {"lat": 19.0554139197085, "lng": 72.8242805197085}}}, "place_id": "ChIJH-QvSnjJ5zsRRKdYAlp--ck", "plus_code": {"global_code": "7JFJ3R4G+P7", "compound_code": "3R4G+P7 Mumbai, Maharashtra, India"}, "vicinity": "Saint Francis Road, Bandra West, Mumbai", "scope": "GOOGLE", "business_status": "CLOSED_TEMPORARILY", "types": ["school", "point_of_interest", "establishment"], "icon": "https://maps.gstatic.com/mapfiles/place_api/icons/v1/png_71/school-71.png"}, {"rating": 5, "user_ratings_total": 1, "permanently_closed": true, "name": "Auxilium English Medium High School", "reference": "ChIJl294-4fJ5zsRpce5JhDZGso", "geometry": {"location": {"lat": 19.06222139999999, "lng": 72.8263648}, "viewport": {"northeast": {"lat": 19.0635670802915, "lng": 72.8277469302915}, "southwest": {"lat": 19.0608691197085, "lng": 72.82504896970849}}}, "place_id": "ChIJl294-4fJ5zsRpce5JhDZGso", "plus_code": {"global_code": "7JFJ3R6G+VG", "compound_code": "3R6G+VG Mumbai, Maharashtra, India"}, "vicinity": "6, Nargis Dutt Road, Pali Hill, Mumbai", "scope": "GOOGLE", "business_status": "CLOSED_TEMPORARILY", "types": ["school", "point_of_interest", "establishment"], "icon": "https://maps.gstatic.com/mapfiles/place_api/icons/v1/png_71/school-71.png"}, {"permanently_closed": true, "name": "Baby Genius", "reference": "ChIJec12y23J5zsRQSh7Ap5hBjk", "geometry": {"location": {"lat": 19.0656746, "lng": 72.82317499999999}, "viewport": {"northeast": {"lat": 19.0670236302915, "lng": 72.82452443029149}, "southwest": {"lat": 19.0643256697085, "lng": 72.82182646970848}}}, "place_id": "ChIJec12y23J5zsRQSh7Ap5hBjk", "vicinity": "No. 271, Priti C. H. S, Carter Road, Bandra West, Mumbai - 400050", "scope": "GOOGLE", "business_status": "CLOSED_TEMPORARILY", "types": ["school", "point_of_interest", "establishment"], "icon": "https://maps.gstatic.com/mapfiles/place_api/icons/v1/png_71/school-71.png"}, {"permanently_closed": true, "name": "Harsan", "reference": "ChIJu-vD6BHJ5zsRE4-yFv3yCvc", "geometry": {"location": {"lat": 19.0598775, "lng": 72.8269305}, "viewport": {"northeast": {"lat": 19.06110523029151, "lng": 72.8281316802915}, "southwest": {"lat": 19.0584072697085, "lng": 72.82543371970849}}}, "place_id": "ChIJu-vD6BHJ5zsRE4-yFv3yCvc", "plus_code": {"global_code": "7JFJ3R5G+XQ", "compound_code": "3R5G+XQ Mumbai, Maharashtra, India"}, "vicinity": "159, Perry Road, Pali Hill, Mumbai", "scope": "GOOGLE", "business_status": "CLOSED_TEMPORARILY", "types": ["school", "point_of_interest", "establishment"], "icon": "https://maps.gstatic.com/mapfiles/place_api/icons/v1/png_71/school-71.png"}, {"permanently_closed": true, "name": "GOYOGAPRO", "reference": "ChIJP_fLWGvJ5zsRINuyZ_Xkh7Q", "geometry": {"location": {"lat": 19.0628548, "lng": 72.8268173}, "viewport": {"northeast": {"lat": 19.0642000802915, "lng": 72.8281650302915}, "southwest": {"lat": 19.0615021197085, "lng": 72.82546706970848}}}, "place_id": "ChIJP_fLWGvJ5zsRINuyZ_Xkh7Q", "plus_code": {"global_code": "7JFJ3R7G+4P", "compound_code": "3R7G+4P Bandra West, Mumbai, Maharashtra, India"}, "vicinity": "The Studio, Pali Mala, 50, Bandra West", "scope": "GOOGLE", "business_status": "CLOSED_TEMPORARILY", "types": ["school", "point_of_interest", "establishment"], "icon": "https://maps.gstatic.com/mapfiles/place_api/icons/v1/png_71/school-71.png"}, {"rating": 5, "user_ratings_total": 2, "name": "Leaf - Home Yoga", "reference": "ChIJw7-_iJfJ5zsRkKKO1pKMzU8", "geometry": {"location": {"lat": 19.0592085, "lng": 72.8274728}, "viewport": {"northeast": {"lat": 19.0605556802915, "lng": 72.8287668302915}, "southwest": {"lat": 19.0578577197085, "lng": 72.8260688697085}}}, "opening_hours": {"open_now": true}, "place_id": "ChIJw7-_iJfJ5zsRkKKO1pKMzU8", "plus_code": {"global_code": "7JFJ3R5G+MX", "compound_code": "3R5G+MX Mumbai, Maharashtra, India"}, "vicinity": "Bandra West, Mumbai", "photos": [{"photo_reference": "CmRaAAAAA1qFcDBuw2xnZRw2ALeKsRiYYZII-jHAg0FQFCnYfzJQaeBuIR9f09bwVEhXZRSSWb_upd9bMraGnUBWRLBUopIxE_SYTB3u7AO0xDxy7yrjj_r8t07Lg1HdqcDwpVylEhAyUlZBTQmJJcB-1GsBHbt0GhSbubcnmWkmD-ZJzCaIE1ZgBfvGig", "width": 2000, "html_attributions": ["<a href=\"https://maps.google.com/maps/contrib/100395666452083984452\">photo studio</a>"], "height": 1500}], "scope": "GOOGLE", "business_status": "OPERATIONAL", "types": ["school", "point_of_interest", "establishment"], "icon": "https://maps.gstatic.com/mapfiles/place_api/icons/v1/png_71/school-71.png"}, {"permanently_closed": true, "name": "Little Butterflies Montessori School", "reference": "ChIJkXoZ8TzJ5zsR_xLQJcDWKLk", "geometry": {"location": {"lat": 19.0539599, "lng": 72.82419660000001}, "viewport": {"northeast": {"lat": 19.0552648302915, "lng": 72.82564478029151}, "southwest": {"lat": 19.0525668697085, "lng": 72.8229468197085}}}, "place_id": "ChIJkXoZ8TzJ5zsR_xLQJcDWKLk", "plus_code": {"global_code": "7JFJ3R3F+HM", "compound_code": "3R3F+HM Mumbai, Maharashtra, India"}, "vicinity": "10, Hill Road, Santosh Nagar, Bandra West, Mumbai", "scope": "GOOGLE", "business_status": "CLOSED_TEMPORARILY", "types": ["school", "point_of_interest", "establishment"], "icon": "https://maps.gstatic.com/mapfiles/place_api/icons/v1/png_71/school-71.png"}]}