{"status": "OK", "next_page_token": "ATtYBwKRzXZnoWump0dHkDuP62uaSPtwcSLCA0-Fx70YZnHoajATLS721pU2IUwsHUWn5Zt4Pk_ZLlNXeH-SBcvKE39MQMUNJKQOWHT4IEr9fXZ-uL9s63_ElxljkNRk5ihIEGXvhsLjQhBRuM4hsWs8UDnYUly6CKEXodyVNJtkpDxAZ4NKiAIFvoe0XH3W46RjWsOYKwqrZJPZM8KMLnRxIL2e2lR9mxZIL5T88kLshfP6IwdQFF8htTOjEWQj4odp4VD6-kT7rc_MIHd11ZQHaj8fiaQdIMSQHI5ytIRh2BOeS033FDkeVReBDRxp0z2iXdywqqqfNUhWCKo7T_2iVfFrHTqZyHKrKNrnaXzg9bKy9tZ004bCYoI2tZ_1JAGEXl4r10fvl5kXn5pFIAg5hv4bvff6k_X31G6kX8v2j_uUcJu9sk4ZAvo7dxhupkG0qXEYoop1nXrO7HDGWMC5Iqibtn6gkVWgRouzNU70eODwVmNUcOnqzANkGLq0UPe_lKwXxUqgt3UPgv4fwIi28rT_QvCkTQnlDk3HTIlKDpK9zlAKVfuoeaO6JugFoVLdXM6IoOafTUx6O2kk02vR57mGN6A3ALs2It96PAMnZgY5jPVZB4uxphW0wau6sjFJ9W1q_pP3KTrKfNInL9GmuQ", "html_attributions": [], "results": [{"rating": 4.4, "user_ratings_total": 7, "name": "Mamta Provision Store", "reference": "ChIJAQAAwAsWrjsRGHL8lrRCxn8", "geometry": {"location": {"lat": 12.970983, "lng": 77.57804999999999}, "viewport": {"northeast": {"lat": 12.9723498802915, "lng": 77.57941383029149}, "southwest": {"lat": 12.9696519197085, "lng": 77.57671586970848}}}, "opening_hours": {"open_now": true}, "place_id": "ChIJAQAAwAsWrjsRGHL8lrRCxn8", "plus_code": {"global_code": "7J4VXHCH+96", "compound_code": "XHCH+96 Bengaluru, Karnataka, India"}, "vicinity": "Mahesh Provision Store, 227, Aakulu Complex, Near, Rangaswamy Temple Street, Bengaluru", "photos": [{"photo_reference": "ATtYBwJar_lu-sv9z_GidFseD6MDvejWWmk8s_n9_vEdUGc9GkBXv4siKRkLidqgxGbK6U7Zmf75Tjy1Mb-DXCcx2X6s1Ya0dqJNp4z7f-Aqmxs1uAtrrnVPjinCAKwIoEXrvMrIex3dMdYYWVsgwzuUizZ6cbCZpJil6iiKmeUR7GPf8zrG", "width": 720, "html_attributions": ["<a href=\"https://maps.google.com/maps/contrib/112739821385864836559\">Mamta Provision Store</a>"], "height": 512}], "scope": "GOOGLE", "business_status": "OPERATIONAL", "types": ["department_store", "point_of_interest", "store", "establishment"], "icon": "https://maps.gstatic.com/mapfiles/place_api/icons/v1/png_71/shopping-71.png"}, {"rating": 4.9, "user_ratings_total": 15, "name": "Mahesh Provisions", "reference": "ChIJE8R9PncWrjsRrD-8acBxxMY", "geometry": {"location": {"lat": 12.9709856, "lng": 77.5780071}, "viewport": {"northeast": {"lat": 12.9723214802915, "lng": 77.57934598029149}, "southwest": {"lat": 12.9696235197085, "lng": 77.57664801970849}}}, "opening_hours": {"open_now": true}, "place_id": "ChIJE8R9PncWrjsRrD-8acBxxMY", "plus_code": {"global_code": "7J4VXHCH+96", "compound_code": "XHCH+96 Bengaluru, Karnataka, India"}, "vicinity": "MAHESH PROVISIONS, 227, Rangaswamy Temple Street, Anchepet, Chickpet, Bengaluru", "photos": [{"photo_reference": "ATtYBwJ-oJwrs_EHEnvcr_7vy-DrJuhysYbFyu5fJCp-Hn_uJhHKDolG82KSGAjkV1zom6SYSOF7jCWEPXbNzEO9Hbyfee9fVMX23pVnB5OHIIfiC2-DMh-KLoy95g8TevnrheqzqwBYPGZXWm1LVrrC_qy2rOJyCqElVak1N1B2gNPPffpa", "width": 5472, "html_attributions": ["<a href=\"https://maps.google.com/maps/contrib/109251210169050870522\">Spirie India</a>"], "height": 3648}], "scope": "GOOGLE", "business_status": "OPERATIONAL", "types": ["department_store", "grocery_or_supermarket", "food", "point_of_interest", "store", "establishment"], "icon": "https://maps.gstatic.com/mapfiles/place_api/icons/v1/png_71/shopping-71.png"}, {"name": "Maharaja Provision Stores", "reference": "ChIJn9vkQgkWrjsRZVL5GuAhGXY", "geometry": {"location": {"lat": 12.9707555, "lng": 77.5805685}, "viewport": {"northeast": {"lat": 12.9719959302915, "lng": 77.58187488029151}, "southwest": {"lat": 12.9692979697085, "lng": 77.5791769197085}}}, "opening_hours": {"open_now": true}, "place_id": "ChIJn9vkQgkWrjsRZVL5GuAhGXY", "vicinity": "No 1,4th Cross, huriopet 27th cross, Rangaswamy Temple Street, Chickpet, Bengaluru", "scope": "GOOGLE", "business_status": "OPERATIONAL", "types": ["department_store", "point_of_interest", "store", "establishment"], "icon": "https://maps.gstatic.com/mapfiles/place_api/icons/v1/png_71/shopping-71.png"}, {"rating": 5, "user_ratings_total": 3, "name": "Vishal Provision Stores", "reference": "ChIJAQAAwAsWrjsRGAFMJUXbATg", "geometry": {"location": {"lat": 12.9707912, "lng": 77.578289}, "viewport": {"northeast": {"lat": 12.9721499802915, "lng": 77.5796471302915}, "southwest": {"lat": 12.9694520197085, "lng": 77.5769491697085}}}, "opening_hours": {"open_now": true}, "place_id": "ChIJAQAAwAsWrjsRGAFMJUXbATg", "vicinity": "223, Rangaswamy Temple Street, Anchepet, Chickpet, Bengaluru", "scope": "GOOGLE", "business_status": "OPERATIONAL", "types": ["department_store", "point_of_interest", "store", "establishment"], "icon": "https://maps.gstatic.com/mapfiles/place_api/icons/v1/png_71/shopping-71.png"}, {"rating": 5, "user_ratings_total": 1, "name": "Mukesh Provision Stores", "reference": "ChIJo4MV0g4WrjsRgdvpJz8NoUQ", "geometry": {"location": {"lat": 12.9710616, "lng": 77.5763917}, "viewport": {"northeast": {"lat": 12.9724030802915, "lng": 77.57775523029152}, "southwest": {"lat": 12.9697051197085, "lng": 77.5750572697085}}}, "place_id": "ChIJo4MV0g4WrjsRgdvpJz8NoUQ", "plus_code": {"global_code": "7J4VXHCG+CH", "compound_code": "XHCG+CH Bengaluru, Karnataka, India"}, "vicinity": "109, L Residency Road Bvk Iyengar Road, Balepet, Balepet, Bengaluru", "scope": "GOOGLE", "business_status": "OPERATIONAL", "types": ["department_store", "point_of_interest", "store", "establishment"], "icon": "https://maps.gstatic.com/mapfiles/place_api/icons/v1/png_71/shopping-71.png"}, {"rating": 4.7, "user_ratings_total": 24, "name": "Sri Someshwara Stores", "reference": "ChIJ9RmmvT0WrjsRA2Ykvp4lbGY", "geometry": {"location": {"lat": 12.990501, "lng": 77.577184}, "viewport": {"northeast": {"lat": 12.99181898029151, "lng": 77.57852133029151}, "southwest": {"lat": 12.9891210197085, "lng": 77.5758233697085}}}, "opening_hours": {"open_now": true}, "place_id": "ChIJ9RmmvT0WrjsRA2Ykvp4lbGY", "plus_code": {"global_code": "7J4VXHRG+6V", "compound_code": "XHRG+6V Bengaluru, Karnataka, India"}, "vicinity": "36, 2nd Cross, Kumarapark West, 4th Block, Kumara Park West, Sampangiram Nagar, Bengaluru", "scope": "GOOGLE", "business_status": "OPERATIONAL", "types": ["department_store", "point_of_interest", "store", "establishment"], "icon": "https://maps.gstatic.com/mapfiles/place_api/icons/v1/png_71/shopping-71.png"}, {"rating": 3.2, "user_ratings_total": 11, "name": "M. S. Department Store", "reference": "ChIJVUAGyQUWrjsRdLvB2V1Mn5I", "geometry": {"location": {"lat": 12.972929, "lng": 77.571038}, "viewport": {"northeast": {"lat": 12.9742971802915, "lng": 77.5723870302915}, "southwest": {"lat": 12.9715992197085, "lng": 77.56968906970849}}}, "opening_hours": {"open_now": true}, "place_id": "ChIJVUAGyQUWrjsRdLvB2V1Mn5I", "plus_code": {"global_code": "7J4VXHFC+5C", "compound_code": "XHFC+5C Bengaluru, Karnataka, India"}, "vicinity": "No. 423, Dharmaraya Swamy Temple Road, Cottonpete, Bengaluru", "photos": [{"photo_reference": "ATtYBwKkUknAiB1eSf9eUYddr5_QOTCpytGefR9crnerdMz5NvF1FFRBPM-EIpAbKaRpbMWVirYVpUVQioGdULIRqO-D7V2EDgwidWmZyPPZFxI8pLDK-8WyTWGOlSc72_xToLICSYlNHLXaxNPULulWMJpnLYlsBt5mvrdXOmqxirGhqS3m", "width": 4208, "html_attributions": ["<a href=\"https://maps.google.com/maps/contrib/107811575719863799525\">Nitesh Kalburgi11111</a>"], "height": 3120}], "scope": "GOOGLE", "business_status": "OPERATIONAL", "types": ["department_store", "point_of_interest", "store", "establishment"], "icon": "https://maps.gstatic.com/mapfiles/place_api/icons/v1/png_71/shopping-71.png"}, {"rating": 4.8, "user_ratings_total": 4, "name": "T.S. Gopaliah and Sons", "reference": "ChIJV9ahRj0WrjsRqDGo2oyaKuU", "geometry": {"location": {"lat": 12.989896, "lng": 77.57439049999999}, "viewport": {"northeast": {"lat": 12.9912430302915, "lng": 77.57574728029151}, "southwest": {"lat": 12.9885450697085, "lng": 77.5730493197085}}}, "place_id": "ChIJV9ahRj0WrjsRqDGo2oyaKuU", "plus_code": {"global_code": "7J4VXHQF+XQ", "compound_code": "XHQF+XQ Bengaluru, Karnataka, India"}, "vicinity": "Jai Bheema Nagar, Kumara Park West, Sampangiram Nagar, Bengaluru", "photos": [{"photo_reference": "ATtYBwJYgFdOhaEqmvT_c4o3m_zQDokTmMNHcz8cJcGfWXKWJcNJYuVGUsEV3YXkYbujq_vrDIz36A-NGx90zuzlSJRKr8yH5WsfZqoKEQuGMmMcTqcBXup6_2B4jVB7EQdZ61QaBk3nU1YhPR-fNWaif_8QSIixD-R9ejzjunoRAZoSoyVv", "width": 4160, "html_attributions": ["<a href=\"https://maps.google.com/maps/contrib/105520857199618982387\">Puneeth Nag</a>"], "height": 2340}], "scope": "GOOGLE", "business_status": "OPERATIONAL", "types": ["department_store", "point_of_interest", "store", "establishment"], "icon": "https://maps.gstatic.com/mapfiles/place_api/icons/v1/png_71/shopping-71.png"}, {"name": "Vittal Provision Stores", "reference": "ChIJv8MC2goWrjsRykDhOOJqRYI", "geometry": {"location": {"lat": 12.9691369, "lng": 77.5840831}, "viewport": {"northeast": {"lat": 12.9704956802915, "lng": 77.58534783029151}, "southwest": {"lat": 12.9677977197085, "lng": 77.5826498697085}}}, "opening_hours": {"open_now": true}, "place_id": "ChIJv8MC2goWrjsRykDhOOJqRYI", "plus_code": {"global_code": "7J4VXH9M+MJ", "compound_code": "XH9M+MJ Bengaluru, Karnataka, India"}, "vicinity": "177, 12th Cross Road, Cubbonpete, Nagarathpete, Bengaluru", "scope": "GOOGLE", "business_status": "OPERATIONAL", "types": ["department_store", "point_of_interest", "store", "establishment"], "icon": "https://maps.gstatic.com/mapfiles/place_api/icons/v1/png_71/shopping-71.png"}, {"rating": 5, "user_ratings_total": 1, "name": "Krishna Departmental Store", "reference": "ChIJhc3z0QoWrjsRq0umeNkIvF8", "geometry": {"location": {"lat": 12.9688438, "lng": 77.5844147}, "viewport": {"northeast": {"lat": 12.9701948302915, "lng": 77.58571838029151}, "southwest": {"lat": 12.9674968697085, "lng": 77.58302041970849}}}, "place_id": "ChIJhc3z0QoWrjsRq0umeNkIvF8", "plus_code": {"global_code": "7J4VXH9M+GQ", "compound_code": "XH9M+GQ Bengaluru, Karnataka, India"}, "vicinity": "11th Cross, Cubbonpete, Nagarathpete, Bengaluru", "photos": [{"photo_reference": "ATtYBwKBNhrYpW6CffmU32gn9K31KWAUME362jgkXzK0ACVGcLC_YIcqJYZSL-fMJjNdr8TlJmqQpayTjojn5VPGuvZVCJ0rpJd_QNetD_bEAI4s06VWHWeEsMf-cjJtRXUui2B8ImL_AiCS9eTBBR2AKsae0Q9hfn1n8xRsvIuvGxbCN_IX", "width": 580, "html_attributions": ["<a href=\"https://maps.google.com/maps/contrib/110644099035512250607\">Papai Mondal</a>"], "height": 413}], "scope": "GOOGLE", "business_status": "OPERATIONAL", "types": ["department_store", "point_of_interest", "store", "establishment"], "icon": "https://maps.gstatic.com/mapfiles/place_api/icons/v1/png_71/shopping-71.png"}, {"name": "S L V Traders", "reference": "ChIJD0VH2goWrjsRaVDlobklykQ", "geometry": {"location": {"lat": 12.9687946, "lng": 77.5843179}, "viewport": {"northeast": {"lat": 12.9701449802915, "lng": 77.5856380802915}, "southwest": {"lat": 12.9674470197085, "lng": 77.58294011970848}}}, "place_id": "ChIJD0VH2goWrjsRaVDlobklykQ", "plus_code": {"global_code": "7J4VXH9M+GP", "compound_code": "XH9M+GP Bengaluru, Karnataka, India"}, "vicinity": "Shop no, opp. Ganesha Temple, 186, KM Naganna Road, Cubbonpete, Nagarathpete, Bengaluru", "scope": "GOOGLE", "business_status": "OPERATIONAL", "types": ["department_store", "car_repair", "point_of_interest", "store", "establishment"], "icon": "https://maps.gstatic.com/mapfiles/place_api/icons/v1/png_71/shopping-71.png"}, {"rating": 4, "user_ratings_total": 1, "name": "Shankar Stores", "reference": "ChIJHyC5JBAWrjsRUgSUO-MQs3A", "geometry": {"location": {"lat": 12.9681916, "lng": 77.5778857}, "viewport": {"northeast": {"lat": 12.9696259802915, "lng": 77.5792876302915}, "southwest": {"lat": 12.9669280197085, "lng": 77.5765896697085}}}, "place_id": "ChIJHyC5JBAWrjsRUgSUO-MQs3A", "plus_code": {"global_code": "7J4VXH9H+75", "compound_code": "XH9H+75 Bengaluru, Karnataka, India"}, "vicinity": "Chikpete Road, Mamulpet, Chickpet, Bengaluru", "scope": "GOOGLE", "business_status": "OPERATIONAL", "types": ["clothing_store", "department_store", "point_of_interest", "store", "establishment"], "icon": "https://maps.gstatic.com/mapfiles/place_api/icons/v1/png_71/shopping-71.png"}, {"name": "Sri Kumar Enterprises", "reference": "ChIJi_p7jQkWrjsRMotWuxGajQg", "geometry": {"location": {"lat": 12.9679737, "lng": 77.5784407}, "viewport": {"northeast": {"lat": 12.9692740302915, "lng": 77.5798759802915}, "southwest": {"lat": 12.9665760697085, "lng": 77.5771780197085}}}, "opening_hours": {"open_now": true}, "place_id": "ChIJi_p7jQkWrjsRMotWuxGajQg", "plus_code": {"global_code": "7J4VXH9H+59", "compound_code": "XH9H+59 Bengaluru, Karnataka, India"}, "vicinity": "#/ Bandimotu, 2, Avenue Road, Block 1, Bengaluru", "photos": [{"photo_reference": "ATtYBwJ2yuEXGk0Enx5LV1B_6a1YZYKCVrOD3WAZuv_UbbZvmntLnn12qCFgpixzDN7gCRz6ETa1VNVJmMQj1xmcDnhVuvhZk4LbA6GYjkV1QYgSb3MVKINr-_6vc7joSmZo0Q2UcIYQxR8tiZfPPSpx955q0enSBSi0knQdQcfTRVWDWLdY", "width": 1280, "html_attributions": ["<a href=\"https://maps.google.com/maps/contrib/102102892514260860541\">Sri Kumar Enterprises</a>"], "height": 720}], "scope": "GOOGLE", "business_status": "OPERATIONAL", "types": ["department_store", "point_of_interest", "store", "establishment"], "icon": "https://maps.gstatic.com/mapfiles/place_api/icons/v1/png_71/shopping-71.png"}, {"name": "Naveen Departmental Stores", "reference": "ChIJH1byaQoWrjsRnmqPG2cgDZI", "geometry": {"location": {"lat": 12.967872, "lng": 77.580962}, "viewport": {"northeast": {"lat": 12.9692979302915, "lng": 77.58219603029148}, "southwest": {"lat": 12.9665999697085, "lng": 77.57949806970848}}}, "opening_hours": {"open_now": true}, "place_id": "ChIJH1byaQoWrjsRnmqPG2cgDZI", "plus_code": {"global_code": "7J4VXH9J+49", "compound_code": "XH9J+49 Bengaluru, Karnataka, India"}, "vicinity": "Shop No.26, Appaji Rao Lane, MM Lane, Ganigarpet, Nagarathpete, Bengaluru", "scope": "GOOGLE", "business_status": "OPERATIONAL", "types": ["department_store", "point_of_interest", "store", "establishment"], "icon": "https://maps.gstatic.com/mapfiles/place_api/icons/v1/png_71/shopping-71.png"}, {"rating": 4.5, "user_ratings_total": 2, "name": "Harish Sonu Love Department", "reference": "ChIJ709pPgYWrjsRomYqut8zEkY", "geometry": {"location": {"lat": 12.9702419, "lng": 77.5722605}, "viewport": {"northeast": {"lat": 12.9715479302915, "lng": 77.57372798029151}, "southwest": {"lat": 12.9688499697085, "lng": 77.5710300197085}}}, "place_id": "ChIJ709pPgYWrjsRomYqut8zEkY", "plus_code": {"global_code": "7J4VXHCC+3W", "compound_code": "XHCC+3W Bengaluru, Karnataka, India"}, "vicinity": "104, Sowrashtrapet, Chickpet, Bengaluru", "scope": "GOOGLE", "business_status": "OPERATIONAL", "types": ["department_store", "point_of_interest", "store", "establishment"], "icon": "https://maps.gstatic.com/mapfiles/place_api/icons/v1/png_71/shopping-71.png"}, {"rating": 3, "user_ratings_total": 2, "name": "Subramanashawara Mini Bazzar", "reference": "ChIJhxvlyQoWrjsR7Ns0igVD5k0", "geometry": {"location": {"lat": 12.9681867, "lng": 77.58442099999999}, "viewport": {"northeast": {"lat": 12.9695261802915, "lng": 77.58576478029151}, "southwest": {"lat": 12.9668282197085, "lng": 77.5830668197085}}}, "opening_hours": {"open_now": true}, "place_id": "ChIJhxvlyQoWrjsR7Ns0igVD5k0", "plus_code": {"global_code": "7J4VXH9M+7Q", "compound_code": "XH9M+7Q Bengaluru, Karnataka, India"}, "vicinity": "Old Cubbonpete Road, Ganigarpet, Nagarathpete, Bengaluru", "photos": [{"photo_reference": "ATtYBwLyAVDJ3qGR5BoWrUK1FxT6iaiYsAYYK7P2kZRTxqvnl1nmUaCF4OhV9kBaxad09yd93twhHRYVOD0qmKRyQyEUK0KLS-ceDpZ5bPGe-K57ygapG-mZoOEbU2P1QIDGBLy8dJ4mgJh_JOUUVTLHhpjQjQHRndaSZ3xNMY7N692pdjHP", "width": 2048, "html_attributions": ["<a href=\"https://maps.google.com/maps/contrib/104578688204997465192\">Subramanashawara Mini Bazzar</a>"], "height": 1226}], "scope": "GOOGLE", "business_status": "OPERATIONAL", "types": ["department_store", "food", "point_of_interest", "store", "establishment"], "icon": "https://maps.gstatic.com/mapfiles/place_api/icons/v1/png_71/shopping-71.png"}, {"name": "Hello Trading corporation", "reference": "ChIJ8xz8KwYWrjsRdlRc388Ugo4", "geometry": {"location": {"lat": 12.969316, "lng": 77.57307}, "viewport": {"northeast": {"lat": 12.9706841802915, "lng": 77.5744277302915}, "southwest": {"lat": 12.9679862197085, "lng": 77.5717297697085}}}, "opening_hours": {"open_now": true}, "place_id": "ChIJ8xz8KwYWrjsRdlRc388Ugo4", "vicinity": "No25/2, Ram Raksh complex, Old Thargupet, Bengaluru", "scope": "GOOGLE", "business_status": "OPERATIONAL", "types": ["store", "department_store", "point_of_interest", "establishment"], "icon": "https://maps.gstatic.com/mapfiles/place_api/icons/v1/png_71/shopping-71.png"}, {"name": "Mahaveer Company", "reference": "ChIJn9vkQgkWrjsRpKHCI6uIwX0", "geometry": {"location": {"lat": 12.9675441, "lng": 77.5775912}, "viewport": {"northeast": {"lat": 12.9689591802915, "lng": 77.57896773029151}, "southwest": {"lat": 12.9662612197085, "lng": 77.5762697697085}}}, "place_id": "ChIJn9vkQgkWrjsRpKHCI6uIwX0", "plus_code": {"global_code": "7J4VXH9H+22", "compound_code": "XH9H+22 Bengaluru, Karnataka, India"}, "vicinity": "India", "scope": "GOOGLE", "business_status": "OPERATIONAL", "types": ["department_store", "point_of_interest", "store", "establishment"], "icon": "https://maps.gstatic.com/mapfiles/place_api/icons/v1/png_71/shopping-71.png"}, {"name": "Eshwar Departmental Stores", "reference": "ChIJ2WwBMhkWrjsRZoTq99KKobM", "geometry": {"location": {"lat": 12.9849726, "lng": 77.5679524}, "viewport": {"northeast": {"lat": 12.9863037802915, "lng": 77.5692992802915}, "southwest": {"lat": 12.9836058197085, "lng": 77.5666013197085}}}, "opening_hours": {"open_now": true}, "place_id": "ChIJ2WwBMhkWrjsRZoTq99KKobM", "plus_code": {"global_code": "7J4VXHM9+X5", "compound_code": "XHM9+X5 Bengaluru, Karnataka, India"}, "vicinity": "No 77/1, 5th Cross, Near-Sunrise Circle, Okalipuram, Bengaluru", "scope": "GOOGLE", "business_status": "OPERATIONAL", "types": ["department_store", "point_of_interest", "store", "establishment"], "icon": "https://maps.gstatic.com/mapfiles/place_api/icons/v1/png_71/shopping-71.png"}, {"name": "Moti Departmental Store", "reference": "ChIJK1T3sdEXrjsRi6UkvIt9gNU", "geometry": {"location": {"lat": 12.9671477, "lng": 77.5802088}, "viewport": {"northeast": {"lat": 12.9684686802915, "lng": 77.5815429302915}, "southwest": {"lat": 12.9657707197085, "lng": 77.5788449697085}}}, "opening_hours": {"open_now": true}, "place_id": "ChIJK1T3sdEXrjsRi6UkvIt9gNU", "plus_code": {"global_code": "7J4VXH8J+V3", "compound_code": "XH8J+V3 Bengaluru, Karnataka, India"}, "vicinity": "0pp, Nagareshwara temple, No.949, Dharmaraya Swamy Temple Road, Bengaluru", "photos": [{"photo_reference": "ATtYBwIvrVx11aAvJLz_89fPEWGNZ4EEryRrppgXhwBcMCtGIcYgGOnz9XKQmHZWor3naFmYkCZhXcQIHz0Q5yoLzy0RUpJg2atAuo1Ft0ugrQor_PIby1BNuMJsoVpaoNoYywIl2Y0puuXH2M2Gr-Q_Em6byGgZnA2RK0iAkvEj1YorpbDK", "width": 2448, "html_attributions": ["<a href=\"https://maps.google.com/maps/contrib/113941689414462891419\">Moti Departmental Store</a>"], "height": 3264}], "scope": "GOOGLE", "business_status": "OPERATIONAL", "types": ["department_store", "point_of_interest", "store", "establishment"], "icon": "https://maps.gstatic.com/mapfiles/place_api/icons/v1/png_71/shopping-71.png"}]}