{"status": "OK", "next_page_token": "ATtYBwKJzDWOfAC66Ahsn11I4uHbid6OPTfNapzAXv_Ug1dAfsurDp0XXk641WDvkYYrjy71BCPN2LMek9M97RNMWB1YK_P2fD_zW22wGKFfpoN-PBsyIvJmrQZljzdVMIsd7d2ojNIObw--T2KuBSnbaAdBwkjLjVviRP26gfHPdKZzNbAyR7ecHuZg1bRQsSckFboiU4GOnd5kejtNMe_0OnvuctJ99eUGRxFv4T9OiUT3HmVO28vW07-OXOHfXZqKUl0aWylnamoBueQlCPSTNR8_VZug7ILKd2ZBKBiQ8esLB_8MxAaJrbPBFAuVjxlmAFv0Kx6LCzIkIPqkp0Yk8AUQCG8zrzlqmk0WtmIAbbgs3PLO2og250Mi9FmTK0927wJ-6YCFaC5YYOrF8JgFXQ0NDZhHiN0XRGPTN8HBi6bXc_cJLca0bYRer5mz_teU", "html_attributions": [], "results": [{"name": "HKGN General Store", "reference": "ChIJS0MpKJMXrjsRczwORR6sc1I", "geometry": {"location": {"lat": 13.0568653, "lng": 77.6235264}, "viewport": {"northeast": {"lat": 13.0582577302915, "lng": 77.62494518029152}, "southwest": {"lat": 13.0555597697085, "lng": 77.6222472197085}}}, "place_id": "ChIJS0MpKJMXrjsRczwORR6sc1I", "plus_code": {"global_code": "7J5V3J4F+PC", "compound_code": "3J4F+PC Bengaluru, Karnataka, India"}, "vicinity": "5/22 Near Anam Layout, Thanisandra, Bengaluru", "scope": "GOOGLE", "business_status": "OPERATIONAL", "types": ["department_store", "point_of_interest", "store", "establishment"], "icon": "https://maps.gstatic.com/mapfiles/place_api/icons/v1/png_71/shopping-71.png"}, {"rating": 4, "user_ratings_total": 2, "name": "S L N PROVISION STORE", "reference": "ChIJJ6JCDdoZrjsRRBdIKdHcJOM", "geometry": {"location": {"lat": 13.065833, "lng": 77.6199113}, "viewport": {"northeast": {"lat": 13.0671828802915, "lng": 77.62126163029151}, "southwest": {"lat": 13.0644849197085, "lng": 77.61856366970851}}}, "opening_hours": {"open_now": true}, "place_id": "ChIJJ6JCDdoZrjsRRBdIKdHcJOM", "plus_code": {"global_code": "7J5V3J89+8X", "compound_code": "3J89+8X Bengaluru, Karnataka, India"}, "vicinity": "#102, MPN Nilaya,, Near Marramma Temple,, Sriramapura,, Bengaluru", "photos": [{"photo_reference": "ATtYBwLZF7hqQkt8qrLVfbzUiUVamjJurwoMC5Oob8YTr27xUOunPk_etk-f-O11U_9TsocT3ytvX-u8WgGzq-5YKkBhTct2ZnBXylCa0O-oTAOTQJyXB2dYnJxkwgYZ0EjQGkVRuMpBJS_j6BrwxZEnwSEJhMnV1qiDIKD_OS1aAmczaoLI", "width": 2048, "html_attributions": ["<a href=\"https://maps.google.com/maps/contrib/101429372105764189809\">S L N PROVISION STORE</a>"], "height": 1232}], "scope": "GOOGLE", "business_status": "OPERATIONAL", "types": ["department_store", "point_of_interest", "store", "establishment"], "icon": "https://maps.gstatic.com/mapfiles/place_api/icons/v1/png_71/shopping-71.png"}, {"rating": 2, "user_ratings_total": 2, "name": "Sri Ram Provision Store", "reference": "ChIJoWusGNoZrjsRlVjy6srR8c4", "geometry": {"location": {"lat": 13.0666741, "lng": 77.6182074}, "viewport": {"northeast": {"lat": 13.0680547302915, "lng": 77.61955423029151}, "southwest": {"lat": 13.0653567697085, "lng": 77.61685626970849}}}, "opening_hours": {"open_now": true}, "place_id": "ChIJoWusGNoZrjsRlVjy6srR8c4", "plus_code": {"global_code": "7J5V3J89+M7", "compound_code": "3J89+M7 Bengaluru, Karnataka, India"}, "vicinity": "Opp.Govt School, Sri Rampura Main Road, Sri Rampura, Bengaluru", "photos": [{"photo_reference": "ATtYBwIB65Xjd1hUtnidE24cEd4WXLVrbKhEWa9eiOtUC5Jd6DN9iEImaZeNKI9QjB80bm1fwS3ooHBT-KoS4uwtodL1DAUAxF15-SunjP4dnaqp-HgmGW3i4p1r3Bnp2_PJHXEhy2zd1IEkZEXZp-KwOIQhfNP5MG1WlSWCN4L-hOLXGGme", "width": 2576, "html_attributions": ["<a href=\"https://maps.google.com/maps/contrib/112377588645107923164\">Ramlal Mewara</a>"], "height": 1932}], "scope": "GOOGLE", "business_status": "OPERATIONAL", "types": ["department_store", "point_of_interest", "store", "establishment"], "icon": "https://maps.gstatic.com/mapfiles/place_api/icons/v1/png_71/shopping-71.png"}, {"rating": 5, "user_ratings_total": 3, "name": "Haiwa provision store", "reference": "ChIJ3SJGBGsXrjsRc8O0NaCiC04", "geometry": {"location": {"lat": 13.0507464, "lng": 77.6279339}, "viewport": {"northeast": {"lat": 13.0520773302915, "lng": 77.62928003029151}, "southwest": {"lat": 13.0493793697085, "lng": 77.6265820697085}}}, "opening_hours": {"open_now": true}, "place_id": "ChIJ3SJGBGsXrjsRc8O0NaCiC04", "plus_code": {"global_code": "7J5V3J2H+75", "compound_code": "3J2H+75 Bengaluru, Karnataka, India"}, "vicinity": "Abubakar Masjid Road, Bharath Nagar, Bengaluru", "photos": [{"photo_reference": "ATtYBwJCArKVRUmhF1PWZhX6GCS6hav2YVKIEWyBxYqrUa-zKLz2JmkB3v9UbYx2-_sg_m7VAOVzNbvKtz04lvgGLO5HVvTOE2C0xD-v66tmFtoQ2sAl_2ba3pogMinZHPFvIkEaMvMzkLW1JdItnZkIUEkXh2vVgIE_-czqTX85JMdpBT7L", "width": 1299, "html_attributions": ["<a href=\"https://maps.google.com/maps/contrib/109941224536087545921\">Haiwa provision store</a>"], "height": 731}], "scope": "GOOGLE", "business_status": "OPERATIONAL", "types": ["department_store", "supermarket", "grocery_or_supermarket", "food", "point_of_interest", "store", "establishment"], "icon": "https://maps.gstatic.com/mapfiles/place_api/icons/v1/png_71/generic_business-71.png"}, {"rating": 4.3, "user_ratings_total": 392, "name": "All Market", "reference": "ChIJmz0-7xAZrjsRcpN9h2wnZ8w", "geometry": {"location": {"lat": 13.0683202, "lng": 77.6294478}, "viewport": {"northeast": {"lat": 13.0696702802915, "lng": 77.6308454302915}, "southwest": {"lat": 13.0669723197085, "lng": 77.6281474697085}}}, "opening_hours": {"open_now": true}, "place_id": "ChIJmz0-7xAZrjsRcpN9h2wnZ8w", "plus_code": {"global_code": "7J5V3J9H+8Q", "compound_code": "3J9H+8Q Bengaluru, Karnataka, India"}, "vicinity": "23,24, MCECHS Layout, RK Hegde Nagar, Bengaluru", "photos": [{"photo_reference": "ATtYBwLnlNHySoPv4qUlgeAm2GCBgnv5vCyW9VLfPPKZj4aAa_qlU6wA4vUHHf98j9kILEoQoh-eBSp9uo2AoPIxWip68Ij1SwH3Niu364Ku6KVx3j8zDXn-nqZkYZS0glKhyhSkvBqGdblpOiijN5quoQDCX_554h1NxbrRud2_Ffv3amqA", "width": 4608, "html_attributions": ["<a href=\"https://maps.google.com/maps/contrib/115401827629626724799\">Siddarth J</a>"], "height": 3456}], "scope": "GOOGLE", "business_status": "OPERATIONAL", "types": ["department_store", "supermarket", "grocery_or_supermarket", "food", "point_of_interest", "store", "establishment"], "icon": "https://maps.gstatic.com/mapfiles/place_api/icons/v1/png_71/shopping-71.png"}, {"rating": 3.7, "user_ratings_total": 3, "name": "Byraveshwara Rice Traders", "reference": "ChIJJ9X0gIAXrjsR54sJdpKMStg", "geometry": {"location": {"lat": 13.0554542, "lng": 77.6080695}, "viewport": {"northeast": {"lat": 13.0567716802915, "lng": 77.6094173802915}, "southwest": {"lat": 13.0540737197085, "lng": 77.6067194197085}}}, "opening_hours": {"open_now": true}, "place_id": "ChIJJ9X0gIAXrjsR54sJdpKMStg", "plus_code": {"global_code": "7J5V3J45+56", "compound_code": "3J45+56 Bengaluru, Karnataka, India"}, "vicinity": "opposite Reliance Fresh, No - 522, Dasarahalli Main Road, Bhuvaneswari Nagar, Hebbal Kempapura, Bengaluru", "photos": [{"photo_reference": "ATtYBwJOvjkYxGqcfB769la28hRsrmS3FFzjcyuFwqmlWNz8Af1PDBAX98ZPxyCSbxFDhWb02QobJcGa1cBYo1pDckARKQS2nP5vqfNrXj_bFSrwme2yKG9AHTrE3MFnGhu1K3Esemf4e60Y6FbC03ndT7O7HpKhIOVlpHflVaO2C5PalqA2", "width": 3456, "html_attributions": ["<a href=\"https://maps.google.com/maps/contrib/117816179515953665225\">Byraveshwara Rice Traders</a>"], "height": 4608}], "scope": "GOOGLE", "business_status": "OPERATIONAL", "types": ["department_store", "point_of_interest", "store", "establishment"], "icon": "https://maps.gstatic.com/mapfiles/place_api/icons/v1/png_71/shopping-71.png"}, {"name": "Raaga Enterprises", "reference": "ChIJ8TW-Tt0ZrjsR8CcavPdCyvA", "geometry": {"location": {"lat": 13.0722634, "lng": 77.6270026}, "viewport": {"northeast": {"lat": 13.0736146302915, "lng": 77.6282955302915}, "southwest": {"lat": 13.0709166697085, "lng": 77.62559756970849}}}, "opening_hours": {"open_now": true}, "place_id": "ChIJ8TW-Tt0ZrjsR8CcavPdCyvA", "plus_code": {"global_code": "7J5V3JCG+WR", "compound_code": "3JCG+WR Mesthri Palya, Karnataka, India"}, "vicinity": "Dr.Shivaram Karanth Nagar, Mestripalya, Mesthri Palya", "photos": [{"photo_reference": "ATtYBwJ_ySrsu_U7tYaP0DGtnK1ckyeg8SJyS1m77CwXPpUmi3D11T59-2JVbrVrIgfw86XHnw9u8cbwmV6Scyco4sbDFuQAIq5B8SjwV0x2d8SJbMsJMvQtwwn3wE9_5DsQgd_dXIGLE9eZ_RxS9HZTKkli_ryUun0y1I03WMA0KB3g3DYe", "width": 2448, "html_attributions": ["<a href=\"https://maps.google.com/maps/contrib/106188657460143360477\">Raaga Enterprises</a>"], "height": 3264}], "scope": "GOOGLE", "business_status": "OPERATIONAL", "types": ["department_store", "point_of_interest", "store", "establishment"], "icon": "https://maps.gstatic.com/mapfiles/place_api/icons/v1/png_71/shopping-71.png"}, {"name": "Madeena stores", "reference": "ChIJDbc-lsUZrjsR9k45eE4Dm14", "geometry": {"location": {"lat": 13.066454, "lng": 77.6336178}, "viewport": {"northeast": {"lat": 13.0678022802915, "lng": 77.6349916802915}, "southwest": {"lat": 13.0651043197085, "lng": 77.6322937197085}}}, "place_id": "ChIJDbc-lsUZrjsR9k45eE4Dm14", "plus_code": {"global_code": "7J5V3J8M+HC", "compound_code": "3J8M+HC Bengaluru, Karnataka, India"}, "vicinity": "Near Jaffar Masjid, 24/7, Thanisandra Main Road, Bengaluru", "scope": "GOOGLE", "business_status": "OPERATIONAL", "types": ["department_store", "point_of_interest", "store", "establishment"], "icon": "https://maps.gstatic.com/mapfiles/place_api/icons/v1/png_71/shopping-71.png"}, {"rating": 4, "user_ratings_total": 1, "name": "RAMDEV PROVISION STORE", "reference": "ChIJkSf_UoAXrjsRK2-egcanRrc", "geometry": {"location": {"lat": 13.055503, "lng": 77.60547799999999}, "viewport": {"northeast": {"lat": 13.0568815802915, "lng": 77.6068265302915}, "southwest": {"lat": 13.0541836197085, "lng": 77.6041285697085}}}, "opening_hours": {"open_now": true}, "place_id": "ChIJkSf_UoAXrjsRK2-egcanRrc", "plus_code": {"global_code": "7J5V3J44+65", "compound_code": "3J44+65 Bengaluru, Karnataka, India"}, "vicinity": "dasrahalli hebbal, Bengaluru", "photos": [{"photo_reference": "ATtYBwJoHnse5xHHS-yFcJwyJLSjSWZvAXCQaHApios4xH1zUayxT058pdIraFNwveqNFlvi0EXJYU2isxGrh6Mv_bW5t1JrybT8rva-5PMxjvIrsRWG2oFJHqLwxHM4gdpOQ-SfLTnEWVGcAyrPdsIPN8utNiJT7eQ5lDbSYcmEcMMRr8Yw", "width": 4160, "html_attributions": ["<a href=\"https://maps.google.com/maps/contrib/106964971603056060622\">durjoy ghose</a>"], "height": 3120}], "scope": "GOOGLE", "business_status": "OPERATIONAL", "types": ["department_store", "point_of_interest", "store", "establishment"], "icon": "https://maps.gstatic.com/mapfiles/place_api/icons/v1/png_71/shopping-71.png"}, {"rating": 3.6, "user_ratings_total": 23, "name": "Sri byraveshwara store", "reference": "ChIJIxXXvcIZrjsRLQSfdUgCRQY", "geometry": {"location": {"lat": 13.0720297, "lng": 77.6297271}, "viewport": {"northeast": {"lat": 13.0733711302915, "lng": 77.6310395302915}, "southwest": {"lat": 13.0706731697085, "lng": 77.6283415697085}}}, "opening_hours": {"open_now": true}, "place_id": "ChIJIxXXvcIZrjsRLQSfdUgCRQY", "plus_code": {"global_code": "7J5V3JCH+RV", "compound_code": "3JCH+RV Bengaluru, Karnataka, India"}, "vicinity": "No. 1027, 11th Cross Road, Dr.S.R.K. Nagar post, RK Hegde Nagar, Bengaluru", "photos": [{"photo_reference": "ATtYBwIlUQB7wkw2iK0o00AWlFiTl9aUZEdM_v9tRMRld9KAvqD1irrjL1CGPtOZryi7-8OJaqbpIR2mpXsjBMGyshPHVqQTS2Vi-GxPm9gObgP6m3M0BBywsr3t33mP-wENTWRuDs_BCkHyD3T8Eh3mx_fJLK7NRmLazhuFDsKpdZLwWt_H", "width": 4128, "html_attributions": ["<a href=\"https://maps.google.com/maps/contrib/114138460670883224219\">Siraj Ahmad</a>"], "height": 2322}], "scope": "GOOGLE", "business_status": "OPERATIONAL", "types": ["department_store", "point_of_interest", "store", "establishment"], "icon": "https://maps.gstatic.com/mapfiles/place_api/icons/v1/png_71/shopping-71.png"}, {"rating": 5, "user_ratings_total": 1, "name": "Sasi Store", "reference": "ChIJYykNfVMZrjsRMaa2JmPIyB8", "geometry": {"location": {"lat": 13.0587459, "lng": 77.6019371}, "viewport": {"northeast": {"lat": 13.0601153802915, "lng": 77.6032859302915}, "southwest": {"lat": 13.0574174197085, "lng": 77.60058796970849}}}, "opening_hours": {"open_now": true}, "place_id": "ChIJYykNfVMZrjsRMaa2JmPIyB8", "plus_code": {"global_code": "7J5V3J52+FQ", "compound_code": "3J52+FQ Bengaluru, Karnataka, India"}, "vicinity": "2, Amruth Nagar Main Road, Sneha Nagar, Byatarayanapura, Bengaluru", "photos": [{"photo_reference": "ATtYBwJ6oj6XoLvikYNoyR0Wma90inJcRVOgbXuopNsZGUDf4Ok2TlkF3HLVRNjzovA7wHLPLyMLvKFZBzIuuZJvFU_bHw51nRBIv2UAztDPxBdrB_lVIj_4Yj0DTuHjY-a366C7ne4kX1wcuCcFAbDJCqdYnbP1QL-1Ko3gFsafBF1MzQin", "width": 2368, "html_attributions": ["<a href=\"https://maps.google.com/maps/contrib/102080414932486537731\">Libin Jayaram</a>"], "height": 4208}], "scope": "GOOGLE", "business_status": "OPERATIONAL", "types": ["department_store", "point_of_interest", "store", "establishment"], "icon": "https://maps.gstatic.com/mapfiles/place_api/icons/v1/png_71/shopping-71.png"}, {"rating": 5, "user_ratings_total": 1, "name": "Fatema store", "reference": "ChIJa6J2llwXrjsRguW1U3roZIk", "geometry": {"location": {"lat": 13.049824, "lng": 77.635373}, "viewport": {"northeast": {"lat": 13.0511037302915, "lng": 77.63671628029151}, "southwest": {"lat": 13.0484057697085, "lng": 77.63401831970849}}}, "opening_hours": {"open_now": true}, "place_id": "ChIJa6J2llwXrjsRguW1U3roZIk", "plus_code": {"global_code": "7J5V2JXP+W4", "compound_code": "2JXP+W4 Geddalahalli, Karnataka, India"}, "vicinity": "85 , Anam enclave, 3rd main Fatema House , ground floor..Ashwathnagar., Benguluru", "photos": [{"photo_reference": "ATtYBwKuyf_nSZTsxd3oPEkcoTsiV9qsbEnobXSyua4pSGNRz6d-nr7ENRj6cchyHAUGxTDmYlSaZhHo7Pa6ajsHidyNmGeiGwInof2ArN623U-ir2JUB3ykjBbNYCzIRKh8ESvze7RQObw6-ex1PcrATpqr8S__AKo5ec1zfRA_EoC35FNi", "width": 2322, "html_attributions": ["<a href=\"https://maps.google.com/maps/contrib/114824358910081794302\">Fatima Alameh</a>"], "height": 4128}], "scope": "GOOGLE", "business_status": "OPERATIONAL", "types": ["department_store", "point_of_interest", "store", "establishment"], "icon": "https://maps.gstatic.com/mapfiles/place_api/icons/v1/png_71/shopping-71.png"}, {"rating": 5, "user_ratings_total": 1, "name": "Manjunatha Condiments", "reference": "ChIJHfu7yoYXrjsRRVK_w6dX0m4", "geometry": {"location": {"lat": 13.0538352, "lng": 77.60199759999999}, "viewport": {"northeast": {"lat": 13.0551679802915, "lng": 77.6033410802915}, "southwest": {"lat": 13.0524700197085, "lng": 77.6006431197085}}}, "opening_hours": {"open_now": true}, "place_id": "ChIJHfu7yoYXrjsRRVK_w6dX0m4", "plus_code": {"global_code": "7J5V3J32+GQ", "compound_code": "3J32+GQ Byatarayanapura CMC and OG Part, Karnataka, India"}, "vicinity": "Hebbal Kempapura, Byatarayanapura CMC and OG Part", "scope": "GOOGLE", "business_status": "OPERATIONAL", "types": ["department_store", "point_of_interest", "store", "establishment"], "icon": "https://maps.gstatic.com/mapfiles/place_api/icons/v1/png_71/shopping-71.png"}, {"rating": 4, "user_ratings_total": 3, "name": "Sri Venkateahwara Chips", "reference": "ChIJE9JiCoMXrjsRaeYZDbH3rro", "geometry": {"location": {"lat": 13.0495338, "lng": 77.60360810000002}, "viewport": {"northeast": {"lat": 13.0508806302915, "lng": 77.6049697302915}, "southwest": {"lat": 13.0481826697085, "lng": 77.60227176970848}}}, "place_id": "ChIJE9JiCoMXrjsRaeYZDbH3rro", "plus_code": {"global_code": "7J5V2JX3+RC", "compound_code": "2JX3+RC Bengaluru, Karnataka, India"}, "vicinity": "208, 3rd Cross Road, Vinayaka Layout, Hebbal Kempapura, Bengaluru", "photos": [{"photo_reference": "ATtYBwJHQSpp8B1QBI1e_qrXBAKVX0JAOdhWVYz2jIYC5k_Ce1DuGZuar96NkP-ARCzoIzb9lLSV4CvENPNsCaeh2AJyhCCD3oQeynVYGFRlsUE4uq9qWIrZWliJ-InSSx7c-q6SAXxnwZGxd1NmDbL3jV-P5BxurEYDWRNWTUENyEJpJS83", "width": 1836, "html_attributions": ["<a href=\"https://maps.google.com/maps/contrib/105826084352630917753\">Gopikrishnan Rajasekharan</a>"], "height": 3264}], "scope": "GOOGLE", "business_status": "OPERATIONAL", "types": ["department_store", "point_of_interest", "store", "establishment"], "icon": "https://maps.gstatic.com/mapfiles/place_api/icons/v1/png_71/shopping-71.png"}, {"name": "Provisional Store", "reference": "ChIJe_eGS2wXrjsRnPMfnjJLxDI", "geometry": {"location": {"lat": 13.0402603, "lng": 77.62232089999999}, "viewport": {"northeast": {"lat": 13.0416000302915, "lng": 77.62371008029149}, "southwest": {"lat": 13.0389020697085, "lng": 77.62101211970848}}}, "opening_hours": {"open_now": true}, "place_id": "ChIJe_eGS2wXrjsRnPMfnjJLxDI", "plus_code": {"global_code": "7J5V2JRC+4W", "compound_code": "2JRC+4W Bengaluru, Karnataka, India"}, "vicinity": "Bengaluru, Vyalikaval HBCS Layout, Nagavara, Bengaluru", "scope": "GOOGLE", "business_status": "OPERATIONAL", "types": ["department_store", "point_of_interest", "store", "establishment"], "icon": "https://maps.gstatic.com/mapfiles/place_api/icons/v1/png_71/shopping-71.png"}, {"rating": 4.6, "user_ratings_total": 8, "name": "Shri balaji traders", "reference": "ChIJ6aqQ_TEYrjsReFUfCpyGGbU", "geometry": {"location": {"lat": 13.0692287, "lng": 77.6015949}, "viewport": {"northeast": {"lat": 13.0705795302915, "lng": 77.60293118029149}, "southwest": {"lat": 13.0678815697085, "lng": 77.60023321970849}}}, "opening_hours": {"open_now": true}, "place_id": "ChIJ6aqQ_TEYrjsReFUfCpyGGbU", "plus_code": {"global_code": "7J5V3J92+MJ", "compound_code": "3J92+MJ Bengaluru, Karnataka, India"}, "vicinity": "16, apt, opp. Sobha Windfall, Amruthahalli Main Road, Jakkuru, Bengaluru", "photos": [{"photo_reference": "ATtYBwJ6XAa1_2NFfxl_5iiiF0xmghWo0RcEp2ylxLHvXbLtISqk7MGo0NvnfRKkDDtHom14Gx33FdOX5eTp8xiQifDqzaYtMBGrNRU79Z4fvEFItPK5wXh0R7iOgUYaq65Qnrji9Ax10ZPPpvGVLzeVN7deYtTP---Rmax15ggkCy-wzT4A", "width": 1080, "html_attributions": ["<a href=\"https://maps.google.com/maps/contrib/100387392798807958976\">Bottle Mani</a>"], "height": 1920}], "scope": "GOOGLE", "business_status": "OPERATIONAL", "types": ["department_store", "point_of_interest", "store", "establishment"], "icon": "https://maps.gstatic.com/mapfiles/place_api/icons/v1/png_71/shopping-71.png"}, {"rating": 4.6, "user_ratings_total": 50, "name": "Shree Linga Traders", "reference": "ChIJpxLiAi4YrjsR31DL2KnJ3CY", "geometry": {"location": {"lat": 13.0691804, "lng": 77.6014697}, "viewport": {"northeast": {"lat": 13.0705377302915, "lng": 77.6028348302915}, "southwest": {"lat": 13.0678397697085, "lng": 77.60013686970849}}}, "opening_hours": {"open_now": true}, "place_id": "ChIJpxLiAi4YrjsR31DL2KnJ3CY", "plus_code": {"global_code": "7J5V3J92+MH", "compound_code": "3J92+MH Bengaluru, Karnataka, India"}, "vicinity": "Talacauvery Layout, Amrutahalli, Byatarayanapura, Bengaluru", "photos": [{"photo_reference": "ATtYBwIY8Y8dcecYd29c0D5t_KasGeG8ji1CwuFPtlNNFQjp8pL5YKvBATokIDWNBtur77W3hQOQE7PcI4ROn9lt8Hu1gqfgJLZrlW9PyptWJ1ny8WjOjVPaouaL0wB9jqmujTfamVMcVy_kxGpWt9kd8sJbNmSWWoY17ZsBo-HK00WkG4HV", "width": 1920, "html_attributions": ["<a href=\"https://maps.google.com/maps/contrib/114723150254506910326\">Rajkamal Goswami</a>"], "height": 1080}], "scope": "GOOGLE", "business_status": "OPERATIONAL", "types": ["department_store", "point_of_interest", "store", "establishment"], "icon": "https://maps.gstatic.com/mapfiles/place_api/icons/v1/png_71/shopping-71.png"}, {"rating": 4.3, "user_ratings_total": 4, "name": "Anjanadri Store", "reference": "ChIJ37wHuzQYrjsRTsMOi6M41xw", "geometry": {"location": {"lat": 13.0760756, "lng": 77.60685459999999}, "viewport": {"northeast": {"lat": 13.0774374802915, "lng": 77.6082060302915}, "southwest": {"lat": 13.0747395197085, "lng": 77.60550806970849}}}, "opening_hours": {"open_now": true}, "place_id": "ChIJ37wHuzQYrjsRTsMOi6M41xw", "plus_code": {"global_code": "7J5V3JG4+CP", "compound_code": "3JG4+CP Bengaluru, Karnataka, India"}, "vicinity": "#205, Government School Road, Jakkuru, Bengaluru", "photos": [{"photo_reference": "ATtYBwJ0OvYG3iLKZLDtKwY1isqyGCc5-BJ4Hm8FITrqpneK2i_69vyrbN_X-zvcy0oLkCe4bhSM08ZJbSCCCaqSZ_9Z-LGFYkA2y9SYkjwKSOwV3D0bKsaUMleFPJVFaEYCj9WY9ahWL5zWLBnSFnWpUG0-XPB5uXNaZv9n-XqXMwTfvxr3", "width": 1080, "html_attributions": ["<a href=\"https://maps.google.com/maps/contrib/115218655182310581322\">godugu aazad</a>"], "height": 1920}], "scope": "GOOGLE", "business_status": "OPERATIONAL", "types": ["department_store", "point_of_interest", "store", "establishment"], "icon": "https://maps.gstatic.com/mapfiles/place_api/icons/v1/png_71/shopping-71.png"}, {"rating": 4.5, "user_ratings_total": 4, "name": "Mahadev General Store", "reference": "ChIJKdDdXYQXrjsRSQvsdttENFI", "geometry": {"location": {"lat": 13.049821, "lng": 77.600526}, "viewport": {"northeast": {"lat": 13.0511283802915, "lng": 77.60187048029151}, "southwest": {"lat": 13.0484304197085, "lng": 77.5991725197085}}}, "opening_hours": {"open_now": true}, "place_id": "ChIJKdDdXYQXrjsRSQvsdttENFI", "plus_code": {"global_code": "7J5V2JX2+W6", "compound_code": "2JX2+W6 Bengaluru, Karnataka, India"}, "vicinity": "No.20/ Main, near Central Bank of India, 2, Kuvempu Road, Vinayaka Layout, Hebbal Kempapura, Bengaluru", "scope": "GOOGLE", "business_status": "OPERATIONAL", "types": ["department_store", "point_of_interest", "store", "establishment"], "icon": "https://maps.gstatic.com/mapfiles/place_api/icons/v1/png_71/shopping-71.png"}, {"rating": 3.5, "user_ratings_total": 2, "name": "Department Store", "reference": "ChIJreh3wWwXrjsRp5fOGs9zSlk", "geometry": {"location": {"lat": 13.0376368, "lng": 77.62323219999999}, "viewport": {"northeast": {"lat": 13.0389834802915, "lng": 77.6246417802915}, "southwest": {"lat": 13.0362855197085, "lng": 77.62194381970849}}}, "opening_hours": {"open_now": true}, "place_id": "ChIJreh3wWwXrjsRp5fOGs9zSlk", "plus_code": {"global_code": "7J5V2JQF+37", "compound_code": "2JQF+37 Bengaluru, Karnataka, India"}, "vicinity": "736, Nagawara Main Road, 5th Block, Arabic College Post, Govindapura, Nagavara, Bengaluru", "scope": "GOOGLE", "business_status": "OPERATIONAL", "types": ["department_store", "point_of_interest", "store", "establishment"], "icon": "https://maps.gstatic.com/mapfiles/place_api/icons/v1/png_71/shopping-71.png"}]}