{"status": "OK", "html_attributions": [], "results": [{"rating": 4.9, "user_ratings_total": 52, "name": "Healios Cosmoderma", "reference": "ChIJf0o0W4k_rjsRDsIKXf9j7_s", "geometry": {"location": {"lat": 12.8790754, "lng": 77.54570679999999}, "viewport": {"northeast": {"lat": 12.8804546302915, "lng": 77.54696768029149}, "southwest": {"lat": 12.8777566697085, "lng": 77.54426971970848}}}, "opening_hours": {"open_now": true}, "place_id": "ChIJf0o0W4k_rjsRDsIKXf9j7_s", "plus_code": {"global_code": "7J4VVGHW+J7", "compound_code": "VGHW+J7 Bengaluru, Karnataka, India"}, "vicinity": "No 44 Ground floor, opp. KSIT College, 4th Cross, Kanakapura Road, Raghuvanahalli, Bengaluru", "photos": [{"photo_reference": "ATtYBwJrXF5r9NZaxNdvtcnBbVkT6MtzyoJl90UBbwJb9_DjOUWXaw0csKalU2_i5tba9-hXY1aeacXvidbykN_GKZK1D6nGGTNj82l05o1DSvY3Z6BCWYhlBa1sWkjIGR4T9Apcsz87DUU0Pdu16JSg2GlF5fh-M-qwUmBTXDa47bDCs0hT", "width": 4000, "html_attributions": ["<a href=\"https://maps.google.com/maps/contrib/108483106155322661239\">Healios Cosmoderma</a>"], "height": 3000}], "scope": "GOOGLE", "business_status": "OPERATIONAL", "types": ["doctor", "health", "point_of_interest", "establishment"], "icon": "https://maps.gstatic.com/mapfiles/place_api/icons/v1/png_71/generic_business-71.png"}, {"rating": 4.9, "user_ratings_total": 75, "name": "Shruta Eye Care Eye Hospital.", "reference": "ChIJxfactjY_rjsR0mrUjFg7qQY", "geometry": {"location": {"lat": 12.87896, "lng": 77.54599259999999}, "viewport": {"northeast": {"lat": 12.8803810302915, "lng": 77.54721298029149}, "southwest": {"lat": 12.8776830697085, "lng": 77.54451501970848}}}, "opening_hours": {"open_now": true}, "place_id": "ChIJxfactjY_rjsR0mrUjFg7qQY", "plus_code": {"global_code": "7J4VVGHW+J7", "compound_code": "VGHW+J7 Bengaluru, Karnataka, India"}, "vicinity": "Raghuvanahalli, Bangalore City Municipal Corporation Layout, Bengaluru", "photos": [{"photo_reference": "ATtYBwKgSrW2wY-BNkPW40gky7PE7xCyZQ_f7_LF3MmJCLA5FTr1pgGsgggDTmOTqQq2BweWS-ZMDOCvON-jjTM_KRFzmjsngzPPKnN9NzEsmqOYSKLIC1uaBWBEYkzrq1RosH28nVwwVlGv7aKSDjFwZQMy6MyaiT4X961CXa9Fc0KoVvyy", "width": 633, "html_attributions": ["<a href=\"https://maps.google.com/maps/contrib/109646675638408755628\">Shruta Eye Care Eye Hospital.</a>"], "height": 357}], "scope": "GOOGLE", "business_status": "OPERATIONAL", "types": ["doctor", "health", "point_of_interest", "establishment"], "icon": "https://maps.gstatic.com/mapfiles/place_api/icons/v1/png_71/generic_business-71.png"}, {"name": "Manthrupti Homeopathic clinic", "reference": "ChIJual9JmY_rjsRB-9fJGjTjAo", "geometry": {"location": {"lat": 12.8964783, "lng": 77.5600698}, "viewport": {"northeast": {"lat": 12.8978059802915, "lng": 77.56147648029152}, "southwest": {"lat": 12.8951080197085, "lng": 77.5587785197085}}}, "opening_hours": {"open_now": true}, "place_id": "ChIJual9JmY_rjsRB-9fJGjTjAo", "plus_code": {"global_code": "7J4VVHW6+H2", "compound_code": "VHW6+H2 Bengaluru, Karnataka, India"}, "vicinity": "558, 1st Main Road, prashanti Nagar, Kumaraswamy Layout, Bengaluru", "photos": [{"photo_reference": "ATtYBwJjIa8fAx1wwm42csqiCLJjRUWcChtfG9FH0d3GUk0vDDCl7CvUYLhWGIizRBUjNbFACtRIGjYL5BwCRsc5ocex326e0IDObLXP9UmXd1f0IVExqmDQq22LBSnQ05HzhL72gkyXfnl06PMMIaZcG6SSfp8kBAkUtSk3GoZLfuzXLXTC", "width": 3264, "html_attributions": ["<a href=\"https://maps.google.com/maps/contrib/114375771080375532545\">Anjali Nath</a>"], "height": 2448}], "scope": "GOOGLE", "business_status": "OPERATIONAL", "types": ["doctor", "health", "point_of_interest", "establishment"], "icon": "https://maps.gstatic.com/mapfiles/place_api/icons/v1/png_71/generic_business-71.png"}, {"rating": 4.2, "user_ratings_total": 6, "name": "Sunrise Health Care & Diagnostic Center", "reference": "ChIJWUiMfFI_rjsRAgdrxv1LCVA", "geometry": {"location": {"lat": 12.8932785, "lng": 77.5383561}, "viewport": {"northeast": {"lat": 12.8946409802915, "lng": 77.53971038029151}, "southwest": {"lat": 12.8919430197085, "lng": 77.53701241970849}}}, "opening_hours": {"open_now": true}, "place_id": "ChIJWUiMfFI_rjsRAgdrxv1LCVA", "plus_code": {"global_code": "7J4VVGVQ+88", "compound_code": "VGVQ+88 Bengaluru, Karnataka, India"}, "vicinity": "265, 5th Main, Jayanagar Co-Operative Housing Society Layout, Gubbalala Main Road, Subramanyapura, Bengaluru", "scope": "GOOGLE", "business_status": "OPERATIONAL", "types": ["doctor", "health", "point_of_interest", "establishment"], "icon": "https://maps.gstatic.com/mapfiles/place_api/icons/v1/png_71/generic_business-71.png"}, {"name": "Sathya yuga Samithi- Sathya Aarogya", "reference": "ChIJB0NeDr0_rjsRPRK13uyhRaY", "geometry": {"location": {"lat": 12.8949607, "lng": 77.5612899}, "viewport": {"northeast": {"lat": 12.8963096802915, "lng": 77.5626388802915}, "southwest": {"lat": 12.8936117197085, "lng": 77.5599409197085}}}, "opening_hours": {"open_now": true}, "place_id": "ChIJB0NeDr0_rjsRPRK13uyhRaY", "plus_code": {"global_code": "7J4VVHV6+XG", "compound_code": "VHV6+XG Bengaluru, Karnataka, India"}, "vicinity": "160, 10th Main Rd, Bikasipura, ISRO Layout, Bengaluru", "scope": "GOOGLE", "business_status": "OPERATIONAL", "types": ["doctor", "health", "point_of_interest", "establishment"], "icon": "https://maps.gstatic.com/mapfiles/place_api/icons/v1/png_71/generic_business-71.png"}, {"rating": 4.4, "user_ratings_total": 5, "name": "Sumukha Ayurvedic Clinic And Holistic Healing Centre", "reference": "ChIJZTYaQtw_rjsRCfEpgQx7jrg", "geometry": {"location": {"lat": 12.90165, "lng": 77.554384}, "viewport": {"northeast": {"lat": 12.9030147802915, "lng": 77.5556720302915}, "southwest": {"lat": 12.9003168197085, "lng": 77.5529740697085}}}, "opening_hours": {"open_now": true}, "place_id": "ChIJZTYaQtw_rjsRCfEpgQx7jrg", "plus_code": {"global_code": "7J4VWH23+MQ", "compound_code": "WH23+MQ Bengaluru, Karnataka, India"}, "vicinity": "Vittal Nagar, Stage 2, Kumaraswamy Layout, Bengaluru", "photos": [{"photo_reference": "ATtYBwLeI6GARwcDhdANfNnCo5EqlR5haVv9c2OVJbnhIwrDaLPQ_JeAtpLnXJClkfCqheB8ddK_wP74Vlk7svrv-jO6azbOBXXDA9VqjFC9IPfjpBQf3m5zbhc4MYSjPH0D7pr1SC5GpVRAx9mN7_LkgUoJZYTc9RMO6yCs-U_3i09Gg3tZ", "width": 4032, "html_attributions": ["<a href=\"https://maps.google.com/maps/contrib/114679138932871250377\">Sumukha Ayurvedic Clinic And Holistic Healing Centre</a>"], "height": 2269}], "scope": "GOOGLE", "business_status": "OPERATIONAL", "types": ["doctor", "health", "point_of_interest", "establishment"], "icon": "https://maps.gstatic.com/mapfiles/place_api/icons/v1/png_71/generic_business-71.png"}, {"rating": 5, "user_ratings_total": 4, "name": "ASTRA CT SCAN", "reference": "ChIJr6d8NMsVrjsRBFeYfq8APOc", "geometry": {"location": {"lat": 12.8909014, "lng": 77.56292599999999}, "viewport": {"northeast": {"lat": 12.8922644802915, "lng": 77.56423713029149}, "southwest": {"lat": 12.8895665197085, "lng": 77.56153916970848}}}, "opening_hours": {"open_now": true}, "place_id": "ChIJr6d8NMsVrjsRBFeYfq8APOc", "plus_code": {"global_code": "7J4VVHR7+95", "compound_code": "VHR7+95 Bengaluru, Karnataka, India"}, "vicinity": "KANAKAPURA MAIN ROAD, CROSS, Konanakunte, Bengaluru", "scope": "GOOGLE", "business_status": "OPERATIONAL", "types": ["doctor", "health", "point_of_interest", "establishment"], "icon": "https://maps.gstatic.com/mapfiles/place_api/icons/v1/png_71/generic_business-71.png"}, {"rating": 4.8, "user_ratings_total": 20, "name": "Dr. Vaishnavi K V's Clinic For Women", "reference": "ChIJmTAg55Q_rjsR_R7yMN2xU8w", "geometry": {"location": {"lat": 12.8933832, "lng": 77.5374494}, "viewport": {"northeast": {"lat": 12.8946904302915, "lng": 77.53878243029149}, "southwest": {"lat": 12.8919924697085, "lng": 77.53608446970848}}}, "opening_hours": {"open_now": true}, "place_id": "ChIJmTAg55Q_rjsR_R7yMN2xU8w", "plus_code": {"global_code": "7J4VVGVP+9X", "compound_code": "VGVP+9X Bengaluru, Karnataka, India"}, "vicinity": "257, 3rd Cross Rd, Vajramuni Nagar,1st Stage,JHCS Layout, Off Pride Springfields Apts, Turahalli, Uttarahalli Hobli, (2 km, Kanakapura Road, Bengaluru", "photos": [{"photo_reference": "ATtYBwILHoQDQ7XICQ7UYcjWAS74yWxOpSISmkERG2957jTABSqrP4n_KtwTxDxOScpVxRXp9KOM4ws0RsASCifRfMY4jOdrIOtgxsk3wgCPDfYxtaWuJhKgz98hhctD08utujv4W_pemyDPrEohfIuh_nlvreYkRtGj-QRH1y50Ub1FilOG", "width": 4160, "html_attributions": ["<a href=\"https://maps.google.com/maps/contrib/115678949779937904613\">Dr. Vaishnavi K V&#39;s Clinic For Women</a>"], "height": 3120}], "scope": "GOOGLE", "business_status": "OPERATIONAL", "types": ["doctor", "health", "point_of_interest", "establishment"], "icon": "https://maps.gstatic.com/mapfiles/place_api/icons/v1/png_71/generic_business-71.png"}]}