{"status": "OK", "next_page_token": "ATtYBwLd__2HZp8jfDQXaC0fDrFrl_jWQgrREmXieF67uEWF6RDUv4MVqet66DYFseoicoZWp138kCc-gZy0OBe59biQmbXYJiI5cBT0opjF2EWBo-OBWiGwUIavH7cdtmXPO3Wohro9kILlCVzFixoAubmblW21bQKm6w2xGBg1PBjPzvTR26hso2zF58VjDMPgmgOPWUn_WJ_GcN9kSOO6ETs_4EnOaQd0sMyldDqEtUu9OUT8bi0SmgK7UtXDWNz2uyF-FsXXQ18fMHrzDZTjr0Tal5sQS64SSXr6BPwW5P3NYW1olp-SsnCpID9jOSef6zh631pluLfukW6diSJnldMhD1YoGn-YlfJl-Hbev9Bnuy2GYivelmDy-d7REZvC52832z2WRQNPj3R0IkVbQbREo3gXCQ0g02QJRsgISuDQe9z4EkI2uSCfXOftKB25wDN14mmhJrV3p292d3q3_Z5-Ijr2YtvceUXyexxtXMhgfFN4IDPwQC6q61dbM2pOQUDfm0fedCMULjYmeK420ZI_553-6zbPdNIFMAom48NnkLFmxWI4kXQW--SNYuBbajMq2v6EM0p8fX7npmNuPCD0UQIpMYJU6sm207gMbHmrH00ObxjUnS7GZH7gy1o9frobuB1p", "html_attributions": [], "results": [{"rating": 5, "user_ratings_total": 1, "name": "Keshava Clinic", "reference": "ChIJnZZU5VAVrjsRVzIDV6iEtIo", "geometry": {"location": {"lat": 12.8847884, "lng": 77.5698163}, "viewport": {"northeast": {"lat": 12.8860969802915, "lng": 77.5711561302915}, "southwest": {"lat": 12.8833990197085, "lng": 77.56845816970849}}}, "opening_hours": {"open_now": true}, "place_id": "ChIJnZZU5VAVrjsRVzIDV6iEtIo", "plus_code": {"global_code": "7J4VVHM9+WW", "compound_code": "VHM9+WW Bengaluru, Karnataka, India"}, "vicinity": "New Bank Colony, Bank Colony, Konanakunte, Bengaluru", "photos": [{"photo_reference": "ATtYBwLKbtEPxrwjwlj99AJM_5rUs2zOK-H2kgrmIbOmJD774pt2cnXsECz5agzYnXdjUyITQwVPzL3qhS_oJGzTJM6GC09CZek-8c_pHPtKMfRRn-fPAdf9Nrt_qGnU5FOIwqffF9I32HWdcLiiywGBhnOJM3vbYCWrpSEjLhAZJCRRifjb", "width": 3264, "html_attributions": ["<a href=\"https://maps.google.com/maps/contrib/115461236302053415373\">Venkat Raghu</a>"], "height": 2448}], "scope": "GOOGLE", "business_status": "OPERATIONAL", "types": ["doctor", "health", "point_of_interest", "establishment"], "icon": "https://maps.gstatic.com/mapfiles/place_api/icons/v1/png_71/generic_business-71.png"}, {"rating": 2.3, "user_ratings_total": 3, "name": "Dental Health Centre-Best dental clinic in konanakunte-dentist -dental implants-root canal-", "reference": "ChIJ-Z6MOFcVrjsR8EbgLoq8-og", "geometry": {"location": {"lat": 12.8852835, "lng": 77.5667548}, "viewport": {"northeast": {"lat": 12.8866284802915, "lng": 77.5681026802915}, "southwest": {"lat": 12.8839305197085, "lng": 77.56540471970848}}}, "opening_hours": {"open_now": true}, "place_id": "ChIJ-Z6MOFcVrjsR8EbgLoq8-og", "plus_code": {"global_code": "7J4VVHP8+4P", "compound_code": "VHP8+4P Bengaluru, Karnataka, India"}, "vicinity": "Amruth Nagar Main Road, Konanakunte Main Road, Amruth Nagar, Anjanadri Layout, Konanakunte, Bengaluru", "scope": "GOOGLE", "business_status": "OPERATIONAL", "types": ["doctor", "dentist", "health", "point_of_interest", "establishment"], "icon": "https://maps.gstatic.com/mapfiles/place_api/icons/v1/png_71/generic_business-71.png"}, {"rating": 4.7, "user_ratings_total": 6, "name": "Bharath Clinic", "reference": "ChIJE8R9PncWrjsRvs5RB8SJsuI", "geometry": {"location": {"lat": 12.8905665, "lng": 77.5641715}, "viewport": {"northeast": {"lat": 12.8918690802915, "lng": 77.56550998029151}, "southwest": {"lat": 12.8891711197085, "lng": 77.56281201970849}}}, "place_id": "ChIJE8R9PncWrjsRvs5RB8SJsuI", "plus_code": {"global_code": "7J4VVHR7+6M", "compound_code": "VHR7+6M Bengaluru, Karnataka, India"}, "vicinity": "23, Vasantha Pura Main Road, Near-Manasa Theater, Konanakunte Cross, Bengaluru", "scope": "GOOGLE", "business_status": "OPERATIONAL", "types": ["doctor", "health", "point_of_interest", "establishment"], "icon": "https://maps.gstatic.com/mapfiles/place_api/icons/v1/png_71/generic_business-71.png"}, {"rating": 4.9, "user_ratings_total": 77, "name": "NIMISHA SPECIALITY CLINIC", "reference": "ChIJ6f6fOVcVrjsRGStFhhjbppg", "geometry": {"location": {"lat": 12.885101, "lng": 77.566779}, "viewport": {"northeast": {"lat": 12.8864460802915, "lng": 77.56816483029151}, "southwest": {"lat": 12.8837481197085, "lng": 77.5654668697085}}}, "opening_hours": {"open_now": true}, "place_id": "ChIJ6f6fOVcVrjsRGStFhhjbppg", "plus_code": {"global_code": "7J4VVHP8+2P", "compound_code": "VHP8+2P Bengaluru, Karnataka, India"}, "vicinity": "Vijaya Plaza, #34, Amruthnagar Main Road, Anjanadri Layout, Konanakunte, Bengaluru", "photos": [{"photo_reference": "ATtYBwJMikFNiPHIjNNKvAgfVYGaEMwk0N6tkv_U80-KkvvXUZAi1UoWtBvpahu856Ov8TSi8euMOGliSbzL4hp9iUP2_UQf7cZgMxt55tjYHcUrNhSp0uNJtYr2S4syQd1UrTPzCB3UX-GmqewFsR0-oYRwDgMopqRHJ9Zm9mZ1gv4s1ub8", "width": 4160, "html_attributions": ["<a href=\"https://maps.google.com/maps/contrib/113692262715245616658\">NIMISHA SPECIALITY CLINIC</a>"], "height": 3120}], "scope": "GOOGLE", "business_status": "OPERATIONAL", "types": ["hospital", "doctor", "health", "point_of_interest", "establishment"], "icon": "https://maps.gstatic.com/mapfiles/place_api/icons/v1/png_71/hospital-71.png"}, {"name": "AV FISTULA (VASCULAR ACCESS) CLINIC", "reference": "ChIJz1lwiAsVrjsRada8wRTvOww", "geometry": {"location": {"lat": 12.8850682, "lng": 77.56679489999999}, "viewport": {"northeast": {"lat": 12.8864171802915, "lng": 77.5681438802915}, "southwest": {"lat": 12.8837192197085, "lng": 77.5654459197085}}}, "opening_hours": {"open_now": true}, "place_id": "ChIJz1lwiAsVrjsRada8wRTvOww", "plus_code": {"global_code": "7J4VVHP8+2P", "compound_code": "VHP8+2P Bengaluru, Karnataka, India"}, "vicinity": "opp. surabhi hotel, #34, Vijaya plaza, I cross, anjanadri layout, opp. surabhi hotel, Main Road, Amruthnagar, Konanakunte, Bengaluru", "scope": "GOOGLE", "business_status": "OPERATIONAL", "types": ["doctor", "health", "point_of_interest", "establishment"], "icon": "https://maps.gstatic.com/mapfiles/place_api/icons/v1/png_71/generic_business-71.png"}, {"rating": 4.7, "user_ratings_total": 23, "name": "Dr Nagabhushan M, MS, MCh(Urologyl), MRCS(Edinburgh), Fellowship in Advanced laparoscopy and Renal Transplant (IKDRC), Professor in urology", "reference": "ChIJY0CpW8AVrjsRbLOIagQZHXE", "geometry": {"location": {"lat": 12.8850682, "lng": 77.56679489999999}, "viewport": {"northeast": {"lat": 12.8864147802915, "lng": 77.56816608029149}, "southwest": {"lat": 12.8837168197085, "lng": 77.56546811970848}}}, "opening_hours": {"open_now": true}, "place_id": "ChIJY0CpW8AVrjsRbLOIagQZHXE", "plus_code": {"global_code": "7J4VVHP8+2P", "compound_code": "VHP8+2P Bengaluru, Karnataka, India"}, "vicinity": "Vijaya Plaza, #34, Amruth Nagar Main Road, Anjanadri Layout, Konanakunte, Bengaluru", "photos": [{"photo_reference": "ATtYBwJhd_5324Z-jishiA2tGtPhuxC_qqFYIalWosreq5G7dLEGUmP-uvBqriZBJnQKyib_Gp_VQ4K9eQNfUieZVfXnwg5x1ZZWRfmBO9MBn-Eqtan-aRz1lJ3eNDtxlILz6IblT3DKCiZIrUC1jMNu5RJLL8o-ZOItGpzUcGBSKJz_pADP", "width": 1186, "html_attributions": ["<a href=\"https://maps.google.com/maps/contrib/107046182641644107600\">Dr Nagabhushan M, MS, MCh(Urologyl), MRCS(Edinburgh), Fellowship in Advanced laparoscopy and Renal Transplant (IKDRC), Professor in urology</a>"], "height": 960}], "scope": "GOOGLE", "business_status": "OPERATIONAL", "types": ["doctor", "health", "point_of_interest", "establishment"], "icon": "https://maps.gstatic.com/mapfiles/place_api/icons/v1/png_71/generic_business-71.png"}, {"rating": 4.9, "user_ratings_total": 67, "name": "SHRI DENTAL CLINIC", "reference": "ChIJZWIX81gVrjsRKR29s3k-Qo8", "geometry": {"location": {"lat": 12.8898048, "lng": 77.5634393}, "viewport": {"northeast": {"lat": 12.8911168802915, "lng": 77.56482943029151}, "southwest": {"lat": 12.8884189197085, "lng": 77.5621314697085}}}, "opening_hours": {"open_now": true}, "place_id": "ChIJZWIX81gVrjsRKR29s3k-Qo8", "plus_code": {"global_code": "7J4VVHQ7+W9", "compound_code": "VHQ7+W9 Bengaluru, Karnataka, India"}, "vicinity": "next to Canara Bank, #1, B.S Arcade, next to Canara Bank, Konanakunte Cross Road, Bengaluru", "photos": [{"photo_reference": "ATtYBwLkjeIojVBT6kI-fMK9w5Io6YxJT0b6k_6eQJjeRVrTKadg67QTVCBLDRlWaJp6WqxlTiDHv04hpa_KVL28LdwpI2OAnbik_ua8jzLbHUsZ32a2PjTWfgjsmMSaOnvxoISbDP2e-qEptzmgEGm--oLgMdPggcSy-SEZCDxLq9_D25af", "width": 1440, "html_attributions": ["<a href=\"https://maps.google.com/maps/contrib/105975115028163050889\">SHRI DENTAL CLINIC</a>"], "height": 810}], "scope": "GOOGLE", "business_status": "OPERATIONAL", "types": ["doctor", "dentist", "health", "point_of_interest", "establishment"], "icon": "https://maps.gstatic.com/mapfiles/place_api/icons/v1/png_71/generic_business-71.png"}, {"rating": 5, "user_ratings_total": 2, "name": "ASTRA NEURO CENTRE.", "reference": "ChIJWRHLDvxDrjsR87S8U_AibDw", "geometry": {"location": {"lat": 12.8907269, "lng": 77.5633064}, "viewport": {"northeast": {"lat": 12.8920775302915, "lng": 77.56464558029151}, "southwest": {"lat": 12.8893795697085, "lng": 77.56194761970849}}}, "opening_hours": {"open_now": true}, "place_id": "ChIJWRHLDvxDrjsR87S8U_AibDw", "plus_code": {"global_code": "7J4VVHR7+78", "compound_code": "VHR7+78 Bengaluru, Karnataka, India"}, "vicinity": "Kanakapura Road, Konanakunte, Bengaluru", "scope": "GOOGLE", "business_status": "OPERATIONAL", "types": ["hospital", "doctor", "health", "point_of_interest", "establishment"], "icon": "https://maps.gstatic.com/mapfiles/place_api/icons/v1/png_71/generic_business-71.png"}, {"rating": 4.8, "user_ratings_total": 4, "name": "Dr Chandraiah Veterinary Clinic", "reference": "ChIJAYTWPgYVrjsRRfC-B_KA36I", "geometry": {"location": {"lat": 12.8834602, "lng": 77.57077989999999}, "viewport": {"northeast": {"lat": 12.8848443302915, "lng": 77.5721335302915}, "southwest": {"lat": 12.8821463697085, "lng": 77.56943556970849}}}, "place_id": "ChIJAYTWPgYVrjsRRfC-B_KA36I", "plus_code": {"global_code": "7J4VVHMC+98", "compound_code": "VHMC+98 Bengaluru, Karnataka, India"}, "vicinity": "32/1, 1st Main Road, Srinidhi Layout, 8th Phase, J. P. Nagar, Bengaluru", "scope": "GOOGLE", "business_status": "OPERATIONAL", "types": ["doctor", "health", "point_of_interest", "establishment"], "icon": "https://maps.gstatic.com/mapfiles/place_api/icons/v1/png_71/generic_business-71.png"}, {"rating": 4.3, "user_ratings_total": 65, "name": "Sagar Clinic Konankunte", "reference": "ChIJW077ilgVrjsRrtMPNoUxTTo", "geometry": {"location": {"lat": 12.8895827, "lng": 77.56323859999999}, "viewport": {"northeast": {"lat": 12.8909015302915, "lng": 77.5646162302915}, "southwest": {"lat": 12.8882035697085, "lng": 77.56191826970849}}}, "opening_hours": {"open_now": true}, "place_id": "ChIJW077ilgVrjsRrtMPNoUxTTo", "plus_code": {"global_code": "7J4VVHQ7+R7", "compound_code": "VHQ7+R7 Bengaluru, Karnataka, India"}, "vicinity": "Canara Bank Building, Clinic No.5,Siddamma Ramakka Papanna Complex, Kanakapura Road, Konanakunte Cross Road, Konanakunte, Bengaluru", "photos": [{"photo_reference": "ATtYBwJ3mbKMkHo3Q0r4oO_uAagjo5TaDxI3ltgWZ1CoJTMLmOdVs3y-lXyNr9PUFJQA4jwHjqta5_E2qIKFXaAL60BwgimaaC4BvaDbQtKwnjEYGZ3Ie2HDmQouQGsArEwE_Udu3ics7lO9KvfcZYaZfl6hRnXA6PS6pENKI7FboL1uGNgn", "width": 3072, "html_attributions": ["<a href=\"https://maps.google.com/maps/contrib/112979204989750387571\">Amogh C</a>"], "height": 4096}], "scope": "GOOGLE", "business_status": "OPERATIONAL", "types": ["doctor", "health", "point_of_interest", "establishment"], "icon": "https://maps.gstatic.com/mapfiles/place_api/icons/v1/png_71/generic_business-71.png"}, {"rating": 5, "user_ratings_total": 3, "name": "ASTRA PAEDIATRIC SPECIALITY CLINIC", "reference": "ChIJV6qekrMVrjsR1kWGo3jYeho", "geometry": {"location": {"lat": 12.8907961, "lng": 77.56309069999999}, "viewport": {"northeast": {"lat": 12.8921202802915, "lng": 77.5644314802915}, "southwest": {"lat": 12.8894223197085, "lng": 77.5617335197085}}}, "opening_hours": {"open_now": true}, "place_id": "ChIJV6qekrMVrjsR1kWGo3jYeho", "plus_code": {"global_code": "7J4VVHR7+86", "compound_code": "VHR7+86 Bengaluru, Karnataka, India"}, "vicinity": "Kanakapura Road, Konanakunte, Bengaluru", "scope": "GOOGLE", "business_status": "OPERATIONAL", "types": ["hospital", "doctor", "health", "point_of_interest", "establishment"], "icon": "https://maps.gstatic.com/mapfiles/place_api/icons/v1/png_71/hospital-71.png"}, {"rating": 3.6, "user_ratings_total": 5, "name": "Neuro Clinic", "reference": "ChIJKamoWkQVrjsRDQwLTpJemCg", "geometry": {"location": {"lat": 12.8908143, "lng": 77.5769432}, "viewport": {"northeast": {"lat": 12.8921611302915, "lng": 77.57825993029151}, "southwest": {"lat": 12.8894631697085, "lng": 77.57556196970849}}}, "opening_hours": {"open_now": false}, "place_id": "ChIJKamoWkQVrjsRDQwLTpJemCg", "plus_code": {"global_code": "7J4VVHRG+8Q", "compound_code": "VHRG+8Q Bengaluru, Karnataka, India"}, "vicinity": "207, 13th Main Road, Chunchgatta, Phase 7, J. P. Nagar, Bengaluru", "scope": "GOOGLE", "business_status": "OPERATIONAL", "types": ["doctor", "health", "point_of_interest", "establishment"], "icon": "https://maps.gstatic.com/mapfiles/place_api/icons/v1/png_71/generic_business-71.png"}, {"rating": 5, "user_ratings_total": 4, "name": "ASTRA CT SCAN", "reference": "ChIJr6d8NMsVrjsRBFeYfq8APOc", "geometry": {"location": {"lat": 12.8909014, "lng": 77.56292599999999}, "viewport": {"northeast": {"lat": 12.8922644802915, "lng": 77.56423713029149}, "southwest": {"lat": 12.8895665197085, "lng": 77.56153916970848}}}, "opening_hours": {"open_now": true}, "place_id": "ChIJr6d8NMsVrjsRBFeYfq8APOc", "plus_code": {"global_code": "7J4VVHR7+95", "compound_code": "VHR7+95 Bengaluru, Karnataka, India"}, "vicinity": "KANAKAPURA MAIN ROAD, CROSS, Konanakunte, Bengaluru", "scope": "GOOGLE", "business_status": "OPERATIONAL", "types": ["doctor", "health", "point_of_interest", "establishment"], "icon": "https://maps.gstatic.com/mapfiles/place_api/icons/v1/png_71/generic_business-71.png"}, {"rating": 5, "user_ratings_total": 8, "name": "Dental Art", "reference": "ChIJ77kOykUVrjsRo1F_9CGtDVA", "geometry": {"location": {"lat": 12.889847, "lng": 77.57772700000001}, "viewport": {"northeast": {"lat": 12.8912759302915, "lng": 77.57906923029151}, "southwest": {"lat": 12.8885779697085, "lng": 77.5763712697085}}}, "opening_hours": {"open_now": true}, "place_id": "ChIJ77kOykUVrjsRo1F_9CGtDVA", "plus_code": {"global_code": "7J4VVHQH+W3", "compound_code": "VHQH+W3 Bengaluru, Karnataka, India"}, "vicinity": "5th Cross Road, RBI Layout, JP Nagar 7th Phase, J. P. Nagar, Bengaluru", "photos": [{"photo_reference": "ATtYBwJ3DOOVfrIhUl-F41UqRe3U60FI4sUE_UziSwVa-96ZexYPN1ewG5cUIXZeSlpsurnJN9uOxhGNOlg4poqxfOVH2hJMsNBum_mwpg0OnUX7lu9WchoogCnqeq23OVuwfyyHIROHw2Y7Gmt9PQMj_KGDaMLzNnoRXCQypDt5R77wYGXK", "width": 1632, "html_attributions": ["<a href=\"https://maps.google.com/maps/contrib/106957875742766919914\">sundar embar</a>"], "height": 920}], "scope": "GOOGLE", "business_status": "OPERATIONAL", "types": ["dentist", "doctor", "health", "point_of_interest", "establishment"], "icon": "https://maps.gstatic.com/mapfiles/place_api/icons/v1/png_71/generic_business-71.png"}, {"rating": 4.4, "user_ratings_total": 5, "name": "Sparsha Skin Clinic", "reference": "ChIJE2Gr6VYVrjsRD3koCIZogP0", "geometry": {"location": {"lat": 12.8829682, "lng": 77.566214}, "viewport": {"northeast": {"lat": 12.8843239802915, "lng": 77.5675249802915}, "southwest": {"lat": 12.8816260197085, "lng": 77.56482701970849}}}, "opening_hours": {"open_now": false}, "place_id": "ChIJE2Gr6VYVrjsRD3koCIZogP0", "plus_code": {"global_code": "7J4VVHM8+5F", "compound_code": "VHM8+5F Bengaluru, Karnataka, India"}, "vicinity": "Shop No. 138, Chunchankatte, Konanakunte, Bengaluru", "scope": "GOOGLE", "business_status": "OPERATIONAL", "types": ["doctor", "health", "point_of_interest", "establishment"], "icon": "https://maps.gstatic.com/mapfiles/place_api/icons/v1/png_71/generic_business-71.png"}, {"rating": 3, "user_ratings_total": 1, "name": "Sanjeevini piles clinic", "reference": "ChIJNyD56SwVrjsRDbu6ZRbcAGE", "geometry": {"location": {"lat": 12.8981278, "lng": 77.57172330000002}, "viewport": {"northeast": {"lat": 12.8994621802915, "lng": 77.5730928302915}, "southwest": {"lat": 12.8967642197085, "lng": 77.5703948697085}}}, "place_id": "ChIJNyD56SwVrjsRDbu6ZRbcAGE", "plus_code": {"global_code": "7J4VVHXC+7M", "compound_code": "VHXC+7M Bengaluru, Karnataka, India"}, "vicinity": "19, JP Nagar 6th Phase, Krishna Devaraya Nagar, Kashi Nagar, Kumaraswamy Layout, Bengaluru", "photos": [{"photo_reference": "ATtYBwLnmtrRhaHiLRIP_6Z6YQq0o-QfubfXR-PvOTjXO32n_Tmzh0mkamShZih96ve8GY0_eeWrxo0CkBROGDkR4nSfhml8RM2nNH5uxOhMzE_Bvi0YYABAJLT3SxQjXUecfodpF1UCqFTPXzJ_dzGJZh1co5Hvt0uRwenFQwjGJ-OKUGzt", "width": 4000, "html_attributions": ["<a href=\"https://maps.google.com/maps/contrib/102723556290458145273\">sripritha ramesh</a>"], "height": 1824}], "scope": "GOOGLE", "business_status": "OPERATIONAL", "types": ["doctor", "health", "point_of_interest", "establishment"], "icon": "https://maps.gstatic.com/mapfiles/place_api/icons/v1/png_71/generic_business-71.png"}, {"name": "Dr.Jayadhankar", "reference": "ChIJLzwHO6UVrjsRb0_ifBYQbds", "geometry": {"location": {"lat": 12.8982617, "lng": 77.5718351}, "viewport": {"northeast": {"lat": 12.8996060302915, "lng": 77.57320058029151}, "southwest": {"lat": 12.8969080697085, "lng": 77.57050261970849}}}, "place_id": "ChIJLzwHO6UVrjsRb0_ifBYQbds", "plus_code": {"global_code": "7J4VVHXC+8P", "compound_code": "VHXC+8P Bengaluru, Karnataka, India"}, "vicinity": "Jairam Building, Kanakapura Road, JP Nagar 6th Phase, Krishna Devaraya Nagar, Yelachenahallli, Kumaraswamy Layout, Bengaluru", "scope": "GOOGLE", "business_status": "OPERATIONAL", "types": ["doctor", "health", "point_of_interest", "establishment"], "icon": "https://maps.gstatic.com/mapfiles/place_api/icons/v1/png_71/generic_business-71.png"}, {"rating": 4.8, "user_ratings_total": 6, "name": "Dr SHILPA BHATIA", "reference": "ChIJVXOmf08VrjsRdGwwO6fRj_E", "geometry": {"location": {"lat": 12.8814199, "lng": 77.5688093}, "viewport": {"northeast": {"lat": 12.8827930302915, "lng": 77.57012238029151}, "southwest": {"lat": 12.8800950697085, "lng": 77.56742441970849}}}, "opening_hours": {"open_now": false}, "place_id": "ChIJVXOmf08VrjsRdGwwO6fRj_E", "plus_code": {"global_code": "7J4VVHJ9+HG", "compound_code": "VHJ9+HG Bengaluru, Karnataka, India"}, "vicinity": "School, 66.pai layout, near Silicon City, Chunchgatta Main Road, Chunchankatte, Konanakunte, Bengaluru", "scope": "GOOGLE", "business_status": "OPERATIONAL", "types": ["doctor", "health", "point_of_interest", "establishment"], "icon": "https://maps.gstatic.com/mapfiles/place_api/icons/v1/png_71/generic_business-71.png"}, {"name": "Ravi Clinic", "reference": "ChIJ_8HegEwVrjsRFSB_lv-AQe0", "geometry": {"location": {"lat": 12.8813516, "lng": 77.57200739999999}, "viewport": {"northeast": {"lat": 12.8827448302915, "lng": 77.5733614302915}, "southwest": {"lat": 12.8800468697085, "lng": 77.57066346970849}}}, "place_id": "ChIJ_8HegEwVrjsRFSB_lv-AQe0", "plus_code": {"global_code": "7J4VVHJC+GR", "compound_code": "VHJC+GR Bengaluru, Karnataka, India"}, "vicinity": "63, 5th Main, 6th Cross Road, Srinidhi Layout, J. P. Nagar, Bengaluru", "scope": "GOOGLE", "business_status": "OPERATIONAL", "types": ["doctor", "health", "point_of_interest", "establishment"], "icon": "https://maps.gstatic.com/mapfiles/place_api/icons/v1/png_71/generic_business-71.png"}, {"name": "VYAKTITVA DENTAL CLINIC", "reference": "ChIJnw20kwIVrjsRA5sC0AItGPE", "geometry": {"location": {"lat": 12.8824118, "lng": 77.5747159}, "viewport": {"northeast": {"lat": 12.8837646302915, "lng": 77.5759961302915}, "southwest": {"lat": 12.8810666697085, "lng": 77.5732981697085}}}, "opening_hours": {"open_now": true}, "place_id": "ChIJnw20kwIVrjsRA5sC0AItGPE", "plus_code": {"global_code": "7J4VVHJF+XV", "compound_code": "VHJF+XV Bengaluru, Karnataka, India"}, "vicinity": "87, 12th Cross Road, Shreyas Colony, Srinidhi Layout, JP Nagar 7th Phase, J. P. Nagar, Bengaluru", "scope": "GOOGLE", "business_status": "OPERATIONAL", "types": ["doctor", "dentist", "health", "point_of_interest", "establishment"], "icon": "https://maps.gstatic.com/mapfiles/place_api/icons/v1/png_71/generic_business-71.png"}]}