{"status": "OK", "html_attributions": [], "results": [{"name": "Srinivasa Cardiology Centre", "reference": "ChIJFwmr9EIWrjsRF3XJG-_3qLE", "geometry": {"location": {"lat": 12.9911825, "lng": 77.5938053}, "viewport": {"northeast": {"lat": 12.9925358302915, "lng": 77.5951481802915}, "southwest": {"lat": 12.9898378697085, "lng": 77.5924502197085}}}, "place_id": "ChIJFwmr9EIWrjsRF3XJG-_3qLE", "plus_code": {"global_code": "7J4VXHRV+FG", "compound_code": "XHRV+FG Bengaluru, Karnataka, India"}, "vicinity": "No. 8, Millers Tank Bund Road, Vasanth Nagar, Bengaluru", "scope": "GOOGLE", "business_status": "OPERATIONAL", "types": ["hospital", "doctor", "health", "point_of_interest", "establishment"], "icon": "https://maps.gstatic.com/mapfiles/place_api/icons/v1/png_71/hospital-71.png"}, {"name": "Arun Narayan Dr", "reference": "ChIJD37V30MWrjsR0Ly0sgyn7L0", "geometry": {"location": {"lat": 12.9938798, "lng": 77.59088799999999}, "viewport": {"northeast": {"lat": 12.9952354302915, "lng": 77.5921824802915}, "southwest": {"lat": 12.9925374697085, "lng": 77.58948451970849}}}, "place_id": "ChIJD37V30MWrjsR0Ly0sgyn7L0", "plus_code": {"global_code": "7J4VXHVR+H9", "compound_code": "XHVR+H9 Bengaluru, Karnataka, India"}, "vicinity": "56, 3rd Cross Road, Vasanth Nagar, Bengaluru", "scope": "GOOGLE", "business_status": "OPERATIONAL", "types": ["doctor", "health", "point_of_interest", "establishment"], "icon": "https://maps.gstatic.com/mapfiles/place_api/icons/v1/png_71/generic_business-71.png"}, {"name": "Rajan Dr K R", "reference": "ChIJD37V30MWrjsRTk9lIc2hO-w", "geometry": {"location": {"lat": 12.9938798, "lng": 77.59088799999999}, "viewport": {"northeast": {"lat": 12.9952354302915, "lng": 77.5921824802915}, "southwest": {"lat": 12.9925374697085, "lng": 77.58948451970849}}}, "place_id": "ChIJD37V30MWrjsRTk9lIc2hO-w", "plus_code": {"global_code": "7J4VXHVR+H9", "compound_code": "XHVR+H9 Bengaluru, Karnataka, India"}, "vicinity": "3rd Cross Road, Vasanth Nagar, Bengaluru", "scope": "GOOGLE", "business_status": "OPERATIONAL", "types": ["doctor", "health", "point_of_interest", "establishment"], "icon": "https://maps.gstatic.com/mapfiles/place_api/icons/v1/png_71/generic_business-71.png"}, {"rating": 5, "user_ratings_total": 6, "name": "Dr Anjana Melwani", "reference": "ChIJl3GjfdQXrjsRiQnOPuG2pzc", "geometry": {"location": {"lat": 12.9938686, "lng": 77.588984}, "viewport": {"northeast": {"lat": 12.9952069802915, "lng": 77.59032788029151}, "southwest": {"lat": 12.9925090197085, "lng": 77.5876299197085}}}, "place_id": "ChIJl3GjfdQXrjsRiQnOPuG2pzc", "plus_code": {"global_code": "7J4VXHVQ+GH", "compound_code": "XHVQ+GH Bengaluru, Karnataka, India"}, "vicinity": "Embassy habitat, 59, Palace Road, Bengaluru", "scope": "GOOGLE", "business_status": "OPERATIONAL", "types": ["doctor", "dentist", "health", "point_of_interest", "establishment"], "icon": "https://maps.gstatic.com/mapfiles/place_api/icons/v1/png_71/generic_business-71.png"}, {"rating": 5, "user_ratings_total": 3, "name": "Om Acupressure", "reference": "ChIJXxugVUIWrjsR4RZ8YctagnM", "geometry": {"location": {"lat": 12.9924148, "lng": 77.5933611}, "viewport": {"northeast": {"lat": 12.9937667302915, "lng": 77.5946977302915}, "southwest": {"lat": 12.9910687697085, "lng": 77.5919997697085}}}, "opening_hours": {"open_now": true}, "place_id": "ChIJXxugVUIWrjsR4RZ8YctagnM", "plus_code": {"global_code": "7J4VXHRV+X8", "compound_code": "XHRV+X8 Bengaluru, Karnataka, India"}, "vicinity": "8th Main Road, # 6/1, 12th Cross Road, Vasanth Nagar, Bengaluru", "photos": [{"photo_reference": "ATtYBwLseEZsPwLLnQoY1F9ERJUp3h7D4Va_Qr9VWzrMfQBU9XdgysC7FL0_XwO_UKNDVLFXlrO_o2SCFuzMytR3Qb5w4kKryxKnbkVFunN4fwDS7uMgW4hXHyD5chHUWdYEMcMCcIqOqrS2lOj7f0RSxbjWpmJYgkxkdJfS2Ed4OvPqFYd2", "width": 4608, "html_attributions": ["<a href=\"https://maps.google.com/maps/contrib/117195836644025725984\">Dr. Shivanand Jha</a>"], "height": 3456}], "scope": "GOOGLE", "business_status": "OPERATIONAL", "types": ["doctor", "health", "point_of_interest", "establishment"], "icon": "https://maps.gstatic.com/mapfiles/place_api/icons/v1/png_71/generic_business-71.png"}, {"rating": 5, "user_ratings_total": 2, "name": "Sowbhagya Dr B", "reference": "ChIJz84sDWkWrjsRnXJpgzLA2zk", "geometry": {"location": {"lat": 12.9862893, "lng": 77.5920314}, "viewport": {"northeast": {"lat": 12.9876254302915, "lng": 77.59337413029151}, "southwest": {"lat": 12.9849274697085, "lng": 77.5906761697085}}}, "place_id": "ChIJz84sDWkWrjsRnXJpgzLA2zk", "plus_code": {"global_code": "7J4VXHPR+GR", "compound_code": "XHPR+GR Bengaluru, Karnataka, India"}, "vicinity": "103, `b` `krishna Apartments`, # 13, Ali Asker Road, Ali Asker Road, Bengaluru", "scope": "GOOGLE", "business_status": "OPERATIONAL", "types": ["doctor", "health", "point_of_interest", "establishment"], "icon": "https://maps.gstatic.com/mapfiles/place_api/icons/v1/png_71/generic_business-71.png"}, {"rating": 5, "user_ratings_total": 2, "name": "Shobha Prakash Dr", "reference": "ChIJj1OiEUAWrjsROfxbzxiLgcw", "geometry": {"location": {"lat": 12.9899629, "lng": 77.58566809999999}, "viewport": {"northeast": {"lat": 12.9913078802915, "lng": 77.5869943802915}, "southwest": {"lat": 12.9886099197085, "lng": 77.5842964197085}}}, "place_id": "ChIJj1OiEUAWrjsROfxbzxiLgcw", "vicinity": "17, Sankey Road, Kumara Park West, Kumara Park West, Bengaluru", "scope": "GOOGLE", "business_status": "OPERATIONAL", "types": ["doctor", "health", "point_of_interest", "establishment"], "icon": "https://maps.gstatic.com/mapfiles/place_api/icons/v1/png_71/generic_business-71.png"}, {"rating": 4, "user_ratings_total": 12, "permanently_closed": true, "name": "Dr. Shankar Eye Clinic", "reference": "ChIJsZQN3UMWrjsRkOLVwnn0SpM", "geometry": {"location": {"lat": 12.9940187, "lng": 77.59132869999999}, "viewport": {"northeast": {"lat": 12.9953799302915, "lng": 77.5926087302915}, "southwest": {"lat": 12.9926819697085, "lng": 77.5899107697085}}}, "place_id": "ChIJsZQN3UMWrjsRkOLVwnn0SpM", "plus_code": {"global_code": "7J4VXHVR+JG", "compound_code": "XHVR+JG Bengaluru, Karnataka, India"}, "vicinity": "42, 5th Cross, Chennarayappa Street,, Vasanth Nagar, Bengaluru", "photos": [{"photo_reference": "ATtYBwJjUMZK2ccK96Kxf58nVK03Dqe6li374pMzXW_au9F8VLLBCRkMU6-K214r8Wwu9nVgfNTdbPa57oCaAUPHEnnp6iXd3fRyqr_aRpHhNo4pDrz-l-7Bko-Z13ZMvV3EhRzfDAuSKbJ8r8wxU7RNLs7acHzl4J6VFXZvS6ZyWD2M_8yq", "width": 4208, "html_attributions": ["<a href=\"https://maps.google.com/maps/contrib/105575553606957997142\">Amarnath Bhandari</a>"], "height": 3120}], "scope": "GOOGLE", "business_status": "CLOSED_TEMPORARILY", "types": ["doctor", "health", "point_of_interest", "establishment"], "icon": "https://maps.gstatic.com/mapfiles/place_api/icons/v1/png_71/generic_business-71.png"}, {"name": "Sudhakar Dr", "reference": "ChIJdS40DWkWrjsR_mAC5ljBdIQ", "geometry": {"location": {"lat": 12.9862434, "lng": 77.5920495}, "viewport": {"northeast": {"lat": 12.9876101302915, "lng": 77.59340713029152}, "southwest": {"lat": 12.9849121697085, "lng": 77.5907091697085}}}, "place_id": "ChIJdS40DWkWrjsR_mAC5ljBdIQ", "vicinity": "20/2, Ali Asker Road, Vasanth Nagar, Vasanth Nagar, Bengaluru", "scope": "GOOGLE", "business_status": "OPERATIONAL", "types": ["doctor", "health", "point_of_interest", "establishment"], "icon": "https://maps.gstatic.com/mapfiles/place_api/icons/v1/png_71/generic_business-71.png"}, {"rating": 5, "user_ratings_total": 1, "name": "Swarnagowri Dr", "reference": "ChIJ2_x16UMWrjsR8AVtpxwjtts", "geometry": {"location": {"lat": 12.9940573, "lng": 77.591593}, "viewport": {"northeast": {"lat": 12.9954089302915, "lng": 77.59292643029151}, "southwest": {"lat": 12.9927109697085, "lng": 77.5902284697085}}}, "place_id": "ChIJ2_x16UMWrjsR8AVtpxwjtts", "plus_code": {"global_code": "7J4VXHVR+JJ", "compound_code": "XHVR+JJ Bengaluru, Karnataka, India"}, "vicinity": "9, 6th Cross Road, Vasanth Nagar, Bengaluru", "scope": "GOOGLE", "business_status": "OPERATIONAL", "types": ["doctor", "health", "point_of_interest", "establishment"], "icon": "https://maps.gstatic.com/mapfiles/place_api/icons/v1/png_71/generic_business-71.png"}, {"rating": 4.4, "user_ratings_total": 8, "name": "Dr S K Chandru Clinic", "reference": "ChIJaeMYSTAVrjsRtBCXGnJXfNs", "geometry": {"location": {"lat": 12.9942028, "lng": 77.59116329999999}, "viewport": {"northeast": {"lat": 12.9955485802915, "lng": 77.5925354802915}, "southwest": {"lat": 12.9928506197085, "lng": 77.58983751970848}}}, "opening_hours": {"open_now": true}, "place_id": "ChIJaeMYSTAVrjsRtBCXGnJXfNs", "plus_code": {"global_code": "7J4VXHVR+MF", "compound_code": "XHVR+MF Bengaluru, Karnataka, India"}, "vicinity": "43,5th Cross,Vasantha Nagar, Near Mount Carmel College, Bengaluru", "scope": "GOOGLE", "business_status": "OPERATIONAL", "types": ["doctor", "health", "point_of_interest", "establishment"], "icon": "https://maps.gstatic.com/mapfiles/place_api/icons/v1/png_71/generic_business-71.png"}, {"name": "Muthu Clinic", "reference": "ChIJC1MeDb4XrjsRH1gggiLUqho", "geometry": {"location": {"lat": 12.9911952, "lng": 77.5944004}, "viewport": {"northeast": {"lat": 12.9925616802915, "lng": 77.5957224802915}, "southwest": {"lat": 12.9898637197085, "lng": 77.5930245197085}}}, "place_id": "ChIJC1MeDb4XrjsRH1gggiLUqho", "plus_code": {"global_code": "7J4VXHRV+FQ", "compound_code": "XHRV+FQ Bengaluru, Karnataka, India"}, "vicinity": "Unnamed Road, Kaverappa Layout, Vasanth Nagar, Bengaluru", "photos": [{"photo_reference": "ATtYBwKHcfKXrZ9T2p08NT3hfU2Q8oloyAodDrUm4nhv_rIViyMMXNuvsx5SPagf8KoioBDddY8tqV-_lJUH4yf7zjOvJs1Jfcd22P4p0-y-Ycnde976Zho6qdvH8JWSXChC0Tn3Ml2xTjt3Ihgmnou3XqYyRWwvyDBCNDFVrqrK3i_W6SKx", "width": 1080, "html_attributions": ["<a href=\"https://maps.google.com/maps/contrib/111601987828542210238\">Sandeep Kumar</a>"], "height": 1920}], "scope": "GOOGLE", "business_status": "OPERATIONAL", "types": ["doctor", "health", "point_of_interest", "establishment"], "icon": "https://maps.gstatic.com/mapfiles/place_api/icons/v1/png_71/generic_business-71.png"}, {"rating": 4.7, "user_ratings_total": 36, "name": "The Heart Center", "reference": "ChIJWx6-nkIWrjsRh8RCApu-KIk", "geometry": {"location": {"lat": 12.9900636, "lng": 77.59460829999999}, "viewport": {"northeast": {"lat": 12.9913391302915, "lng": 77.5960347802915}, "southwest": {"lat": 12.9886411697085, "lng": 77.59333681970848}}}, "opening_hours": {"open_now": true}, "place_id": "ChIJWx6-nkIWrjsRh8RCApu-KIk", "plus_code": {"global_code": "7J4VXHRV+2R", "compound_code": "XHRV+2R Bengaluru, Karnataka, India"}, "vicinity": "5/13, 5/13, Miller Tank Bund Rd, Kaverappa Layout, Vasanth Nagar, Bengaluru", "photos": [{"photo_reference": "ATtYBwKoe95Fh1GwuR9JcuC8d5vVbrKXDTAEXJvQuIvcigQqNLQ8J27kA4mVXUVMlqsO4FxWwd3a-gcY1GiJvpKTU-mwBStDHZNbSMDaQdWG_5S27zu3O2hFJrk4lrCmFLrvxf4tTf85umQ5yy_l5uH4flmH9iPIcOQnFm2e2SOy9oACtQzY", "width": 4192, "html_attributions": ["<a href=\"https://maps.google.com/maps/contrib/112028162189115442795\">The Heart Center</a>"], "height": 2779}], "scope": "GOOGLE", "business_status": "OPERATIONAL", "types": ["hospital", "doctor", "health", "point_of_interest", "establishment"], "icon": "https://maps.gstatic.com/mapfiles/place_api/icons/v1/png_71/hospital-71.png"}, {"name": "Dr. Shakir Tabrez, Urologist, Fortis CG Road", "reference": "ChIJPclDNhEXrjsRzkYwjU-j0_k", "geometry": {"location": {"lat": 12.9883298, "lng": 77.5943999}, "viewport": {"northeast": {"lat": 12.9896787802915, "lng": 77.59574888029151}, "southwest": {"lat": 12.9869808197085, "lng": 77.5930509197085}}}, "opening_hours": {"open_now": false}, "place_id": "ChIJPclDNhEXrjsRzkYwjU-j0_k", "plus_code": {"global_code": "7J4VXHQV+8Q", "compound_code": "XHQV+8Q Bengaluru, Karnataka, India"}, "vicinity": "45, Fortis Hospital, 14, Cunningham Road, Bengaluru", "scope": "GOOGLE", "business_status": "OPERATIONAL", "types": ["doctor", "health", "point_of_interest", "establishment"], "icon": "https://maps.gstatic.com/mapfiles/place_api/icons/v1/png_71/generic_business-71.png"}, {"name": "Dr. Keshava R, Cardiologist, Fortis CG Road", "reference": "ChIJcXbvqXcXrjsROCcz29JunLI", "geometry": {"location": {"lat": 12.988318, "lng": 77.594415}, "viewport": {"northeast": {"lat": 12.9896669802915, "lng": 77.59576398029151}, "southwest": {"lat": 12.9869690197085, "lng": 77.59306601970849}}}, "opening_hours": {"open_now": true}, "place_id": "ChIJcXbvqXcXrjsROCcz29JunLI", "plus_code": {"global_code": "7J4VXHQV+8Q", "compound_code": "XHQV+8Q Bengaluru, Karnataka, India"}, "vicinity": "23, Fortis Hospital, 14, Cunningham Road, Bengaluru", "scope": "GOOGLE", "business_status": "OPERATIONAL", "types": ["doctor", "health", "point_of_interest", "establishment"], "icon": "https://maps.gstatic.com/mapfiles/place_api/icons/v1/png_71/generic_business-71.png"}, {"name": "Dr. Gopi A, Cardiologist, Fortis CG Road", "reference": "ChIJ2Vb9qnAXrjsRUCKOMjvqx4I", "geometry": {"location": {"lat": 12.988318, "lng": 77.594415}, "viewport": {"northeast": {"lat": 12.9896669802915, "lng": 77.59576398029151}, "southwest": {"lat": 12.9869690197085, "lng": 77.59306601970849}}}, "opening_hours": {"open_now": false}, "place_id": "ChIJ2Vb9qnAXrjsRUCKOMjvqx4I", "plus_code": {"global_code": "7J4VXHQV+8Q", "compound_code": "XHQV+8Q Bengaluru, Karnataka, India"}, "vicinity": "24, Fortis Hospital, 14, Cunningham Road, Bengaluru", "scope": "GOOGLE", "business_status": "OPERATIONAL", "types": ["doctor", "health", "point_of_interest", "establishment"], "icon": "https://maps.gstatic.com/mapfiles/place_api/icons/v1/png_71/generic_business-71.png"}, {"name": "Dr. Ambanna Gowda, Diabetologist, Fortis CG Road", "reference": "ChIJDQs0pmIXrjsRGcNLng8nElo", "geometry": {"location": {"lat": 12.988318, "lng": 77.594415}, "viewport": {"northeast": {"lat": 12.9896669802915, "lng": 77.59576398029151}, "southwest": {"lat": 12.9869690197085, "lng": 77.59306601970849}}}, "opening_hours": {"open_now": true}, "place_id": "ChIJDQs0pmIXrjsRGcNLng8nElo", "plus_code": {"global_code": "7J4VXHQV+8Q", "compound_code": "XHQV+8Q Bengaluru, Karnataka, India"}, "vicinity": "6, Fortis Hospital, 14, Cunningham Road, Bengaluru", "scope": "GOOGLE", "business_status": "OPERATIONAL", "types": ["doctor", "health", "point_of_interest", "establishment"], "icon": "https://maps.gstatic.com/mapfiles/place_api/icons/v1/png_71/generic_business-71.png"}, {"name": "Dr. K S Satish, Pulmonologist, Fortis CG Road", "reference": "ChIJN9R-iAUXrjsRu9mYZcppr2U", "geometry": {"location": {"lat": 12.988318, "lng": 77.594415}, "viewport": {"northeast": {"lat": 12.9896669802915, "lng": 77.59576398029151}, "southwest": {"lat": 12.9869690197085, "lng": 77.59306601970849}}}, "opening_hours": {"open_now": true}, "place_id": "ChIJN9R-iAUXrjsRu9mYZcppr2U", "plus_code": {"global_code": "7J4VXHQV+8Q", "compound_code": "XHQV+8Q Bengaluru, Karnataka, India"}, "vicinity": "35, Fortis Hospital, 14, Cunningham Road, Bengaluru", "scope": "GOOGLE", "business_status": "OPERATIONAL", "types": ["doctor", "health", "point_of_interest", "establishment"], "icon": "https://maps.gstatic.com/mapfiles/place_api/icons/v1/png_71/generic_business-71.png"}, {"name": "Dr. Anand Kumar Dasappa Ramakrishnappa", "reference": "ChIJCfpuR2gWrjsRSI01350b1FI", "geometry": {"location": {"lat": 12.988318, "lng": 77.594415}, "viewport": {"northeast": {"lat": 12.9895581802915, "lng": 77.59562128029151}, "southwest": {"lat": 12.9868602197085, "lng": 77.59292331970849}}}, "place_id": "ChIJCfpuR2gWrjsRSI01350b1FI", "plus_code": {"global_code": "7J4VXHQV+8Q", "compound_code": "XHQV+8Q Bengaluru, Karnataka, India"}, "vicinity": "14, Cunningham Road, Vasanth Nagar, Bengaluru", "scope": "GOOGLE", "business_status": "OPERATIONAL", "types": ["doctor", "health", "point_of_interest", "establishment"], "icon": "https://maps.gstatic.com/mapfiles/place_api/icons/v1/png_71/generic_business-71.png"}, {"rating": 4.5, "user_ratings_total": 4, "name": "Stride Spine and Bones Rehab Clinic", "reference": "ChIJa3Ke7EIWrjsROfHN2b8OzEI", "geometry": {"location": {"lat": 12.9913251, "lng": 77.5945449}, "viewport": {"northeast": {"lat": 12.9926815802915, "lng": 77.5958823802915}, "southwest": {"lat": 12.9899836197085, "lng": 77.59318441970849}}}, "place_id": "ChIJa3Ke7EIWrjsROfHN2b8OzEI", "plus_code": {"global_code": "7J4VXHRV+GR", "compound_code": "XHRV+GR Bengaluru, Karnataka, India"}, "vicinity": "45, Kaverappa Layout, Vasanth Nagar, Bengaluru", "photos": [{"photo_reference": "ATtYBwI7TGcHe0sTLHsHGYE92SiXkNWWAB8V4D4UWuDTH8JFxhjOTinAUK3Kk1YYBWgZom-oV0fNbj7jsYNdpyoVqdKfqlJogpD5CHj6D2mtioQeiE3nHih2o1eKn5JVWDg1T0rsGcbPHsp46DgXNajISB7lUB0pra2zOaAh75zmIa_pQFT-", "width": 4160, "html_attributions": ["<a href=\"https://maps.google.com/maps/contrib/116517284503867040363\">Naveen Abburi</a>"], "height": 3120}], "scope": "GOOGLE", "business_status": "OPERATIONAL", "types": ["doctor", "health", "point_of_interest", "establishment"], "icon": "https://maps.gstatic.com/mapfiles/place_api/icons/v1/png_71/generic_business-71.png"}]}