{"status": "OK", "next_page_token": "ATtYBwL6-0K7IQEa8ppTNiIhzwpk52TUQUAMtNSmKw7n-EQwJgtW4c-s6Icr-H6t5BI-UW_mg4JYuIJhdj30ZwbXmUlaIgh8gmaafHf9XRdftztyCpFbnS5oCMpGUdMUTRG08BYfT2nsIrpoNGOW_JOxKarfpacF8uJi-CkS9IH540HomsbvVWi_lzHBXwyUUViPn_GfVGLuRuY_kmZtjRLpaAlKwl7c_cubyaK9FkJf0SlR0t45nCi695Rmu-KIoMONIch51LmbUhxJqw9hGF045EtGdLDPlIjqpgsAd0H2wrRELAkRrrfb3juYSMmsKmeL3XFDK0-pWx9QHSGWPAZbIMdEG8EsL4CPb9-4JqUb-019KZPxj3lYgPnOJ6r-Rwtssh-K3vWfT9xCBvk17510wxrKgNMQbO__5SWIlWPhBIXBku6Wjtg", "html_attributions": [], "results": [{"rating": 4.7, "user_ratings_total": 3368, "name": "Cloudnine Hospital - Old Airport Road", "reference": "ChIJR_Uk0vkTrjsRiXqz40zLkaA", "geometry": {"location": {"lat": 12.9594548, "lng": 77.6567652}, "viewport": {"northeast": {"lat": 12.9607411302915, "lng": 77.65811148029151}, "southwest": {"lat": 12.9580431697085, "lng": 77.65541351970849}}}, "opening_hours": {"open_now": true}, "place_id": "ChIJR_Uk0vkTrjsRiXqz40zLkaA", "plus_code": {"global_code": "7J4VXM54+QP", "compound_code": "XM54+QP Bengaluru, Karnataka, India"}, "vicinity": "115 Old airport road Opposite Kemp fort (Total Mall Bengaluru Karnataka 560017, 115, HAL Old Airport Road, Nanja Reddy Colony, Jeevan Bima Nagar, Bengaluru", "photos": [{"photo_reference": "ATtYBwJyVRhdAJIUnvl6XGJc3Vwdb-MY13lGIajaBCesIVIA8xP04vHNlM4ZMiLsEX4XYljWoKMePjnlZcV1s9gCgPVQFdTn_cCn4zSHisKGc92EDFz-BjjH1UB_-C7CXoRMTgdDJ1_CwlhYzeWx5nVxzb1Z_AmlgdTs-97mQ8Dyxar-kd_0", "width": 687, "html_attributions": ["<a href=\"https://maps.google.com/maps/contrib/112459202027485175583\">Cloudnine Hospital - Old Airport Road</a>"], "height": 388}], "scope": "GOOGLE", "business_status": "OPERATIONAL", "types": ["hospital", "doctor", "health", "point_of_interest", "establishment"], "icon": "https://maps.gstatic.com/mapfiles/place_api/icons/v1/png_71/hospital-71.png"}, {"rating": 2.2, "user_ratings_total": 13, "name": "Raman Dr E V", "reference": "ChIJsZonHwYUrjsR7JrvAvKkjpg", "geometry": {"location": {"lat": 12.9588083, "lng": 77.649141}, "viewport": {"northeast": {"lat": 12.9603163302915, "lng": 77.6505547802915}, "southwest": {"lat": 12.9576183697085, "lng": 77.6478568197085}}}, "place_id": "ChIJsZonHwYUrjsR7JrvAvKkjpg", "vicinity": "Airport Road, C/O Manipal Hospital, Bengaluru", "scope": "GOOGLE", "business_status": "OPERATIONAL", "types": ["doctor", "health", "point_of_interest", "establishment"], "icon": "https://maps.gstatic.com/mapfiles/place_api/icons/v1/png_71/generic_business-71.png"}, {"rating": 4.2, "user_ratings_total": 4185, "name": "Manipal Hospitals - Old Airport Road Bangalore", "reference": "ChIJayDGwMATrjsR3ceXkcPU2BI", "geometry": {"location": {"lat": 12.9583911, "lng": 77.6488364}, "viewport": {"northeast": {"lat": 12.9598023802915, "lng": 77.6500526302915}, "southwest": {"lat": 12.9571044197085, "lng": 77.64735466970848}}}, "opening_hours": {"open_now": true}, "place_id": "ChIJayDGwMATrjsR3ceXkcPU2BI", "plus_code": {"global_code": "7J4VXJ5X+9G", "compound_code": "XJ5X+9G Bengaluru, Karnataka, India"}, "vicinity": "98, HAL Old Airport Road, Kodihalli, Bengaluru", "photos": [{"photo_reference": "ATtYBwLqBxHfMTT8HLVhmq6bAhTt7DErnNL7vCYx_s8ZszKFfFGg_v5Lr6deEdYtGdsMyom0wvTy16f_EejfCHZM6uWTB8jZwE3-jPY3FEDvIbP6Bz9Fb1rD2u8XKNBldwUS3t2FB-892zqvsvMcTp6MhzwkOB5NX0OfUXkZlCLWhNAczC_B", "width": 1019, "html_attributions": ["<a href=\"https://maps.google.com/maps/contrib/111550660990613118698\">Manipal Hospitals - Old Airport Road Bangalore</a>"], "height": 509}], "scope": "GOOGLE", "business_status": "OPERATIONAL", "types": ["hospital", "doctor", "dentist", "health", "point_of_interest", "establishment"], "icon": "https://maps.gstatic.com/mapfiles/place_api/icons/v1/png_71/hospital-71.png"}, {"rating": 4.2, "user_ratings_total": 27, "name": "Manipal Heart Care", "reference": "ChIJRya8K_ATrjsRj4tmAIKIab8", "geometry": {"location": {"lat": 12.9585688, "lng": 77.6492269}, "viewport": {"northeast": {"lat": 12.9598922802915, "lng": 77.6506799302915}, "southwest": {"lat": 12.9571943197085, "lng": 77.64798196970848}}}, "opening_hours": {"open_now": true}, "place_id": "ChIJRya8K_ATrjsRj4tmAIKIab8", "plus_code": {"global_code": "7J4VXJ5X+CM", "compound_code": "XJ5X+CM Bengaluru, Karnataka, India"}, "vicinity": "98, Opposite, Leela Palace Road, Kodihalli, Bengaluru", "photos": [{"photo_reference": "ATtYBwImbihrsUm2nT7WL88a5CJSfrqLwDmTw5gZp4EW3PqFcEE-V1Pf23rXuY8j6Og5Wq9ikJRw0gBB0-pdmfG7wow0L9fd7ygnSaBUEp1FzoDG2eQLSqoP1T43GO3efXMZOGpHKfAyW3iJRwXH_y5QV8nhbqjPJhBdlC9jBmSWUIC7Auy9", "width": 3000, "html_attributions": ["<a href=\"https://maps.google.com/maps/contrib/109309502200038864191\">Dinesh K</a>"], "height": 4000}], "scope": "GOOGLE", "business_status": "OPERATIONAL", "types": ["hospital", "doctor", "health", "point_of_interest", "establishment"], "icon": "https://maps.gstatic.com/mapfiles/place_api/icons/v1/png_71/hospital-71.png"}, {"rating": 3, "user_ratings_total": 2, "name": "Dr Srikanth V", "reference": "ChIJq84UGQYUrjsRUmH_e4l3ne8", "geometry": {"location": {"lat": 12.95896, "lng": 77.64905}, "viewport": {"northeast": {"lat": 12.9603583802915, "lng": 77.6502935802915}, "southwest": {"lat": 12.9576604197085, "lng": 77.6475956197085}}}, "place_id": "ChIJq84UGQYUrjsRUmH_e4l3ne8", "plus_code": {"global_code": "7J4VXJ5X+HJ", "compound_code": "XJ5X+HJ Bengaluru, Karnataka, India"}, "vicinity": "India", "scope": "GOOGLE", "business_status": "OPERATIONAL", "types": ["doctor", "health", "point_of_interest", "establishment"], "icon": "https://maps.gstatic.com/mapfiles/place_api/icons/v1/png_71/generic_business-71.png"}, {"rating": 4.9, "user_ratings_total": 412, "name": "Cloudnine Fertility - Old Airport Road", "reference": "ChIJCWNrLfgTrjsR_T9GT_hI73c", "geometry": {"location": {"lat": 12.959479, "lng": 77.656365}, "viewport": {"northeast": {"lat": 12.9608219802915, "lng": 77.6577531802915}, "southwest": {"lat": 12.9581240197085, "lng": 77.65505521970849}}}, "opening_hours": {"open_now": true}, "place_id": "ChIJCWNrLfgTrjsR_T9GT_hI73c", "plus_code": {"global_code": "7J4VXM54+QG", "compound_code": "XM54+QG Bengaluru, Karnataka, India"}, "vicinity": "No 29/7, 1st Floor, Kodihalli, Old Airport Road, Bengaluru", "photos": [{"photo_reference": "ATtYBwIY7y-6isqT7WBYBfa0S8Lu-yH4HnMsqJl0l1R7cDRGglR-xBuGyGBnl3yhVEI72n5MkEWO_j_OwCkWi9YL3289pBu2wcg5iCMWLL3oZi5Jzznt5N0FLEgEw0AkExsGOj_7PHgvqTFTvxW-FRYnF055k7pxYuC4IMVz_heXet3CtIrJ", "width": 4898, "html_attributions": ["<a href=\"https://maps.google.com/maps/contrib/104364188147336854939\">Cloudnine Fertility - Old Airport Road</a>"], "height": 3265}], "scope": "GOOGLE", "business_status": "OPERATIONAL", "types": ["doctor", "health", "point_of_interest", "establishment"], "icon": "https://maps.gstatic.com/mapfiles/place_api/icons/v1/png_71/generic_business-71.png"}, {"rating": 4.3, "user_ratings_total": 6, "name": "Ashok B C Dr", "reference": "ChIJsVhqq_ATrjsRnhHDx9zftAw", "geometry": {"location": {"lat": 12.9588, "lng": 77.6594065}, "viewport": {"northeast": {"lat": 12.9602632302915, "lng": 77.6607574802915}, "southwest": {"lat": 12.9575652697085, "lng": 77.65805951970849}}}, "place_id": "ChIJsVhqq_ATrjsRnhHDx9zftAw", "vicinity": "Manipal Hospital, HAL Old Airport Road, Bengaluru", "scope": "GOOGLE", "business_status": "OPERATIONAL", "types": ["doctor", "health", "point_of_interest", "establishment"], "icon": "https://maps.gstatic.com/mapfiles/place_api/icons/v1/png_71/generic_business-71.png"}, {"rating": 4.4, "user_ratings_total": 30, "name": "Diabetacare", "reference": "ChIJRzAp5UMUrjsRuC5m8aoOixI", "geometry": {"location": {"lat": 12.9462815, "lng": 77.6462432}, "viewport": {"northeast": {"lat": 12.9475392302915, "lng": 77.64751868029151}, "southwest": {"lat": 12.9448412697085, "lng": 77.6448207197085}}}, "opening_hours": {"open_now": false}, "place_id": "ChIJRzAp5UMUrjsRuC5m8aoOixI", "plus_code": {"global_code": "7J4VWJWW+GF", "compound_code": "WJWW+GF Bengaluru, Karnataka, India"}, "vicinity": "M-05/06, 1st Floor, Pine Valley Building, Inner Road, Embassy Golf Links Business Park, Challaghatta, Domlur, Bengaluru", "photos": [{"photo_reference": "ATtYBwJuDhomlKsKDxANjsF1MT2Kv80FMB2cmsJWVD0KIjlYNIczKEWhmQmOfL8T8402OGXDUmLpoUc2_O88xczzUdY-kHp0-JbAQJH8Lj-5Saede2iCl4jk0-SQDXm4aomv0Rhb8zKlLzqIB-wDzDGf9tmfT9tVZrcffNHP1vmN9FhBduf8", "width": 5184, "html_attributions": ["<a href=\"https://maps.google.com/maps/contrib/101650184791044729218\">Preksh Innovations 360 Deg Solutions</a>"], "height": 3456}], "scope": "GOOGLE", "business_status": "OPERATIONAL", "types": ["hospital", "doctor", "health", "point_of_interest", "store", "establishment"], "icon": "https://maps.gstatic.com/mapfiles/place_api/icons/v1/png_71/generic_business-71.png"}, {"name": "Dr. Balamurli Krishnan", "reference": "ChIJI8Zyh-ATrjsRHhv7ZTGMUAg", "geometry": {"location": {"lat": 12.9504071, "lng": 77.6546284}, "viewport": {"northeast": {"lat": 12.9538106, "lng": 77.65586848029149}, "southwest": {"lat": 12.9492726, "lng": 77.65317051970848}}}, "place_id": "ChIJI8Zyh-ATrjsRHhv7ZTGMUAg", "plus_code": {"global_code": "7J4VXM23+5V", "compound_code": "XM23+5V Bengaluru, Karnataka, India"}, "vicinity": "Bengaluru", "scope": "GOOGLE", "business_status": "OPERATIONAL", "types": ["doctor", "health", "point_of_interest", "establishment"], "icon": "https://maps.gstatic.com/mapfiles/place_api/icons/v1/png_71/generic_business-71.png"}, {"rating": 4.8, "user_ratings_total": 102, "name": "First Eat Right - Online Clinic Indiranagar", "reference": "ChIJnenQSXMUrjsROskUgacxoo4", "geometry": {"location": {"lat": 12.9463351, "lng": 77.64648199999999}, "viewport": {"northeast": {"lat": 12.9475145302915, "lng": 77.64770848029148}, "southwest": {"lat": 12.9448165697085, "lng": 77.64501051970848}}}, "opening_hours": {"open_now": true}, "place_id": "ChIJnenQSXMUrjsROskUgacxoo4", "plus_code": {"global_code": "7J4VWJWW+GH", "compound_code": "WJWW+GH Bengaluru, Karnataka, India"}, "vicinity": "1st Floor, REGUS.Embassy Golf Links Business ParK. Off Intermediate ring road Pine Valley Building, North Ring Road, Indiranagar, Bengaluru", "photos": [{"photo_reference": "ATtYBwJRtIAxXeDiv38EnFlOIKFljV6D3XhyZhAN28p7AC5zwF0eJqnPA6_PvPS5gOeQdZEKhqa9soA8-ezlQW7OMMX1v608RRxHvtuh4yfDcXA6rV32oDzMZdgoPKojx_c_PFLuTaMj03xPeGROln7U5PRW-v08R8V56q_Gewnto773Hjg0", "width": 668, "html_attributions": ["<a href=\"https://maps.google.com/maps/contrib/106709999139544580768\">First Eat Right - Online Clinic Indiranagar</a>"], "height": 393}], "scope": "GOOGLE", "business_status": "OPERATIONAL", "types": ["doctor", "health", "point_of_interest", "establishment"], "icon": "https://maps.gstatic.com/mapfiles/place_api/icons/v1/png_71/generic_business-71.png"}, {"rating": 5, "user_ratings_total": 7, "name": "sports injury rehablitation and performance enhancement centre", "reference": "ChIJ1bSpZlgVrjsRCys_jahAv1E", "geometry": {"location": {"lat": 12.9493743, "lng": 77.6437509}, "viewport": {"northeast": {"lat": 12.9507232802915, "lng": 77.64509988029151}, "southwest": {"lat": 12.9480253197085, "lng": 77.6424019197085}}}, "place_id": "ChIJ1bSpZlgVrjsRCys_jahAv1E", "plus_code": {"global_code": "7J4VWJXV+PG", "compound_code": "WJXV+PG Bengaluru, Karnataka, India"}, "vicinity": "Embassy Golf Links Road, Bengaluru", "scope": "GOOGLE", "business_status": "OPERATIONAL", "types": ["doctor", "health", "point_of_interest", "establishment"], "icon": "https://maps.gstatic.com/mapfiles/place_api/icons/v1/png_71/generic_business-71.png"}, {"name": "\u0cb8\u0cc1\u0ca1\u0cc1\u0ca4\u0ccd\u0ca4\u0cbf\u0ca6\u0cc6", "reference": "ChIJDQ_xjHAVrjsRVWKSPpd2M3Y", "geometry": {"location": {"lat": 12.952258, "lng": 77.6441341}, "viewport": {"northeast": {"lat": 12.9536293302915, "lng": 77.64559663029151}, "southwest": {"lat": 12.9509313697085, "lng": 77.6428986697085}}}, "place_id": "ChIJDQ_xjHAVrjsRVWKSPpd2M3Y", "plus_code": {"global_code": "7J4VXJ2V+WM", "compound_code": "XJ2V+WM Bengaluru, Karnataka, India"}, "vicinity": "Embassy Golf Links Business Park, Challaghatta, Bengaluru", "scope": "GOOGLE", "business_status": "OPERATIONAL", "types": ["doctor", "health", "point_of_interest", "establishment"], "icon": "https://maps.gstatic.com/mapfiles/place_api/icons/v1/png_71/generic_business-71.png"}, {"name": "TruHealing", "reference": "ChIJWQn-I2MVrjsRUEa7RIQdQwM", "geometry": {"location": {"lat": 12.9432412, "lng": 77.6499585}, "viewport": {"northeast": {"lat": 12.9446604802915, "lng": 77.6513229802915}, "southwest": {"lat": 12.9419625197085, "lng": 77.64862501970849}}}, "place_id": "ChIJWQn-I2MVrjsRUEa7RIQdQwM", "plus_code": {"global_code": "7J4VWJVX+7X", "compound_code": "WJVX+7X Bengaluru, Karnataka, India"}, "vicinity": "NP404, Shriram Spandhana Challaghatta, Murgesh Pallya, Bengaluru", "scope": "GOOGLE", "business_status": "OPERATIONAL", "types": ["doctor", "health", "point_of_interest", "establishment"], "icon": "https://maps.gstatic.com/mapfiles/place_api/icons/v1/png_71/generic_business-71.png"}, {"rating": 5, "user_ratings_total": 36, "name": "Siji Raveendran", "reference": "ChIJ15nmOVARrjsR-BC61L5iqqo", "geometry": {"location": {"lat": 12.9454104, "lng": 77.65589419999999}, "viewport": {"northeast": {"lat": 12.9469580802915, "lng": 77.65732543029151}, "southwest": {"lat": 12.9442601197085, "lng": 77.65462746970849}}}, "opening_hours": {"open_now": true}, "place_id": "ChIJ15nmOVARrjsR-BC61L5iqqo", "plus_code": {"global_code": "7J4VWMW4+59", "compound_code": "WMW4+59 Bengaluru, Karnataka, India"}, "vicinity": "Ss castle, Door No 101, 6 E cross, Kaggdaspura, C V Raman Nagar, Bengaluru", "photos": [{"photo_reference": "ATtYBwLUbDMrvezKEB8sCSuucIbE3juNqTEMF2Zff9NDAsQiKT3m5t_5mTis3Jfs5Ijlg9TcUxhC9FkJnavrgbDLtNKufUEWLioAJXO74_W5PngzXHT7gmtXPShCKrqbET83fo3WzRiLr_bWaVPLBCvjki2GjUT-dQoupkBcmily4dbqNu-Z", "width": 1280, "html_attributions": ["<a href=\"https://maps.google.com/maps/contrib/115734757367386387125\">Siji Raveendran</a>"], "height": 719}], "scope": "GOOGLE", "business_status": "OPERATIONAL", "types": ["doctor", "school", "health", "point_of_interest", "establishment"], "icon": "https://maps.gstatic.com/mapfiles/place_api/icons/v1/png_71/generic_business-71.png"}, {"rating": 5, "user_ratings_total": 2, "name": "Sharada Asthma Allergy & Chest Clinic", "reference": "ChIJbYvGFwkUrjsR8ZZPNlZUZ58", "geometry": {"location": {"lat": 12.9568364, "lng": 77.6538794}, "viewport": {"northeast": {"lat": 12.9581652302915, "lng": 77.65522048029152}, "southwest": {"lat": 12.9554672697085, "lng": 77.6525225197085}}}, "place_id": "ChIJbYvGFwkUrjsR8ZZPNlZUZ58", "plus_code": {"global_code": "7J4VXM43+PH", "compound_code": "XM43+PH Bengaluru, Karnataka, India"}, "vicinity": "61, 1st Cross Road, Murgesh Pallya, Bengaluru", "scope": "GOOGLE", "business_status": "OPERATIONAL", "types": ["doctor", "health", "point_of_interest", "establishment"], "icon": "https://maps.gstatic.com/mapfiles/place_api/icons/v1/png_71/generic_business-71.png"}, {"name": "Dr Reddi Prasad Yadavalli", "reference": "ChIJjWFZEgEVrjsR4EVccJKvnlg", "geometry": {"location": {"lat": 12.958151, "lng": 77.649193}, "viewport": {"northeast": {"lat": 12.9594999802915, "lng": 77.6505419802915}, "southwest": {"lat": 12.9568020197085, "lng": 77.64784401970849}}}, "place_id": "ChIJjWFZEgEVrjsR4EVccJKvnlg", "plus_code": {"global_code": "7J4VXJ5X+7M", "compound_code": "XJ5X+7M Bengaluru, Karnataka, India"}, "vicinity": "Room no. 008, #98/ 1st Floor, Manipal Hospital, HAL Old Airport Road, Kodihalli, Bengaluru", "scope": "GOOGLE", "business_status": "OPERATIONAL", "types": ["doctor", "health", "point_of_interest", "establishment"], "icon": "https://maps.gstatic.com/mapfiles/place_api/icons/v1/png_71/generic_business-71.png"}, {"name": "Dr Padma Sundaram", "reference": "ChIJEQH64XUVrjsRDrK_tMywaH0", "geometry": {"location": {"lat": 12.958002, "lng": 77.648096}, "viewport": {"northeast": {"lat": 12.9593509802915, "lng": 77.6494449802915}, "southwest": {"lat": 12.9566530197085, "lng": 77.64674701970849}}}, "opening_hours": {"open_now": false}, "place_id": "ChIJEQH64XUVrjsRDrK_tMywaH0", "plus_code": {"global_code": "7J4VXJ5X+66", "compound_code": "XJ5X+66 Bengaluru, Karnataka, India"}, "vicinity": "Room no. 003, #98/ 1st Floor, Manipal Hospital, HAL Old Airport Road, Kodihalli, Bengaluru", "scope": "GOOGLE", "business_status": "OPERATIONAL", "types": ["doctor", "health", "point_of_interest", "establishment"], "icon": "https://maps.gstatic.com/mapfiles/place_api/icons/v1/png_71/generic_business-71.png"}, {"name": "Dr Azeez Pasha", "reference": "ChIJUW4khNIVrjsRD3WUVfzzvdk", "geometry": {"location": {"lat": 12.958215, "lng": 77.649193}, "viewport": {"northeast": {"lat": 12.9595639802915, "lng": 77.6505419802915}, "southwest": {"lat": 12.9568660197085, "lng": 77.64784401970849}}}, "opening_hours": {"open_now": false}, "place_id": "ChIJUW4khNIVrjsRD3WUVfzzvdk", "plus_code": {"global_code": "7J4VXJ5X+7M", "compound_code": "XJ5X+7M Bengaluru, Karnataka, India"}, "vicinity": "Room no. 005, #98/ 1st Floor, Manipal Hospital, HAL Old Airport Road, Kodihalli, Bengaluru", "scope": "GOOGLE", "business_status": "OPERATIONAL", "types": ["doctor", "health", "point_of_interest", "establishment"], "icon": "https://maps.gstatic.com/mapfiles/place_api/icons/v1/png_71/generic_business-71.png"}, {"rating": 5, "user_ratings_total": 1, "name": "Dr Guruprasad S Bhat | Best Pulmonologist near me in HAL Old Airport Road", "reference": "ChIJzTLHSyMVrjsRSIL6LgkTMn4", "geometry": {"location": {"lat": 12.9583007, "lng": 77.6489732}, "viewport": {"northeast": {"lat": 12.9596496802915, "lng": 77.6503221802915}, "southwest": {"lat": 12.9569517197085, "lng": 77.64762421970849}}}, "opening_hours": {"open_now": false}, "place_id": "ChIJzTLHSyMVrjsRSIL6LgkTMn4", "plus_code": {"global_code": "7J4VXJ5X+8H", "compound_code": "XJ5X+8H Bengaluru, Karnataka, India"}, "vicinity": "Room no. 002, #98/ 1st Floor, Manipal Hospital, HAL Old Airport Road, Kodihalli, Bengaluru", "photos": [{"photo_reference": "ATtYBwLX6McZvdHYG3XENuNJZjYYkUwMOmJUSVKduxZGzYSmqPmSCo_ulPn_2TgRgFwyTGzNeh9bueH5f8t62je2wSdZLSMJf5aKp40UtqhqChY7nNinmZEnLZVLRH2eB6QqhX1HpnXGYItt4J-M20r6R0OEn6yPdrsm_nAEIPuNFAXiYgIi", "width": 500, "html_attributions": ["<a href=\"https://maps.google.com/maps/contrib/101302425328495010590\">Dr Guruprasad S Bhat | Best Pulmonologist near me in HAL Old Airport Road</a>"], "height": 350}], "scope": "GOOGLE", "business_status": "OPERATIONAL", "types": ["doctor", "health", "point_of_interest", "establishment"], "icon": "https://maps.gstatic.com/mapfiles/place_api/icons/v1/png_71/generic_business-71.png"}, {"name": "Dr. Sachith Abraham", "reference": "ChIJSzyjQyAVrjsRlvjHAMuMdkM", "geometry": {"location": {"lat": 12.9583505, "lng": 77.6490583}, "viewport": {"northeast": {"lat": 12.9596422802915, "lng": 77.6505416302915}, "southwest": {"lat": 12.9569443197085, "lng": 77.64784366970848}}}, "place_id": "ChIJSzyjQyAVrjsRlvjHAMuMdkM", "plus_code": {"global_code": "7J4VXJ5X+8J", "compound_code": "XJ5X+8J Bengaluru, Karnataka, India"}, "vicinity": "Room No. 29, #98/First Floor, Manipal Hospitals, HAL Old Airport Road, Kodihalli, Bengaluru", "scope": "GOOGLE", "business_status": "OPERATIONAL", "types": ["doctor", "health", "point_of_interest", "establishment"], "icon": "https://maps.gstatic.com/mapfiles/place_api/icons/v1/png_71/generic_business-71.png"}]}