{"status": "OK", "html_attributions": [], "results": [{"rating": 4.9, "user_ratings_total": 412, "name": "Cloudnine Fertility - Old Airport Road", "reference": "ChIJCWNrLfgTrjsR_T9GT_hI73c", "geometry": {"location": {"lat": 12.959479, "lng": 77.656365}, "viewport": {"northeast": {"lat": 12.9608219802915, "lng": 77.6577531802915}, "southwest": {"lat": 12.9581240197085, "lng": 77.65505521970849}}}, "opening_hours": {"open_now": true}, "place_id": "ChIJCWNrLfgTrjsR_T9GT_hI73c", "plus_code": {"global_code": "7J4VXM54+QG", "compound_code": "XM54+QG Bengaluru, Karnataka, India"}, "vicinity": "No 29/7, 1st Floor, Kodihalli, Old Airport Road, Bengaluru", "photos": [{"photo_reference": "ATtYBwLsseU3p2BxfK94M5a91uWYaQju4_I08-HWDyaNvXoUKXLxyH1ekRZTJdJ_dzob4N9ILvvgOZjhZG9l0DVrIJpU0uyJpaKCv0BLLgNFDVQLOFJYfO72y84awRr411puSyxOHtObs8SPtekjKF66yCxj1TDFKm8FP4bN2OKKBoemPQ8R", "width": 4898, "html_attributions": ["<a href=\"https://maps.google.com/maps/contrib/104364188147336854939\">Cloudnine Fertility - Old Airport Road</a>"], "height": 3265}], "scope": "GOOGLE", "business_status": "OPERATIONAL", "types": ["doctor", "health", "point_of_interest", "establishment"], "icon": "https://maps.gstatic.com/mapfiles/place_api/icons/v1/png_71/generic_business-71.png"}, {"rating": 3.2, "user_ratings_total": 170, "name": "Axon Speciality Hospital", "reference": "ChIJV-3BwqgWrjsRTD1nM4Rpprw", "geometry": {"location": {"lat": 12.973892, "lng": 77.646042}, "viewport": {"northeast": {"lat": 12.9753107802915, "lng": 77.6473874802915}, "southwest": {"lat": 12.9726128197085, "lng": 77.64468951970848}}}, "opening_hours": {"open_now": true}, "place_id": "ChIJV-3BwqgWrjsRTD1nM4Rpprw", "plus_code": {"global_code": "7J4VXJFW+HC", "compound_code": "XJFW+HC Bengaluru, Karnataka, India"}, "vicinity": "321, 6th Main Road, HAL 2nd Stage, Indiranagar, Bengaluru", "photos": [{"photo_reference": "ATtYBwKC--S6hSScELaMjNonPR-sPKMQkeerDfMPkXLJDB6lwejCYQtqQwhvY4Z0F9dN0D3TCPp1IH5K2Kqhwy4iooAh9643vEYaP7mGkz6R9rB7gLRbTzUeVFHVvO1yU4TA3obycM3KwBRRwle3z02te_PqX89YtiGj2_G0-Gkxw07arWRI", "width": 6000, "html_attributions": ["<a href=\"https://maps.google.com/maps/contrib/106098856819460040334\">Support Direct India Pvt Ltd</a>"], "height": 4000}], "scope": "GOOGLE", "business_status": "OPERATIONAL", "types": ["hospital", "doctor", "health", "point_of_interest", "establishment"], "icon": "https://maps.gstatic.com/mapfiles/place_api/icons/v1/png_71/generic_business-71.png"}, {"rating": 3.8, "user_ratings_total": 353, "name": "Lotus Diagnostic Centre", "reference": "ChIJVVVV0ZA9rjsRL0dMvRtBc-8", "geometry": {"location": {"lat": 12.9785993, "lng": 77.6423452}, "viewport": {"northeast": {"lat": 12.9798759302915, "lng": 77.6436969302915}, "southwest": {"lat": 12.9771779697085, "lng": 77.64099896970849}}}, "opening_hours": {"open_now": true}, "place_id": "ChIJVVVV0ZA9rjsRL0dMvRtBc-8", "plus_code": {"global_code": "7J4VXJHR+CW", "compound_code": "XJHR+CW Bengaluru, Karnataka, India"}, "vicinity": "opp. ICICI Bank ATM, No. 493, Chinmaya Mission Hospital Road, Indiranagar, Bengaluru", "photos": [{"photo_reference": "ATtYBwIHrer6aUBEiH71F82x3FpP4X9Z2zBvOJTT8NjWgGJZPfnEzLxhWiP1NfmnQNIPNABs6j_T-9ZA4yqnv-Ua3oJs8WpZIP9-LRIqpxWpyJXzdJzAsZmv2JkWkMYII7C6DASYYdq34GZclpZP03NxKcL2qNI1VDDY9Lb6fDr1Da48_PFG", "width": 5184, "html_attributions": ["<a href=\"https://maps.google.com/maps/contrib/111677120097926876113\">Support Direct India Pvt Ltd</a>"], "height": 3456}], "scope": "GOOGLE", "business_status": "OPERATIONAL", "types": ["doctor", "health", "point_of_interest", "establishment"], "icon": "https://maps.gstatic.com/mapfiles/place_api/icons/v1/png_71/generic_business-71.png"}, {"rating": 2.2, "user_ratings_total": 378, "name": "Medall Clumax Diagnostics", "reference": "ChIJBTyheakWrjsR-OffSLFtNd4", "geometry": {"location": {"lat": 12.9729016, "lng": 77.6473857}, "viewport": {"northeast": {"lat": 12.9742673802915, "lng": 77.6487846802915}, "southwest": {"lat": 12.9715694197085, "lng": 77.64608671970849}}}, "opening_hours": {"open_now": true}, "place_id": "ChIJBTyheakWrjsR-OffSLFtNd4", "plus_code": {"global_code": "7J4VXJFW+5X", "compound_code": "XJFW+5X Bengaluru, Karnataka, India"}, "vicinity": "Opp. Veer Hanuman Temple, Krishna Quoin, 80 Feet Road, HAL 3rd Stage, New Tippasandra, Opp. Veer Hanuman Temple, Indiranagar, Bengaluru", "photos": [{"photo_reference": "ATtYBwKQKYmq_YsegSx5M5EidsZV4q6giEt-elFfnVi_a8kdYkrPJ2D37OrKnjH2QnR6MEExzMYAtsluo19wWraC-ZfGudNJChjE9-Jw44O9frIUFzFju63skG0YOfxd1VJpa3pSlu9OFa75mL7_uSIBzos_HOAjwoMwuDuUQj8stwXcFe6u", "width": 4032, "html_attributions": ["<a href=\"https://maps.google.com/maps/contrib/118078235393782814883\">Richard Jones</a>"], "height": 3024}], "scope": "GOOGLE", "business_status": "OPERATIONAL", "types": ["doctor", "health", "point_of_interest", "establishment"], "icon": "https://maps.gstatic.com/mapfiles/place_api/icons/v1/png_71/generic_business-71.png"}, {"rating": 2.4, "user_ratings_total": 27, "name": "Dr. Ninan Thomas Panicker", "reference": "ChIJV42u2I8WrjsRzpOilalQxZA", "geometry": {"location": {"lat": 12.9784096, "lng": 77.6451526}, "viewport": {"northeast": {"lat": 12.9797585802915, "lng": 77.64650158029151}, "southwest": {"lat": 12.9770606197085, "lng": 77.6438036197085}}}, "opening_hours": {"open_now": true}, "place_id": "ChIJV42u2I8WrjsRzpOilalQxZA", "plus_code": {"global_code": "7J4VXJHW+93", "compound_code": "XJHW+93 Bengaluru, Karnataka, India"}, "vicinity": "Clinrad Diagnostics, near CMH Hospital, Indira Nagar 1st Stage, Hoysala Nagar, Indiranagar, Bengaluru", "photos": [{"photo_reference": "ATtYBwLyeapMNh67dxQzaFvc16qbjHzqXDatPQQvzVMKcHmlGWUxR4kGXhI1j1406bk-RT3DrLdlfTq-kig3WoDsI_9MspNy6o0hrCGsQLQzYyCmYhnejLDjtChwsFUxDacBylHMFCbHcsSY3RtRuITXXHfCVW0-9bTc2RF7fVgqvcub-FxW", "width": 4096, "html_attributions": ["<a href=\"https://maps.google.com/maps/contrib/113930642566412705970\">Nathaniel Alex</a>"], "height": 2304}], "scope": "GOOGLE", "business_status": "OPERATIONAL", "types": ["doctor", "health", "point_of_interest", "establishment"], "icon": "https://maps.gstatic.com/mapfiles/place_api/icons/v1/png_71/generic_business-71.png"}, {"rating": 4, "user_ratings_total": 16, "name": "Praveen Baliga", "reference": "ChIJK8WEE6oWrjsR5uNQDtBePIk", "geometry": {"location": {"lat": 12.970828, "lng": 77.64910739999999}, "viewport": {"northeast": {"lat": 12.9721792802915, "lng": 77.6503951802915}, "southwest": {"lat": 12.9694813197085, "lng": 77.64769721970849}}}, "opening_hours": {"open_now": true}, "place_id": "ChIJK8WEE6oWrjsR5uNQDtBePIk", "plus_code": {"global_code": "7J4VXJCX+8J", "compound_code": "XJCX+8J Bengaluru, Karnataka, India"}, "vicinity": "292, 4th Cross Road, Hal, HAL 3rd Stage, Stage 3, New Tippasandra, Bengaluru", "photos": [{"photo_reference": "ATtYBwKazoNkSLseZFzn_1cXLPVUqxi6iqzHGidkQdgKLMeCDn-w9PL_Si_S15EHLLUbB4T5E097NGMx09_jk3NhGoQ-w3m4G5hZAxjvsGnUAjjI0gcGg_jCNFacjd6-_hsaZ8GJ4VtioSxLsYv522-yAIegdWkp8ULl6rr0GXGBUgT_x2bZ", "width": 4032, "html_attributions": ["<a href=\"https://maps.google.com/maps/contrib/116925135272517485292\">Rajesh A Naik</a>"], "height": 3024}], "scope": "GOOGLE", "business_status": "OPERATIONAL", "types": ["doctor", "health", "point_of_interest", "establishment"], "icon": "https://maps.gstatic.com/mapfiles/place_api/icons/v1/png_71/generic_business-71.png"}, {"rating": 3.3, "user_ratings_total": 45, "name": "Kapila Eye Clinic", "reference": "ChIJm6AoPagWrjsRYhgfGujrNQw", "geometry": {"location": {"lat": 12.9702111, "lng": 77.6467091}, "viewport": {"northeast": {"lat": 12.9716608302915, "lng": 77.6480341302915}, "southwest": {"lat": 12.9689628697085, "lng": 77.64533616970849}}}, "opening_hours": {"open_now": false}, "place_id": "ChIJm6AoPagWrjsRYhgfGujrNQw", "plus_code": {"global_code": "7J4VXJCW+3M", "compound_code": "XJCW+3M Bengaluru, Karnataka, India"}, "vicinity": "First Floor, 2989/G, 12th Main Road, HAL 2nd Stage, Indiranagar, Bengaluru", "photos": [{"photo_reference": "ATtYBwI4rCO1_ATcanhqfXU7ngWc7P73DsXidrgeEnMj55-CSWzrZUrCz2E6CzQTaCDAo7ktY6wBBL9Y3OJluqLG_Xl9A02PhUvGTF9nnSUvyck2Iyzt9ckbssuwK2mZbUr_VAGIGoLp0uDHPLXIKlgkGDZl2RN0ghRsLytJr0iKyUerYXom", "width": 1620, "html_attributions": ["<a href=\"https://maps.google.com/maps/contrib/102134805803859579900\">Kapila Eye Clinic</a>"], "height": 1080}], "scope": "GOOGLE", "business_status": "OPERATIONAL", "types": ["doctor", "health", "point_of_interest", "store", "establishment"], "icon": "https://maps.gstatic.com/mapfiles/place_api/icons/v1/png_71/generic_business-71.png"}, {"rating": 4.5, "user_ratings_total": 54, "name": "Vidya Desai Mohan Dr", "reference": "ChIJVVVV0ZA9rjsRHvhoH44gm1o", "geometry": {"location": {"lat": 12.9656005, "lng": 77.6394593}, "viewport": {"northeast": {"lat": 12.9670608302915, "lng": 77.64083248029151}, "southwest": {"lat": 12.9643628697085, "lng": 77.63813451970849}}}, "opening_hours": {"open_now": true}, "place_id": "ChIJVVVV0ZA9rjsRHvhoH44gm1o", "plus_code": {"global_code": "7J4VXJ8Q+6Q", "compound_code": "XJ8Q+6Q Bengaluru, Karnataka, India"}, "vicinity": "Vinayaka Apartment, 3585, 13th G Main Road, HAL 2nd Stage, Indiranagar, Bengaluru", "scope": "GOOGLE", "business_status": "OPERATIONAL", "types": ["doctor", "health", "point_of_interest", "establishment"], "icon": "https://maps.gstatic.com/mapfiles/place_api/icons/v1/png_71/generic_business-71.png"}, {"rating": 4, "user_ratings_total": 1, "name": "Nikhil Chandra Sarkar Dr", "reference": "ChIJzc8k46cWrjsRuCTwyhz4RfQ", "geometry": {"location": {"lat": 12.9709574, "lng": 77.6406169}, "viewport": {"northeast": {"lat": 12.9723060802915, "lng": 77.6419580802915}, "southwest": {"lat": 12.9696081197085, "lng": 77.63926011970848}}}, "place_id": "ChIJzc8k46cWrjsRuCTwyhz4RfQ", "vicinity": "2564, H A L II Stage, Indiranagar, Indiranagar, Bengaluru", "scope": "GOOGLE", "business_status": "OPERATIONAL", "types": ["doctor", "health", "point_of_interest", "establishment"], "icon": "https://maps.gstatic.com/mapfiles/place_api/icons/v1/png_71/generic_business-71.png"}, {"rating": 3.3, "user_ratings_total": 3, "name": "Dr Priya Pillai's Homeopathy and Holistic Center", "reference": "ChIJJxx2tgEUrjsRUJA1vB0k6Tk", "geometry": {"location": {"lat": 12.968712, "lng": 77.64900089999999}, "viewport": {"northeast": {"lat": 12.9698798302915, "lng": 77.65110404999999}, "southwest": {"lat": 12.9671818697085, "lng": 77.64829984999997}}}, "opening_hours": {"open_now": true}, "place_id": "ChIJJxx2tgEUrjsRUJA1vB0k6Tk", "plus_code": {"global_code": "7J4VXJ9X+FJ", "compound_code": "XJ9X+FJ Bengaluru, Karnataka, India"}, "vicinity": "1647, Jeevan Bima Nagar Main Road, HAL 3rd Stage, New Tippasandra, Bengaluru", "scope": "GOOGLE", "business_status": "OPERATIONAL", "types": ["doctor", "health", "point_of_interest", "establishment"], "icon": "https://maps.gstatic.com/mapfiles/place_api/icons/v1/png_71/generic_business-71.png"}, {"rating": 3.8, "user_ratings_total": 55, "name": "Indiranagar Specialist Center", "reference": "ChIJUS4n5acWrjsRH11Dta-cQoo", "geometry": {"location": {"lat": 12.9676745, "lng": 77.6428938}, "viewport": {"northeast": {"lat": 12.9690198302915, "lng": 77.64416518029151}, "southwest": {"lat": 12.9663218697085, "lng": 77.6414672197085}}}, "opening_hours": {"open_now": true}, "place_id": "ChIJUS4n5acWrjsRH11Dta-cQoo", "plus_code": {"global_code": "7J4VXJ9V+35", "compound_code": "XJ9V+35 Bengaluru, Karnataka, India"}, "vicinity": "3478/C , 1st Cross, Between 13 & 14 Main, Behind New Horizon School, 100 ft Road, HAL 2nd stage, Bengaluru", "photos": [{"photo_reference": "ATtYBwJ2uvRjyp_Kvz1HOcGOryIWyRktSZrSEIQJbfCPyl7k8nGQcbeKB3Cyjthaiz3V8F3U9dy0DO1qbWem8OKjCxaGNoswrJ0KzC7xCEZ7a6vm63S7wjfkg1Zjk4FNmblKIOz4uTRb5LpdH-vyeLwd9IU5S9I9q7z30E_bSj33Zm0uFuiO", "width": 3852, "html_attributions": ["<a href=\"https://maps.google.com/maps/contrib/110853634722991317893\">PUNITH K R</a>"], "height": 1926}], "scope": "GOOGLE", "business_status": "OPERATIONAL", "types": ["doctor", "health", "point_of_interest", "establishment"], "icon": "https://maps.gstatic.com/mapfiles/place_api/icons/v1/png_71/generic_business-71.png"}, {"rating": 4.2, "user_ratings_total": 35, "name": "Dr.ANJANA RAMESH M.D.,D.N.B.", "reference": "ChIJmwEjYqkWrjsRNMM1w2ZBOuk", "geometry": {"location": {"lat": 12.973597, "lng": 77.647784}, "viewport": {"northeast": {"lat": 12.9749567302915, "lng": 77.6490498302915}, "southwest": {"lat": 12.9722587697085, "lng": 77.6463518697085}}}, "opening_hours": {"open_now": true}, "place_id": "ChIJmwEjYqkWrjsRNMM1w2ZBOuk", "plus_code": {"global_code": "7J4VXJFX+C4", "compound_code": "XJFX+C4 Bengaluru, Karnataka, India"}, "vicinity": "16, 1st Cross Road, HAL 3rd Stage, Colony New 515, New Tippasandra, Bengaluru", "scope": "GOOGLE", "business_status": "OPERATIONAL", "types": ["doctor", "health", "point_of_interest", "establishment"], "icon": "https://maps.gstatic.com/mapfiles/place_api/icons/v1/png_71/generic_business-71.png"}, {"rating": 3.6, "user_ratings_total": 9, "name": "indira clinic Dr. P Meenakshi", "reference": "ChIJL_yr2QEUrjsRvRHy721cpVQ", "geometry": {"location": {"lat": 12.9696705, "lng": 77.6498471}, "viewport": {"northeast": {"lat": 12.9710294302915, "lng": 77.6511982302915}, "southwest": {"lat": 12.9683314697085, "lng": 77.64850026970849}}}, "opening_hours": {"open_now": true}, "place_id": "ChIJL_yr2QEUrjsRvRHy721cpVQ", "plus_code": {"global_code": "7J4VXJ9X+VW", "compound_code": "XJ9X+VW Bengaluru, Karnataka, India"}, "vicinity": "4th Cross Road, 560075, 1763, 8th A Main Road, Hal, HAL 3rd Stage, New Tippasandra, Bengaluru", "photos": [{"photo_reference": "ATtYBwI8bylGI9Wde59oKErCgDULOZKvtt22osNTJBKE6rsrM4aaMECrATteZAcdpQz5ie9nougeITQIyRRpNkvkC1uOW7xZUi7fUUaAa1jaFmoyF0K6W-_H4nF9A152ZHlg3_ZO0V6xWoSIWw8WuAe3qGsYGtvUDYBn46igZBDu403HjMlz", "width": 3024, "html_attributions": ["<a href=\"https://maps.google.com/maps/contrib/100987073293897705679\">Suhas Roddam</a>"], "height": 4032}], "scope": "GOOGLE", "business_status": "OPERATIONAL", "types": ["doctor", "health", "point_of_interest", "establishment"], "icon": "https://maps.gstatic.com/mapfiles/place_api/icons/v1/png_71/generic_business-71.png"}, {"rating": 4.6, "user_ratings_total": 10, "name": "Pebbles n Pearl's Health Care Centre", "reference": "ChIJ6-CVzwEUrjsR4BmMqz6anVU", "geometry": {"location": {"lat": 12.9690463, "lng": 77.6501244}, "viewport": {"northeast": {"lat": 12.9703621802915, "lng": 77.6514684802915}, "southwest": {"lat": 12.9676642197085, "lng": 77.64877051970849}}}, "opening_hours": {"open_now": false}, "place_id": "ChIJ6-CVzwEUrjsR4BmMqz6anVU", "plus_code": {"global_code": "7J4VXM92+J2", "compound_code": "XM92+J2 Bengaluru, Karnataka, India"}, "vicinity": "9th Main Road, 5th Cross, Near Miranda School HAL III Stage,, Bengaluru", "photos": [{"photo_reference": "ATtYBwK9uXLyNRht17OaJfFBxAgs51C-69pH5HRHeEPi1sn7SoC14MvAlpi6VmH826YbXLR-zyahlikl7Hlj0gPR2-JjgQl6x8ILA-RSWTY2qa6lB9hIiw4cZdTjN2M4z6c71XZwj_MJ_PSQCaGgE6aatf16eayYgUA0zMG9h8SKknEAIpsC", "width": 1920, "html_attributions": ["<a href=\"https://maps.google.com/maps/contrib/109550772777568871695\">Kaizen</a>"], "height": 1080}], "scope": "GOOGLE", "business_status": "OPERATIONAL", "types": ["doctor", "health", "point_of_interest", "establishment"], "icon": "https://maps.gstatic.com/mapfiles/place_api/icons/v1/png_71/generic_business-71.png"}, {"rating": 4.2, "user_ratings_total": 31, "name": "Dr PRAVEEN Baliga, Children's clinic", "reference": "ChIJqwfpE6oWrjsRhPZUsH0Fqf4", "geometry": {"location": {"lat": 12.9707878, "lng": 77.6490172}, "viewport": {"northeast": {"lat": 12.9721369802915, "lng": 77.65036363029151}, "southwest": {"lat": 12.9694390197085, "lng": 77.64766566970849}}}, "opening_hours": {"open_now": true}, "place_id": "ChIJqwfpE6oWrjsRhPZUsH0Fqf4", "plus_code": {"global_code": "7J4VXJCX+8J", "compound_code": "XJCX+8J Bengaluru, Karnataka, India"}, "vicinity": "5th Main Road, HAL 3rd Stage, New Tippasandra, Bengaluru", "scope": "GOOGLE", "business_status": "OPERATIONAL", "types": ["doctor", "health", "point_of_interest", "establishment"], "icon": "https://maps.gstatic.com/mapfiles/place_api/icons/v1/png_71/generic_business-71.png"}, {"name": "Moses E P Christian Dr", "reference": "ChIJ1wblE6oWrjsRMtJbv7Lb2p0", "geometry": {"location": {"lat": 12.9708088, "lng": 77.64899419999999}, "viewport": {"northeast": {"lat": 12.9721564802915, "lng": 77.65036483029151}, "southwest": {"lat": 12.9694585197085, "lng": 77.64766686970849}}}, "place_id": "ChIJ1wblE6oWrjsRMtJbv7Lb2p0", "vicinity": "209, 3rd Cross, 5th Main, 3rd Stage, H A L, H A L, Bengaluru", "scope": "GOOGLE", "business_status": "OPERATIONAL", "types": ["doctor", "health", "point_of_interest", "establishment"], "icon": "https://maps.gstatic.com/mapfiles/place_api/icons/v1/png_71/generic_business-71.png"}, {"name": "Dr basavendra", "reference": "ChIJG-GngT4VrjsRAeuRqcayHYY", "geometry": {"location": {"lat": 12.9686341, "lng": 77.6499654}, "viewport": {"northeast": {"lat": 12.9699205302915, "lng": 77.6512980302915}, "southwest": {"lat": 12.9672225697085, "lng": 77.6486000697085}}}, "place_id": "ChIJG-GngT4VrjsRAeuRqcayHYY", "plus_code": {"global_code": "7J4VXJ9X+FX", "compound_code": "XJ9X+FX Bengaluru, Karnataka, India"}, "vicinity": "#2227 4th main, 1st A Cross Road, HAL 3rd Stage, Jeevan Bima Nagar, Bengaluru", "photos": [{"photo_reference": "ATtYBwL5iC7e_peEJknVARkasqIJ4RKwSVN0L78zNmHd_hwmFUWJ8edYneCUW2PC_TH6Fv2TlJqiOVZ4rPNf-QWKpMDe-AKLWNMfQtBWntFGVjBUZ1IxeQ9IObUZm_HpyfNu8pQ1Olw2xwvIVQ32w9et_UUMcDIxif1iFaGK5cEbQzlC3aER", "width": 1152, "html_attributions": ["<a href=\"https://maps.google.com/maps/contrib/108633410660406626880\">TILAK L N Ranga</a>"], "height": 648}], "scope": "GOOGLE", "business_status": "OPERATIONAL", "types": ["doctor", "health", "point_of_interest", "establishment"], "icon": "https://maps.gstatic.com/mapfiles/place_api/icons/v1/png_71/generic_business-71.png"}, {"rating": 4.8, "user_ratings_total": 161, "name": "Clove Dental", "reference": "ChIJBYE0xgEUrjsRcsfhvLOiRpY", "geometry": {"location": {"lat": 12.9686283, "lng": 77.6499657}, "viewport": {"northeast": {"lat": 12.9699173302915, "lng": 77.6512992302915}, "southwest": {"lat": 12.9672193697085, "lng": 77.6486012697085}}}, "opening_hours": {"open_now": true}, "place_id": "ChIJBYE0xgEUrjsRcsfhvLOiRpY", "plus_code": {"global_code": "7J4VXJ9X+FX", "compound_code": "XJ9X+FX Bengaluru, Karnataka, India"}, "vicinity": "above ICICI Bank, 1659, First Floor, 10th Main Road, above ICICI Bank, HAL 3rd Stage EXTN, Jeevan Bima Nagar, Bengaluru", "photos": [{"photo_reference": "ATtYBwIAajF3bqoAJR-zLswWJF91SDa463mM0Gvv4_q7mM6bJJMNsiiQn585IRDgJiKoQIQqG6YsNErQwtaFAkRoz7o4mwTOdAGe-i1LLfH8P7BoWN0xQQ45P8S5_bHKdnx4Wx1cgz0pAqJZQ36Om-J9jTPr7k_QAO2wiUJSrJYCImpP3PSA", "width": 820, "html_attributions": ["<a href=\"https://maps.google.com/maps/contrib/117571733090545054080\">Clove Dental</a>"], "height": 312}], "scope": "GOOGLE", "business_status": "OPERATIONAL", "types": ["doctor", "dentist", "health", "point_of_interest", "establishment"], "icon": "https://maps.gstatic.com/mapfiles/place_api/icons/v1/png_71/generic_business-71.png"}, {"name": "Dr Lal PathLabs", "reference": "ChIJGR_7r8YVrjsRHFMa4YGjIC4", "geometry": {"location": {"lat": 12.96844, "lng": 77.65037}, "viewport": {"northeast": {"lat": 12.9697585302915, "lng": 77.6516491302915}, "southwest": {"lat": 12.9670605697085, "lng": 77.64895116970848}}}, "opening_hours": {"open_now": true}, "place_id": "ChIJGR_7r8YVrjsRHFMa4YGjIC4", "plus_code": {"global_code": "7J4VXM92+94", "compound_code": "XM92+94 Bengaluru, Karnataka, India"}, "vicinity": "1648, Jeevan Bima Nagar Main Road, HAL 3rd Stage, New Tippasandra, Bengaluru", "scope": "GOOGLE", "business_status": "OPERATIONAL", "types": ["doctor", "health", "point_of_interest", "establishment"], "icon": "https://maps.gstatic.com/mapfiles/place_api/icons/v1/png_71/generic_business-71.png"}, {"name": "Pradeep Kumar Dr T J", "reference": "ChIJlzW5F6oWrjsRy68mqSp4GRw", "geometry": {"location": {"lat": 12.9710311, "lng": 77.648726}, "viewport": {"northeast": {"lat": 12.9724276802915, "lng": 77.6500765302915}, "southwest": {"lat": 12.9697297197085, "lng": 77.6473785697085}}}, "place_id": "ChIJlzW5F6oWrjsRy68mqSp4GRw", "plus_code": {"global_code": "7J4VXJCX+CF", "compound_code": "XJCX+CF Bengaluru, Karnataka, India"}, "vicinity": "137, 3rd Cross 4th Main 3rd Stage, H A L, H A L, Bengaluru", "scope": "GOOGLE", "business_status": "OPERATIONAL", "types": ["doctor", "health", "point_of_interest", "establishment"], "icon": "https://maps.gstatic.com/mapfiles/place_api/icons/v1/png_71/generic_business-71.png"}]}