{"status": "OK", "html_attributions": [], "results": [{"rating": 4, "user_ratings_total": 1, "name": "Dr. UMA M - Best General Practitioner near me in Marathahalli", "reference": "ChIJa6gOAjwSrjsRLFZ57wNsDD0", "geometry": {"location": {"lat": 12.9560793, "lng": 77.69427519999999}, "viewport": {"northeast": {"lat": 12.9574824302915, "lng": 77.69561718029149}, "southwest": {"lat": 12.9547844697085, "lng": 77.69291921970849}}}, "opening_hours": {"open_now": false}, "place_id": "ChIJa6gOAjwSrjsRLFZ57wNsDD0", "plus_code": {"global_code": "7J4VXM4V+CP", "compound_code": "XM4V+CP Bengaluru, Karnataka, India"}, "vicinity": "opp. Shriram Samruddhi Apartments, 673/a, varthur Main Road,near Kundanahalii Signal, opp. Shriram Samruddhi Apartments, Apts, Bengaluru", "scope": "GOOGLE", "business_status": "OPERATIONAL", "types": ["doctor", "health", "point_of_interest", "establishment"], "icon": "https://maps.gstatic.com/mapfiles/place_api/icons/v1/png_71/generic_business-71.png"}, {"rating": 4.4, "user_ratings_total": 7, "name": "Dr. VENKATESHWARA RAO K - Best Urologist near me in Marathahalli", "reference": "ChIJeYgst1MTrjsRNaR1oRwZyRg", "geometry": {"location": {"lat": 12.9560793, "lng": 77.69427519999999}, "viewport": {"northeast": {"lat": 12.9574824302915, "lng": 77.69561718029149}, "southwest": {"lat": 12.9547844697085, "lng": 77.69291921970849}}}, "opening_hours": {"open_now": false}, "place_id": "ChIJeYgst1MTrjsRNaR1oRwZyRg", "plus_code": {"global_code": "7J4VXM4V+CP", "compound_code": "XM4V+CP Bengaluru, Karnataka, India"}, "vicinity": "opp. Shriram Samruddhi Apartments, 673/a, varthur Main Road,near Kundanahalii Signal, opp. Shriram Samruddhi Apartments, Apts, Bengaluru", "scope": "GOOGLE", "business_status": "OPERATIONAL", "types": ["doctor", "health", "point_of_interest", "establishment"], "icon": "https://maps.gstatic.com/mapfiles/place_api/icons/v1/png_71/generic_business-71.png"}, {"rating": 5, "user_ratings_total": 2, "name": "Dr. VAMSAVARDHAN REDDY P - Best General Practitioner near me in Marathahalli", "reference": "ChIJa6gOAjwSrjsRlxuHoSHIueo", "geometry": {"location": {"lat": 12.9560793, "lng": 77.69427519999999}, "viewport": {"northeast": {"lat": 12.9574824302915, "lng": 77.69561718029149}, "southwest": {"lat": 12.9547844697085, "lng": 77.69291921970849}}}, "opening_hours": {"open_now": false}, "place_id": "ChIJa6gOAjwSrjsRlxuHoSHIueo", "plus_code": {"global_code": "7J4VXM4V+CP", "compound_code": "XM4V+CP Bengaluru, Karnataka, India"}, "vicinity": "opp. Shriram Samruddhi Apartments, 673/a, varthur Main Road,near Kundanahalii Signal, opp. Shriram Samruddhi Apartments, Apts, Bengaluru", "scope": "GOOGLE", "business_status": "OPERATIONAL", "types": ["doctor", "health", "point_of_interest", "establishment"], "icon": "https://maps.gstatic.com/mapfiles/place_api/icons/v1/png_71/generic_business-71.png"}, {"rating": 5, "user_ratings_total": 1, "name": "Dr. Kapil Rangan - Best Cardiologist near me in Marathahalli", "reference": "ChIJIfxEEawTrjsRWOJDVDSc3gY", "geometry": {"location": {"lat": 12.9560793, "lng": 77.69427519999999}, "viewport": {"northeast": {"lat": 12.9574824302915, "lng": 77.69561718029149}, "southwest": {"lat": 12.9547844697085, "lng": 77.69291921970849}}}, "opening_hours": {"open_now": false}, "place_id": "ChIJIfxEEawTrjsRWOJDVDSc3gY", "plus_code": {"global_code": "7J4VXM4V+CP", "compound_code": "XM4V+CP Bengaluru, Karnataka, India"}, "vicinity": "opp. Shriram Samruddhi Apartments, 673/a, varthur Main Road,near Kundanahalii Signal, opp. Shriram Samruddhi Apartments, Apts, Bengaluru", "scope": "GOOGLE", "business_status": "OPERATIONAL", "types": ["doctor", "health", "point_of_interest", "establishment"], "icon": "https://maps.gstatic.com/mapfiles/place_api/icons/v1/png_71/generic_business-71.png"}, {"name": "Dr. RAGHAVENDRA V - Best Surgeon near me in Marathahalli", "reference": "ChIJa6gOAjwSrjsRiUNKMQ5PHpk", "geometry": {"location": {"lat": 12.9560793, "lng": 77.69427519999999}, "viewport": {"northeast": {"lat": 12.9574824302915, "lng": 77.69561718029149}, "southwest": {"lat": 12.9547844697085, "lng": 77.69291921970849}}}, "opening_hours": {"open_now": false}, "place_id": "ChIJa6gOAjwSrjsRiUNKMQ5PHpk", "plus_code": {"global_code": "7J4VXM4V+CP", "compound_code": "XM4V+CP Bengaluru, Karnataka, India"}, "vicinity": "opp. Shriram Samruddhi Apartments, 673/a, varthur Main Road,near Kundanahalii Signal, opp. Shriram Samruddhi Apartments, Apts, Bengaluru", "scope": "GOOGLE", "business_status": "OPERATIONAL", "types": ["doctor", "health", "point_of_interest", "establishment"], "icon": "https://maps.gstatic.com/mapfiles/place_api/icons/v1/png_71/generic_business-71.png"}, {"name": "Dr. Dhana Lakshmi B - Best Radiologist near me in Marathahalli", "reference": "ChIJa6gOAjwSrjsRlCDhh803DK4", "geometry": {"location": {"lat": 12.9560793, "lng": 77.69427519999999}, "viewport": {"northeast": {"lat": 12.9574824302915, "lng": 77.69561718029149}, "southwest": {"lat": 12.9547844697085, "lng": 77.69291921970849}}}, "opening_hours": {"open_now": false}, "place_id": "ChIJa6gOAjwSrjsRlCDhh803DK4", "plus_code": {"global_code": "7J4VXM4V+CP", "compound_code": "XM4V+CP Bengaluru, Karnataka, India"}, "vicinity": "opp. Shriram Samruddhi Apartments, 673/a, varthur Main Road,near Kundanahalii Signal, opp. Shriram Samruddhi Apartments, Apts, Bengaluru", "scope": "GOOGLE", "business_status": "OPERATIONAL", "types": ["doctor", "health", "point_of_interest", "establishment"], "icon": "https://maps.gstatic.com/mapfiles/place_api/icons/v1/png_71/generic_business-71.png"}, {"name": "Dr. DILSHAD ROHINTON VEVAI - Best Ophthalmologist near me in Marathahalli", "reference": "ChIJa6gOAjwSrjsRUSzuLNivbSs", "geometry": {"location": {"lat": 12.9560793, "lng": 77.69427519999999}, "viewport": {"northeast": {"lat": 12.9574824302915, "lng": 77.69561718029149}, "southwest": {"lat": 12.9547844697085, "lng": 77.69291921970849}}}, "opening_hours": {"open_now": false}, "place_id": "ChIJa6gOAjwSrjsRUSzuLNivbSs", "plus_code": {"global_code": "7J4VXM4V+CP", "compound_code": "XM4V+CP Bengaluru, Karnataka, India"}, "vicinity": "opp. Shriram Samruddhi Apartments, 673/a, varthur Main Road,near Kundanahalii Signal, opp. Shriram Samruddhi Apartments, Apts, Bengaluru", "scope": "GOOGLE", "business_status": "OPERATIONAL", "types": ["doctor", "health", "point_of_interest", "establishment"], "icon": "https://maps.gstatic.com/mapfiles/place_api/icons/v1/png_71/generic_business-71.png"}, {"name": "Dr. KESHAV PAI", "reference": "ChIJMa0t1lkTrjsRo_cuDtli1ZQ", "geometry": {"location": {"lat": 12.9560793, "lng": 77.69427519999999}, "viewport": {"northeast": {"lat": 12.9574824302915, "lng": 77.69561718029149}, "southwest": {"lat": 12.9547844697085, "lng": 77.69291921970849}}}, "opening_hours": {"open_now": false}, "place_id": "ChIJMa0t1lkTrjsRo_cuDtli1ZQ", "plus_code": {"global_code": "7J4VXM4V+CP", "compound_code": "XM4V+CP Bengaluru, Karnataka, India"}, "vicinity": "Loc ID 3904, Apollo Clinic Marathahalli 673/a, varthur Main Road,near Kundanahalii Signal, opp.shriram Samruddhi Apts, Bengaluru", "scope": "GOOGLE", "business_status": "OPERATIONAL", "types": ["doctor", "health", "point_of_interest", "establishment"], "icon": "https://maps.gstatic.com/mapfiles/place_api/icons/v1/png_71/generic_business-71.png"}, {"rating": 5, "user_ratings_total": 5, "name": "Dr. Shashidhar Matta - Best Gastroenterologist near me in Marathahalli", "reference": "ChIJa6gOAjwSrjsRfs69udxiJl0", "geometry": {"location": {"lat": 12.9560793, "lng": 77.69427519999999}, "viewport": {"northeast": {"lat": 12.9574824302915, "lng": 77.69561718029149}, "southwest": {"lat": 12.9547844697085, "lng": 77.69291921970849}}}, "opening_hours": {"open_now": false}, "place_id": "ChIJa6gOAjwSrjsRfs69udxiJl0", "plus_code": {"global_code": "7J4VXM4V+CP", "compound_code": "XM4V+CP Bengaluru, Karnataka, India"}, "vicinity": "Signal, near Kundanahalii, 673/a, Varthur Road, Whitefield, Bengaluru", "scope": "GOOGLE", "business_status": "OPERATIONAL", "types": ["doctor", "health", "point_of_interest", "establishment"], "icon": "https://maps.gstatic.com/mapfiles/place_api/icons/v1/png_71/generic_business-71.png"}, {"rating": 5, "user_ratings_total": 1, "name": "Pediatric Gastroenterology Services/SrikanthKP", "reference": "ChIJnXAVg7wTrjsR-nXp55VV7LM", "geometry": {"location": {"lat": 12.9540219, "lng": 77.6831195}, "viewport": {"northeast": {"lat": 12.9556466302915, "lng": 77.6844418302915}, "southwest": {"lat": 12.9529486697085, "lng": 77.6817438697085}}}, "opening_hours": {"open_now": false}, "place_id": "ChIJnXAVg7wTrjsR-nXp55VV7LM", "plus_code": {"global_code": "7J4VXM3M+J6", "compound_code": "XM3M+J6 Bengaluru, Karnataka, India"}, "vicinity": "HAL Old Airport Road, ManipalHospitals, Bengaluru", "photos": [{"photo_reference": "ATtYBwKtmqFzYuAAtZf19D3TI6I4_Jd-zAmx4_ACR66c_2DmkAgZ3ZzgghlpdygC27lWWqxxMGURKP1T-Wrlza0lg1ckG2iroZMZlmN9yK9F0YraIB3s_mSx4lCFYF21mnqKbrtAiZmYcD4xyOlHWKa2R5FwMno9VcvwVzGSF_k35jWtKESR", "width": 584, "html_attributions": ["<a href=\"https://maps.google.com/maps/contrib/103237124317948539559\">Pediatric Gastroenterology Services/SrikanthKP</a>"], "height": 828}], "scope": "GOOGLE", "business_status": "OPERATIONAL", "types": ["doctor", "health", "point_of_interest", "establishment"], "icon": "https://maps.gstatic.com/mapfiles/place_api/icons/v1/png_71/generic_business-71.png"}, {"rating": 4, "user_ratings_total": 1, "name": "Little Flower Bakery & Home Needs", "reference": "ChIJs4H1YMsTrjsRFWFxOr0IMzA", "geometry": {"location": {"lat": 12.952717, "lng": 77.698177}, "viewport": {"northeast": {"lat": 12.9540639302915, "lng": 77.6995577302915}, "southwest": {"lat": 12.9513659697085, "lng": 77.6968597697085}}}, "opening_hours": {"open_now": false}, "place_id": "ChIJs4H1YMsTrjsRFWFxOr0IMzA", "plus_code": {"global_code": "7J4VXM3X+37", "compound_code": "XM3X+37 Bengaluru, Karnataka, India"}, "vicinity": "Tulasi Theatre Road, Marathahalli Village, Marathahalli, Bengaluru", "scope": "GOOGLE", "business_status": "OPERATIONAL", "types": ["bakery", "doctor", "food", "health", "point_of_interest", "store", "establishment"], "icon": "https://maps.gstatic.com/mapfiles/place_api/icons/v1/png_71/shopping-71.png"}, {"name": "Bharathi Dr", "reference": "ChIJAQAAAMsTrjsRJLbk2uUY1SE", "geometry": {"location": {"lat": 12.9481446, "lng": 77.6812824}, "viewport": {"northeast": {"lat": 12.9494897302915, "lng": 77.6826437802915}, "southwest": {"lat": 12.9467917697085, "lng": 77.6799458197085}}}, "place_id": "ChIJAQAAAMsTrjsRJLbk2uUY1SE", "plus_code": {"global_code": "7J4VWMXJ+7G", "compound_code": "WMXJ+7G Bengaluru, Karnataka, India"}, "vicinity": "769 C Block, Itpl Kundalahalli, 2nd Main, Marathahalli, Bengaluru", "scope": "GOOGLE", "business_status": "OPERATIONAL", "types": ["doctor", "health", "point_of_interest", "establishment"], "icon": "https://maps.gstatic.com/mapfiles/place_api/icons/v1/png_71/generic_business-71.png"}, {"rating": 5, "user_ratings_total": 3, "name": "Vascular and endovascular surgeon in Bangalore", "reference": "ChIJUy8S-XQTrjsRaV_U2JPUf8M", "geometry": {"location": {"lat": 12.954579, "lng": 77.6823063}, "viewport": {"northeast": {"lat": 12.9559440302915, "lng": 77.6836853302915}, "southwest": {"lat": 12.9532460697085, "lng": 77.68098736970849}}}, "opening_hours": {"open_now": true}, "place_id": "ChIJUy8S-XQTrjsRaV_U2JPUf8M", "plus_code": {"global_code": "7J4VXM3J+RW", "compound_code": "XM3J+RW Bengaluru, Karnataka, India"}, "vicinity": "Manipal hospital Located in old airport Road Opposite to Leela Palace, the most successful hospital in The city, Bengaluru", "photos": [{"photo_reference": "ATtYBwL34SeT-AaErxOM8nKZAF5iSrUJrTkU5LF5akflZyBrxLUDMnFjVCCTD5Ex0GavOLpaC_L3z5YYKR7XfAnalIK21TIjKe8a7Zzuh0Z7qNXr4shEvVxZKmZWKygPhTrHlnvr2WFNVlFpmMu-KD4yM0WEPI7m1Nv3rzv73o1WL3-J5ooX", "width": 961, "html_attributions": ["<a href=\"https://maps.google.com/maps/contrib/114513126785198010463\">Vascular and endovascular surgeon in Bangalore</a>"], "height": 541}], "scope": "GOOGLE", "business_status": "OPERATIONAL", "types": ["doctor", "health", "point_of_interest", "establishment"], "icon": "https://maps.gstatic.com/mapfiles/place_api/icons/v1/png_71/generic_business-71.png"}, {"rating": 5, "user_ratings_total": 2, "name": "Prana Homeopathy | Diet | Meditation", "reference": "ChIJPTBcVL8TrjsRyC1mYCQPGeQ", "geometry": {"location": {"lat": 12.9452315, "lng": 77.68229629999999}, "viewport": {"northeast": {"lat": 12.9466103802915, "lng": 77.6836554302915}, "southwest": {"lat": 12.9439124197085, "lng": 77.68095746970849}}}, "opening_hours": {"open_now": true}, "place_id": "ChIJPTBcVL8TrjsRyC1mYCQPGeQ", "plus_code": {"global_code": "7J4VWMWJ+3W", "compound_code": "WMWJ+3W Bengaluru, Karnataka, India"}, "vicinity": "7th Cross Road, Yemalur, Bellandur, Bengaluru", "photos": [{"photo_reference": "ATtYBwInYsjiCywCCsAIxJe6jYbrNc7IbayoQwkL_D6-j3fZhj106TE4iNjEb-vdgrJP0uqU5f9ByFE4-0XZf6MhM954s2yWPnpPluU8fBWjWe9j4k5bQBW5XiqE4yilx5NR5alzpCCXi4-I30wyNHINM8VX5AAc9HFBG47mz4LvLZcvsGhj", "width": 4608, "html_attributions": ["<a href=\"https://maps.google.com/maps/contrib/112753377100718740212\">Deepak Sharma</a>"], "height": 3456}], "scope": "GOOGLE", "business_status": "OPERATIONAL", "types": ["doctor", "health", "point_of_interest", "establishment"], "icon": "https://maps.gstatic.com/mapfiles/place_api/icons/v1/png_71/generic_business-71.png"}, {"name": "Guru Krupaa Ayurvedic Clinic", "reference": "ChIJ8_9Pj8wTrjsR3BBPAsuYQyk", "geometry": {"location": {"lat": 12.9558905, "lng": 77.6969597}, "viewport": {"northeast": {"lat": 12.9572723802915, "lng": 77.6983130802915}, "southwest": {"lat": 12.9545744197085, "lng": 77.69561511970849}}}, "opening_hours": {"open_now": true}, "place_id": "ChIJ8_9Pj8wTrjsR3BBPAsuYQyk", "plus_code": {"global_code": "7J4VXM4W+9Q", "compound_code": "XM4W+9Q Bengaluru, Karnataka, India"}, "vicinity": "754, 1st Cross Road, Marathahalli Village, Marathahalli, Bengaluru", "scope": "GOOGLE", "business_status": "OPERATIONAL", "types": ["doctor", "health", "point_of_interest", "establishment"], "icon": "https://maps.gstatic.com/mapfiles/place_api/icons/v1/png_71/generic_business-71.png"}, {"rating": 4.3, "user_ratings_total": 182, "name": "Mannat Fertility Clinic & IVF Centre", "reference": "ChIJ375XMjUSrjsRi5M9qTyAubo", "geometry": {"location": {"lat": 12.9515445, "lng": 77.6994021}, "viewport": {"northeast": {"lat": 12.9528934802915, "lng": 77.70075108029151}, "southwest": {"lat": 12.9501955197085, "lng": 77.69805311970849}}}, "opening_hours": {"open_now": true}, "place_id": "ChIJ375XMjUSrjsRi5M9qTyAubo", "plus_code": {"global_code": "7J4VXM2X+JQ", "compound_code": "XM2X+JQ Bengaluru, Karnataka, India"}, "vicinity": "90/2, 2nd Floor ORR, Road, Marathahalli, Bengaluru", "photos": [{"photo_reference": "ATtYBwJVNG41PbNn2EWnCtIY3U6ZWk4YOxU2clyiVfX7nK-kMg8tM42dN4CWWKayWqn00O8pQvfnzu1Sfsg5fOMZQn-isxqaXwehNNEUUM8aE4D70G8a7G_shCUZlcJPsQp_3wcBTafHANMEIdoyr7iWHUCqXfnC1rFSj8Z_sVD4E_PKGp8r", "width": 2048, "html_attributions": ["<a href=\"https://maps.google.com/maps/contrib/116390781191860866726\">Mannat Fertility Clinic &amp; IVF Centre</a>"], "height": 1365}], "scope": "GOOGLE", "business_status": "OPERATIONAL", "types": ["hospital", "doctor", "health", "point_of_interest", "establishment"], "icon": "https://maps.gstatic.com/mapfiles/place_api/icons/v1/png_71/generic_business-71.png"}, {"rating": 4.9, "user_ratings_total": 8, "name": "Gynecologist | Gynaecologist | Obstetrician | Pediatrician | IVF Bangalore", "reference": "ChIJKxqFZCsTrjsRj5u5n0GNzxY", "geometry": {"location": {"lat": 12.9516917, "lng": 77.6994828}, "viewport": {"northeast": {"lat": 12.9530305302915, "lng": 77.7008762302915}, "southwest": {"lat": 12.9503325697085, "lng": 77.69817826970849}}}, "opening_hours": {"open_now": true}, "place_id": "ChIJKxqFZCsTrjsRj5u5n0GNzxY", "plus_code": {"global_code": "7J4VXM2X+MQ", "compound_code": "XM2X+MQ Bengaluru, Karnataka, India"}, "vicinity": "2nd Floor ORR, Road, Marathahalli, Bengaluru", "photos": [{"photo_reference": "ATtYBwLpB5_b4zu7de6c7miki8dJgDMYtn_Q8IDBCj2a9Q9LwrUKleq1ubqnNIWJ0TfgR0D_NMH8i5s8NsM9y2jkpXlZi3RcDIRqmSa6MjGbw86gEzdWDeqAMm2SJpsLOwimx_h1HKXDwuKfChpPeEmT6ItBhzU0lw6K7BaktiuACC4cHxjx", "width": 880, "html_attributions": ["<a href=\"https://maps.google.com/maps/contrib/116083236612890017769\">Gynecologist | Gynaecologist | Obstetrician | Pediatrician | IVF Bangalore</a>"], "height": 462}], "scope": "GOOGLE", "business_status": "OPERATIONAL", "types": ["doctor", "health", "point_of_interest", "establishment"], "icon": "https://maps.gstatic.com/mapfiles/place_api/icons/v1/png_71/generic_business-71.png"}, {"rating": 5, "user_ratings_total": 1, "name": "Dr Srivani", "reference": "ChIJb9Ajgw4TrjsRiMYyg4Ujsh4", "geometry": {"location": {"lat": 12.9487191, "lng": 77.69959360000001}, "viewport": {"northeast": {"lat": 12.9500843302915, "lng": 77.7008677802915}, "southwest": {"lat": 12.9473863697085, "lng": 77.6981698197085}}}, "place_id": "ChIJb9Ajgw4TrjsRiMYyg4Ujsh4", "plus_code": {"global_code": "7J4VWMXX+FR", "compound_code": "WMXX+FR Bengaluru, Karnataka, India"}, "vicinity": "Kasavanahalli Village, Marathahalli, Bengaluru", "scope": "GOOGLE", "business_status": "OPERATIONAL", "types": ["doctor", "health", "point_of_interest", "establishment"], "icon": "https://maps.gstatic.com/mapfiles/place_api/icons/v1/png_71/generic_business-71.png"}, {"rating": 5, "user_ratings_total": 1, "name": "Gynecologist in Bangalore - IVF Treatment & Centre", "reference": "ChIJj6AcWfYTrjsRLSP5oGl7w0s", "geometry": {"location": {"lat": 12.9515716, "lng": 77.6995871}, "viewport": {"northeast": {"lat": 12.9529117802915, "lng": 77.7009876302915}, "southwest": {"lat": 12.9502138197085, "lng": 77.69828966970849}}}, "opening_hours": {"open_now": true}, "place_id": "ChIJj6AcWfYTrjsRLSP5oGl7w0s", "plus_code": {"global_code": "7J4VXM2X+JR", "compound_code": "XM2X+JR Bengaluru, Karnataka, India"}, "vicinity": "near Innovative Multiplex, Kishan Icon 90/2, 2nd Floor, near Innovative Multiplex, Marathahalli - Sarjapur Outer Ring Road, Bengaluru", "scope": "GOOGLE", "business_status": "OPERATIONAL", "types": ["doctor", "health", "point_of_interest", "establishment"], "icon": "https://maps.gstatic.com/mapfiles/place_api/icons/v1/png_71/generic_business-71.png"}, {"rating": 4.3, "user_ratings_total": 48, "name": "Vishvas Fertility - Marathahalli", "reference": "ChIJyaqq8TASrjsRq069-ZfPPj4", "geometry": {"location": {"lat": 12.9490457, "lng": 77.69967439999999}, "viewport": {"northeast": {"lat": 12.9504097302915, "lng": 77.7009397802915}, "southwest": {"lat": 12.9477117697085, "lng": 77.6982418197085}}}, "opening_hours": {"open_now": false}, "place_id": "ChIJyaqq8TASrjsRq069-ZfPPj4", "plus_code": {"global_code": "7J4VWMXX+JV", "compound_code": "WMXX+JV Bengaluru, Karnataka, India"}, "vicinity": "89/2, 4th Floor NR Square, Next to Nandhana Palace Hotel Munnekolala, Outer Ring Road, Marathahalli, Bengaluru", "photos": [{"photo_reference": "ATtYBwL78Z6mlCvoRBgkS82PJ2LCDkTlF3cl33qKsGFyEiC74jhx9jBHqnx5filxqDrDU5ZyG3CKXb3_hjC7osHyRG1oF_SI7AmoOQnJ_CFXljjVtlQ86Eec1TqslYtE4PJIg87-9WRM6r6Lllq9_oaKe7wirNjPfC2VRhRdaOZveLRrTQqr", "width": 4128, "html_attributions": ["<a href=\"https://maps.google.com/maps/contrib/109937227041509407146\">BASAVARAJ DEVARASHETTY</a>"], "height": 2322}], "scope": "GOOGLE", "business_status": "OPERATIONAL", "types": ["doctor", "health", "point_of_interest", "establishment"], "icon": "https://maps.gstatic.com/mapfiles/place_api/icons/v1/png_71/generic_business-71.png"}]}