{"status": "OK", "html_attributions": [], "results": [{"rating": 4.8, "user_ratings_total": 22, "name": "WellnessVibes Multi-Speciality Clinic", "reference": "ChIJ_5o1bg1zrjsRlnZ_yLB_Z5c", "geometry": {"location": {"lat": 12.8701871, "lng": 77.7669289}, "viewport": {"northeast": {"lat": 12.8715361802915, "lng": 77.76814838029149}, "southwest": {"lat": 12.8688382197085, "lng": 77.76545041970849}}}, "opening_hours": {"open_now": true}, "place_id": "ChIJ_5o1bg1zrjsRlnZ_yLB_Z5c", "plus_code": {"global_code": "7J4VVQC8+3Q", "compound_code": "VQC8+3Q Bengaluru, Karnataka, India"}, "vicinity": "1st Floor, RJ Complex, Yamare Sarjapur Road, Post, Dommasandra, Bengaluru", "photos": [{"photo_reference": "ATtYBwKYm1ogufKOfaXpN_O09JG0cHVNoGxRgDP6-n9m7c3_sc9eRplR6HrnwlFJAXvLWz0C_bVe7JVjfW1QhIhY2RjGIAYBJ_DXSUnQkvKGV7veHdB0LlLtlgPbQzo9bM5jJ8TiOVNK0FRxBf3Knfan-xqxrn8L3Nt-blZauXvEcNqWZ-2Q", "width": 4000, "html_attributions": ["<a href=\"https://maps.google.com/maps/contrib/112895834527244348689\">WellnessVibes Multi-Speciality Clinic</a>"], "height": 3000}], "scope": "GOOGLE", "business_status": "OPERATIONAL", "types": ["physiotherapist", "doctor", "dentist", "health", "point_of_interest", "establishment"], "icon": "https://maps.gstatic.com/mapfiles/place_api/icons/v1/png_71/generic_business-71.png"}, {"rating": 5, "user_ratings_total": 1, "name": "Dr. Geetha S MBBS, DNB Obstetrics & Gynecology (WellnessVibes Clinic)", "reference": "ChIJr2sf7lETrjsRbG2pS1Hs_Hw", "geometry": {"location": {"lat": 12.8701761, "lng": 77.7669104}, "viewport": {"northeast": {"lat": 12.8715250802915, "lng": 77.7682593802915}, "southwest": {"lat": 12.8688271197085, "lng": 77.76556141970849}}}, "opening_hours": {"open_now": false}, "place_id": "ChIJr2sf7lETrjsRbG2pS1Hs_Hw", "plus_code": {"global_code": "7J4VVQC8+3Q", "compound_code": "VQC8+3Q Bengaluru, Karnataka, India"}, "vicinity": "Dommasandra Post Yamare, Marathahalli - Sarjapur Road, Bengaluru", "photos": [{"photo_reference": "ATtYBwIHJMYz5fL47XvzfLqhps1ecWM4ElP4fTsIz27oDHnwAOOT_o8NNyB46GqoblqcBRFs6Zd0Gf8zRwVZK5HiHomP-0euqWdxOPhVuWeXM9Qdr12zT8-Rss909CJw_yz8MVsymEplsHUA1HjHD8WYjNC3-G9VM1Xa2B-w_kcynMLaG0iB", "width": 827, "html_attributions": ["<a href=\"https://maps.google.com/maps/contrib/105521037540435581065\">Dr. Geetha S MBBS, DNB Obstetrics &amp; Gynecology (WellnessVibes Clinic)</a>"], "height": 392}], "scope": "GOOGLE", "business_status": "OPERATIONAL", "types": ["doctor", "health", "point_of_interest", "establishment"], "icon": "https://maps.gstatic.com/mapfiles/place_api/icons/v1/png_71/generic_business-71.png"}, {"rating": 5, "user_ratings_total": 2, "name": "A.R Moter Service.", "reference": "ChIJb0MTtLhyrjsRT13Dww6nm-c", "geometry": {"location": {"lat": 12.8683184, "lng": 77.7669587}, "viewport": {"northeast": {"lat": 12.8696459302915, "lng": 77.7682405802915}, "southwest": {"lat": 12.8669479697085, "lng": 77.76554261970848}}}, "opening_hours": {"open_now": true}, "place_id": "ChIJb0MTtLhyrjsRT13Dww6nm-c", "plus_code": {"global_code": "7J4VVQ98+8Q", "compound_code": "VQ98+8Q Kada Agrahara, Karnataka, India"}, "vicinity": "M, State Highway 35, Kada Agrahara", "photos": [{"photo_reference": "ATtYBwJJrgy1plb6h7aM8-Zbwu9KfeYnXu0uZ78RMR3MtBlsndDxO7HZzok2kngo2aRXnHhnPNrksWAcMNXoIxeQW3l4OB02YI10e6cEHVq_IaIE2GCHHsOoAcwRc_gjKZE31VWkADE9AEhTcvqM0whmYBO_f_vMNAO5XR7Yzw-2lwegtKNf", "width": 3264, "html_attributions": ["<a href=\"https://maps.google.com/maps/contrib/104877415189778281945\">Syed Waseem</a>"], "height": 2448}], "scope": "GOOGLE", "business_status": "OPERATIONAL", "types": ["doctor", "health", "point_of_interest", "establishment"], "icon": "https://maps.gstatic.com/mapfiles/place_api/icons/v1/png_71/generic_business-71.png"}, {"rating": 3.3, "user_ratings_total": 7, "name": "Life Diagnostics centre", "reference": "ChIJlx5UhRlzrjsRAI4S0EgQjg0", "geometry": {"location": {"lat": 12.8708928, "lng": 77.7663043}, "viewport": {"northeast": {"lat": 12.8721395302915, "lng": 77.76772828029151}, "southwest": {"lat": 12.8694415697085, "lng": 77.76503031970849}}}, "opening_hours": {"open_now": true}, "place_id": "ChIJlx5UhRlzrjsRAI4S0EgQjg0", "plus_code": {"global_code": "7J4VVQC8+9G", "compound_code": "VQC8+9G Bengaluru, Karnataka, India"}, "vicinity": "Yamare Sarjapur a main road Anekal, taluk, Bengaluru", "photos": [{"photo_reference": "ATtYBwK8DHMIs7FAZWPjnoXiSw9aSHxSmdYrr45dVwxgI17w5PG8JB_wjRbrE0U1rc_kARKO7qpRkMRWCt-X2rCK-JFWvvlHseMLxvbuOhNXL7VQsNaUw2aifhTuvaA-LuAXy4b57Pxgs4BfY9AtP0SOND8dfczNnqvjaRq7rXFD8pXDYvlO", "width": 886, "html_attributions": ["<a href=\"https://maps.google.com/maps/contrib/113415339488020260656\">Life Diagnostics centre</a>"], "height": 1280}], "scope": "GOOGLE", "business_status": "OPERATIONAL", "types": ["physiotherapist", "doctor", "dentist", "health", "point_of_interest", "establishment"], "icon": "https://maps.gstatic.com/mapfiles/place_api/icons/v1/png_71/generic_business-71.png"}, {"rating": 5, "user_ratings_total": 2, "name": "Health Bear children's clinic", "reference": "ChIJgU9v_cpzrjsRE6_xSAkyGPQ", "geometry": {"location": {"lat": 12.8641379, "lng": 77.7698308}, "viewport": {"northeast": {"lat": 12.8654868802915, "lng": 77.7711797802915}, "southwest": {"lat": 12.8627889197085, "lng": 77.76848181970848}}}, "opening_hours": {"open_now": true}, "place_id": "ChIJgU9v_cpzrjsRE6_xSAkyGPQ", "plus_code": {"global_code": "7J4VVQ79+MW", "compound_code": "VQ79+MW Bengaluru, Karnataka, India"}, "vicinity": "opposite HP petrolbunk, Near Sompura gate, opposite HP petrolbunk, Bengaluru", "photos": [{"photo_reference": "ATtYBwJ2HSRSa5YZaZsg1g4mjz0EvEtlsjk5o2-9oDaf3rahKiwo8Xduq_LN22VI3BgOs4EIwZBtldUnxY3dNruXypyG2FQrqugGfLQ1pq2TZNPKZRKi3AI52yR5Y6gs8hhOfK7_g5HXLKAi_lxnlxJRdh1CGe6qycHtbZg9wa9LF7irN3kT", "width": 4160, "html_attributions": ["<a href=\"https://maps.google.com/maps/contrib/110496727555317592580\">Health Bear children&#39;s clinic</a>"], "height": 3120}], "scope": "GOOGLE", "business_status": "OPERATIONAL", "types": ["doctor", "health", "point_of_interest", "establishment"], "icon": "https://maps.gstatic.com/mapfiles/place_api/icons/v1/png_71/generic_business-71.png"}, {"rating": 5, "user_ratings_total": 1, "name": "Renuka Munireddy Homeo Clinic", "reference": "ChIJFTFYILJzrjsR3srbtRGj7kY", "geometry": {"location": {"lat": 12.8633554, "lng": 77.7646506}, "viewport": {"northeast": {"lat": 12.8647492302915, "lng": 77.76600923029152}, "southwest": {"lat": 12.8620512697085, "lng": 77.76331126970851}}}, "place_id": "ChIJFTFYILJzrjsR3srbtRGj7kY", "plus_code": {"global_code": "7J4VVQ77+8V", "compound_code": "VQ77+8V Kada Agrahara, Karnataka, India"}, "vicinity": "Kada Agrahara Road, Kada Agrahara", "photos": [{"photo_reference": "ATtYBwJZmWrrI-Ps3bUCsGYRRmz45mTsiusiBSMHRN7LcqwS-sIyTiTpwelPDTRCNAajw8AS2D5NKdOPy3HbIZUzMtMY4GCUzDhHnQOHZyFjzc83xv4an0i9jekzKUmn-kX5GP39zM5Sw8ODfInRfPlwOMK-RTs7AD_4R01wFipS8VyrAEkR", "width": 4160, "html_attributions": ["<a href=\"https://maps.google.com/maps/contrib/106471322817332688316\">Amit - Through Regular Life</a>"], "height": 3120}], "scope": "GOOGLE", "business_status": "OPERATIONAL", "types": ["doctor", "health", "point_of_interest", "establishment"], "icon": "https://maps.gstatic.com/mapfiles/place_api/icons/v1/png_71/generic_business-71.png"}, {"name": "Thyrocare Sarjapur | Home Collection Service", "reference": "ChIJlxQ0zExzrjsRwRx1IyjcTT4", "geometry": {"location": {"lat": 12.8584613, "lng": 77.7648323}, "viewport": {"northeast": {"lat": 12.8598102802915, "lng": 77.7661812802915}, "southwest": {"lat": 12.8571123197085, "lng": 77.7634833197085}}}, "opening_hours": {"open_now": true}, "place_id": "ChIJlxQ0zExzrjsRwRx1IyjcTT4", "plus_code": {"global_code": "7J4VVQ57+9W", "compound_code": "VQ57+9W Bengaluru, Karnataka, India"}, "vicinity": "peninsula prakruthi phase 2 , villa 146, Bengaluru", "photos": [{"photo_reference": "ATtYBwI1FsILX1OyCfigzIIBwo_UJFY7iEQ4tQp0bYTnp3Fear7ui2bJk4XgTxTAc2sfK3d3MjZUHRWtcD5Twlarut0qvAlDQy-_B7hHoSTUjlx26gPHIaDWdfm7F-K0kdf8sjOcL-YSIGAeR1R2ZJXhPZEjpQlw5lhr0nc9LqnmqZqS3NhZ", "width": 900, "html_attributions": ["<a href=\"https://maps.google.com/maps/contrib/116401284398976611835\">Thyrocare Sarjapur | Home Collection Service</a>"], "height": 528}], "scope": "GOOGLE", "business_status": "OPERATIONAL", "types": ["doctor", "health", "point_of_interest", "establishment"], "icon": "https://maps.gstatic.com/mapfiles/place_api/icons/v1/png_71/generic_business-71.png"}]}