{"status": "OK", "html_attributions": [], "results": [{"name": "shivaborewell", "reference": "ChIJZXGDf1A9rjsRbrPuqgO1qn0", "geometry": {"location": {"lat": 12.9701625, "lng": 77.4952175}, "viewport": {"northeast": {"lat": 12.9715332302915, "lng": 77.49657103029149}, "southwest": {"lat": 12.9688352697085, "lng": 77.49387306970848}}}, "opening_hours": {"open_now": true}, "place_id": "ChIJZXGDf1A9rjsRbrPuqgO1qn0", "plus_code": {"global_code": "7J4VXFCW+33", "compound_code": "XFCW+33 Bengaluru, Karnataka, India"}, "vicinity": "Mudinapalya haluvenkataramanappacircal, Vishweshwaraiah Layout, 7th \u0cac\u0ccd\u0cb2\u0cbe\u0c97\u0ccd, Bengaluru", "photos": [{"photo_reference": "ATtYBwK__CF9UVzX2Jd9eSOTpHhZSYE59R9Z-lHT0Pu-BqwwGuY4AVrKcO75g9Pz2IJRryBznbk41JbVokGzhvMDIr3md9L2GNhmtFaChy137xE5mFj7dcVq9YS6ZSundSsMkbMt7oxaGyUOchHvKUuC_WCa-c6Fk-PD3Y1Xm_Z1D5HZzU47", "width": 1080, "html_attributions": ["<a href=\"https://maps.google.com/maps/contrib/107427715041033041764\">Manju manju Manju manju</a>"], "height": 1920}], "scope": "GOOGLE", "business_status": "OPERATIONAL", "types": ["doctor", "health", "point_of_interest", "establishment"], "icon": "https://maps.gstatic.com/mapfiles/place_api/icons/v1/png_71/generic_business-71.png"}, {"rating": 5, "user_ratings_total": 1, "name": "Sonu_Samskruti_Clinic", "reference": "ChIJsWZ5Bxs8rjsRyzw5b2-K0e8", "geometry": {"location": {"lat": 12.970003, "lng": 77.484385}, "viewport": {"northeast": {"lat": 12.9713652302915, "lng": 77.4856947802915}, "southwest": {"lat": 12.9686672697085, "lng": 77.48299681970849}}}, "place_id": "ChIJsWZ5Bxs8rjsRyzw5b2-K0e8", "plus_code": {"global_code": "7J4VXFCM+2Q", "compound_code": "XFCM+2Q Bengaluru, Karnataka, India"}, "vicinity": "198, Vishweshwarayya Layout 7th Block, Muddayanapalya, Byregowda Layout, Annapurneshwari Nagar, Bengaluru", "scope": "GOOGLE", "business_status": "OPERATIONAL", "types": ["doctor", "health", "point_of_interest", "establishment"], "icon": "https://maps.gstatic.com/mapfiles/place_api/icons/v1/png_71/generic_business-71.png"}, {"name": "Dr Harsha R - Sai Poly Clinic", "reference": "ChIJL0tsu4M9rjsRHPoGQjD7wB8", "geometry": {"location": {"lat": 12.970116, "lng": 77.4962737}, "viewport": {"northeast": {"lat": 12.9714290302915, "lng": 77.49761793029151}, "southwest": {"lat": 12.9687310697085, "lng": 77.4949199697085}}}, "opening_hours": {"open_now": false}, "place_id": "ChIJL0tsu4M9rjsRHPoGQjD7wB8", "plus_code": {"global_code": "7J4VXFCW+2G", "compound_code": "XFCW+2G Bengaluru, Karnataka, India"}, "vicinity": "next to Reliance Fresh, Akshaya Sai Lakeview , Muddinapalya Road, next to Reliance Fresh, Vinayaka Layout, Annapoorneshwari Nagar, Naagarabhaavi, Bengaluru", "scope": "GOOGLE", "business_status": "OPERATIONAL", "types": ["doctor", "health", "point_of_interest", "establishment"], "icon": "https://maps.gstatic.com/mapfiles/place_api/icons/v1/png_71/generic_business-71.png"}, {"rating": 5, "user_ratings_total": 12, "name": "Dr.Bharath's Diabetes centre & Family Clinic", "reference": "ChIJhRyEPSM8rjsRgF58SSXTvp0", "geometry": {"location": {"lat": 12.9723858, "lng": 77.4969297}, "viewport": {"northeast": {"lat": 12.9737263802915, "lng": 77.4983215302915}, "southwest": {"lat": 12.9710284197085, "lng": 77.4956235697085}}}, "opening_hours": {"open_now": false}, "place_id": "ChIJhRyEPSM8rjsRgF58SSXTvp0", "plus_code": {"global_code": "7J4VXFCW+XQ", "compound_code": "XFCW+XQ Bengaluru, Karnataka, India"}, "vicinity": "#1961, 6th Main Road, D-Group Layout, Srigandada Kaval, Annapurneshwari Nagar, Bengaluru", "photos": [{"photo_reference": "ATtYBwIGAQfBBhFfCPpL69twzXxvmK2gs1pLTg6cDBM5JHq626dbIXzWYfhBS_SXqbQvPZchL0wy6Xt2qDRgiSqgMGzATbBFGGmuHnTDNSRE4i0gfwlcDq7hXgGcUk8JdUq_Lg6LXQkJJu3w5V7QKWlDI9ORXlCKcUIIJqtjBAfB1WA_5xRH", "width": 2048, "html_attributions": ["<a href=\"https://maps.google.com/maps/contrib/115006564458313229209\">Dr.Bharath&#39;s Diabetes centre &amp; Family Clinic</a>"], "height": 1536}], "scope": "GOOGLE", "business_status": "OPERATIONAL", "types": ["doctor", "health", "point_of_interest", "establishment"], "icon": "https://maps.gstatic.com/mapfiles/place_api/icons/v1/png_71/generic_business-71.png"}, {"rating": 5, "user_ratings_total": 5, "name": "Dr SRINIVAS MASALEKAR.", "reference": "ChIJq1r-JxY8rjsRO-Vpyy8Y4xo", "geometry": {"location": {"lat": 12.9771294, "lng": 77.49312619999999}, "viewport": {"northeast": {"lat": 12.9784465302915, "lng": 77.4944751302915}, "southwest": {"lat": 12.9757485697085, "lng": 77.49177716970848}}}, "place_id": "ChIJq1r-JxY8rjsRO-Vpyy8Y4xo", "plus_code": {"global_code": "7J4VXFGV+V7", "compound_code": "XFGV+V7 Bengaluru, Karnataka, India"}, "vicinity": "#408, \"Aditya\", Laxmn teertha Road, Vishweshwaraiah layout extended 8th block, Gidada konena halli, Bangalore 91", "scope": "GOOGLE", "business_status": "OPERATIONAL", "types": ["doctor", "health", "point_of_interest", "establishment"], "icon": "https://maps.gstatic.com/mapfiles/place_api/icons/v1/png_71/generic_business-71.png"}, {"name": "Shree dental care", "reference": "ChIJWUt8Q-c9rjsRa0vQaN-ixvQ", "geometry": {"location": {"lat": 12.9777387, "lng": 77.4852033}, "viewport": {"northeast": {"lat": 12.9790944802915, "lng": 77.4865207302915}, "southwest": {"lat": 12.9763965197085, "lng": 77.4838227697085}}}, "place_id": "ChIJWUt8Q-c9rjsRa0vQaN-ixvQ", "plus_code": {"global_code": "7J4VXFHP+33", "compound_code": "XFHP+33 Bengaluru, Karnataka, India"}, "vicinity": "2nd A Main Rd, NGEF Layout,Mallathalli, mmmallPhase 1, Bedarahalli, Bengaluru", "scope": "GOOGLE", "business_status": "OPERATIONAL", "types": ["doctor", "health", "point_of_interest", "establishment"], "icon": "https://maps.gstatic.com/mapfiles/place_api/icons/v1/png_71/generic_business-71.png"}, {"rating": 5, "user_ratings_total": 1, "name": "Sai diabetes, diagnostics and polyclinic", "reference": "ChIJkZA7IjM_rjsROT8oQ4AyoSk", "geometry": {"location": {"lat": 12.9609184, "lng": 77.4893822}, "viewport": {"northeast": {"lat": 12.9622701302915, "lng": 77.4907216802915}, "southwest": {"lat": 12.9595721697085, "lng": 77.4880237197085}}}, "place_id": "ChIJkZA7IjM_rjsROT8oQ4AyoSk", "plus_code": {"global_code": "7J4VXF6Q+9Q", "compound_code": "XF6Q+9Q Bengaluru, Karnataka, India"}, "vicinity": "near RTO, #61, 16 cross NGEF LAYOUT balaji nagar, near RTO, HMT Layout, Mallathahalli, Bengaluru", "scope": "GOOGLE", "business_status": "OPERATIONAL", "types": ["doctor", "health", "point_of_interest", "establishment"], "icon": "https://maps.gstatic.com/mapfiles/place_api/icons/v1/png_71/generic_business-71.png"}, {"rating": 4.3, "user_ratings_total": 11, "name": "Shantha multi speciality hospital", "reference": "ChIJvcpJjT09rjsRw9wOWexLInA", "geometry": {"location": {"lat": 12.9789043, "lng": 77.48707139999999}, "viewport": {"northeast": {"lat": 12.9802596302915, "lng": 77.4883692302915}, "southwest": {"lat": 12.9775616697085, "lng": 77.48567126970849}}}, "place_id": "ChIJvcpJjT09rjsRw9wOWexLInA", "plus_code": {"global_code": "7J4VXFHP+HR", "compound_code": "XFHP+HR Bengaluru, Karnataka, India"}, "vicinity": "Venkateshwara Complex, No.87, Magadi Main Road, BEL Layout, 1st stage, Bengaluru", "photos": [{"photo_reference": "ATtYBwK_T6_DtjzDWVrdvlY3jnoqeACeo8zkkuewk9tQN40L0UQPS1FsKNuNqJFsr6Fv_Oq9393i5q6TnmvHOWGkcmrlNWdSFZgK-O6s8wwpDQv3XwGle2BMOVK1aXIUQDwZAOhYSWA7h1Pp12wyokt0UcH7wgzu5dHv4IrkKMBdul95oyGj", "width": 1840, "html_attributions": ["<a href=\"https://maps.google.com/maps/contrib/110803783817107697827\">\u0cb6\u0cbe\u0c82\u0ca4 \u0cae\u0cb2\u0ccd\u0c9f\u0cbf \u0cb8\u0ccd\u0caa\u0cc6\u0cb7\u0cbe\u0cb2\u0cbf\u0c9f\u0cbf \u0cb9\u0cbe\u0cb8\u0ccd\u0caa\u0cbf\u0c9f\u0cb2\u0ccd</a>"], "height": 4000}], "scope": "GOOGLE", "business_status": "OPERATIONAL", "types": ["doctor", "hospital", "health", "point_of_interest", "establishment"], "icon": "https://maps.gstatic.com/mapfiles/place_api/icons/v1/png_71/generic_business-71.png"}, {"rating": 5, "user_ratings_total": 44, "name": "MEN'S CLINIC sexologist HIV PEP Post exposure Prophylaxis", "reference": "ChIJk5qQMTE_rjsRVFLkhPKtTBM", "geometry": {"location": {"lat": 12.9608276, "lng": 77.48783929999999}, "viewport": {"northeast": {"lat": 12.9622117802915, "lng": 77.4892025802915}, "southwest": {"lat": 12.9595138197085, "lng": 77.4865046197085}}}, "opening_hours": {"open_now": true}, "place_id": "ChIJk5qQMTE_rjsRVFLkhPKtTBM", "plus_code": {"global_code": "7J4VXF6Q+84", "compound_code": "XF6Q+84 Bengaluru, Karnataka, India"}, "vicinity": "near Ullal RTO OFFICE, RTO office Road Ullal, near Ullal RTO OFFICE, Bengaluru", "photos": [{"photo_reference": "ATtYBwImRBWaSaX4m9AWRN2su8W6oJ8KL_2wwgn1FrMZRHBPKupEHE8SGkoXoRcV40WTNn65-LFNztHHyYfwJSghuBpX2e7RGG7slLKjdYN0cbiGVfKfQdoPfDxL9BrtA6EWwJDJM6gSvkPUR31aV0JgSAO07iRNcJj8WsnL_hMH57MlQkQR", "width": 1200, "html_attributions": ["<a href=\"https://maps.google.com/maps/contrib/100693899552048151601\">MEN&#39;S CLINIC sexologist HIV PEP Post exposure Prophylaxis</a>"], "height": 673}], "scope": "GOOGLE", "business_status": "OPERATIONAL", "types": ["doctor", "health", "point_of_interest", "establishment"], "icon": "https://maps.gstatic.com/mapfiles/place_api/icons/v1/png_71/generic_business-71.png"}, {"rating": 5, "user_ratings_total": 92, "name": "Specialist Women's Clinic Gynecologist", "reference": "ChIJEYH9EzQ_rjsRDEdU7iOFn1I", "geometry": {"location": {"lat": 12.960785, "lng": 77.48795109999999}, "viewport": {"northeast": {"lat": 12.9621670302915, "lng": 77.4893135802915}, "southwest": {"lat": 12.9594690697085, "lng": 77.48661561970849}}}, "opening_hours": {"open_now": false}, "place_id": "ChIJEYH9EzQ_rjsRDEdU7iOFn1I", "plus_code": {"global_code": "7J4VXF6Q+85", "compound_code": "XF6Q+85 Bengaluru, Karnataka, India"}, "vicinity": "Railway Mens Empyloyees Layout 2nd stage, SMV, Railway Layout, Jnana Ganga Nagar, Bengaluru", "photos": [{"photo_reference": "ATtYBwIctLTVnDevrthjmLq6WPHphbw7MP9JGR7Dnfiei1gVBPAtCSD79aWAAQPI3pslXNPMZf-Bh4D9Cihce9jVAjY5-KzeEcxJVC7adPqpr83sAmh_vetuwG6xvWEgDQxPlvn7WcbnXDVMn1nQEKLZoGFX0UBH1BIV3IUARHqXA6nspcsq", "width": 1200, "html_attributions": ["<a href=\"https://maps.google.com/maps/contrib/107312366584087220362\">Specialist Women&#39;s Clinic Gynecologist</a>"], "height": 673}], "scope": "GOOGLE", "business_status": "OPERATIONAL", "types": ["doctor", "health", "point_of_interest", "establishment"], "icon": "https://maps.gstatic.com/mapfiles/place_api/icons/v1/png_71/generic_business-71.png"}, {"rating": 4, "user_ratings_total": 1, "name": "Women's clinic sexologist", "reference": "ChIJBb1k_hk_rjsRuSHXx6j29_s", "geometry": {"location": {"lat": 12.9607851, "lng": 77.48795059999999}, "viewport": {"northeast": {"lat": 12.9621672302915, "lng": 77.4893130302915}, "southwest": {"lat": 12.9594692697085, "lng": 77.48661506970849}}}, "opening_hours": {"open_now": true}, "place_id": "ChIJBb1k_hk_rjsRuSHXx6j29_s", "plus_code": {"global_code": "7J4VXF6Q+85", "compound_code": "XF6Q+85 Bengaluru, Karnataka, India"}, "vicinity": "RTO office road, Bengaluru", "photos": [{"photo_reference": "ATtYBwJMFOBoNbtHjRmz6EuWQ--pKUjAVZzBMNdATJZIfl6TEO4VgVPp7Gcd_53mnp-plCDuxwn3GgmfWhMkOf_wpykhlLUddToPFchdtYclyVluIxnhZ13-4gLz6Swn9GmPvaVK122B45S_ytuH7YA6NftHjBMeE6f5extjc3OpEHYAuS4k", "width": 1440, "html_attributions": ["<a href=\"https://maps.google.com/maps/contrib/118414818341505681078\">Women&#39;s clinic sexologist</a>"], "height": 809}], "scope": "GOOGLE", "business_status": "OPERATIONAL", "types": ["doctor", "health", "point_of_interest", "establishment"], "icon": "https://maps.gstatic.com/mapfiles/place_api/icons/v1/png_71/generic_business-71.png"}, {"rating": 5, "user_ratings_total": 2, "name": "Siddhi Clinic & Physiotherapy Centre.", "reference": "ChIJ1S0fUHg9rjsR8wkxcDXQKsk", "geometry": {"location": {"lat": 12.9687696, "lng": 77.50003149999999}, "viewport": {"northeast": {"lat": 12.9701501302915, "lng": 77.5013957302915}, "southwest": {"lat": 12.9674521697085, "lng": 77.4986977697085}}}, "opening_hours": {"open_now": true}, "place_id": "ChIJ1S0fUHg9rjsR8wkxcDXQKsk", "plus_code": {"global_code": "7J4VXG92+G2", "compound_code": "XG92+G2 Bengaluru, Karnataka, India"}, "vicinity": "Mudda pakaya, #46, ITI Layout, Next to BengaluruTiffins , Near Deepa Complex, A Main Road, Malla thaali, Naagarabhaavi, Bengaluru", "photos": [{"photo_reference": "ATtYBwI15DHe0F27-xusbnGCJfap0TlWJz5rkrAzpjM1eVqjf4Qa4vNGifhSSQwggsgiUWnxjA2B31m6eKXnSPMoU4wyf1YSw2PJDBdzcuSa58XaFRNiYbDfg2wmsw6rg9V8dwYS09E5R2Mn7vjIY1YvzjmQUeJqcupHjCrA01weogmYk8gI", "width": 1200, "html_attributions": ["<a href=\"https://maps.google.com/maps/contrib/114361562364478162503\">Siddhi Clinic &amp; Physiotherapy Centre.</a>"], "height": 672}], "scope": "GOOGLE", "business_status": "OPERATIONAL", "types": ["physiotherapist", "hospital", "doctor", "health", "point_of_interest", "establishment"], "icon": "https://maps.gstatic.com/mapfiles/place_api/icons/v1/png_71/hospital-71.png"}, {"name": "MANO CHAITANYA", "reference": "ChIJiyvodT8VrjsROC8j-8UBJOk", "geometry": {"location": {"lat": 12.9800822, "lng": 77.48768919999999}, "viewport": {"northeast": {"lat": 12.9814544802915, "lng": 77.4890513802915}, "southwest": {"lat": 12.9787565197085, "lng": 77.48635341970848}}}, "opening_hours": {"open_now": true}, "place_id": "ChIJiyvodT8VrjsROC8j-8UBJOk", "plus_code": {"global_code": "7J4VXFJQ+23", "compound_code": "XFJQ+23 Bengaluru, Karnataka, India"}, "vicinity": "43 Samrudhi Nijaguna road, layout, 8th block, Sir M Visvesvaraya nagara 8th block, Bengaluru", "photos": [{"photo_reference": "ATtYBwIUnj06I_ep3tFLYHvOdLj_bbOstgc6k9dSn8SjvLj4XuW_OktOTzcYJ3Wh-VBHMz9LETnVw6AvyebYPks-M2e4BGzLJpVTpwE-cc64hOuRfW7mC4ehgb1Rm1v8Ogcj3gQn1a0N0-NYcVgS1eeA9GwaStPpTa59a2heXaPwVShUjkC8", "width": 2048, "html_attributions": ["<a href=\"https://maps.google.com/maps/contrib/111923533018422126878\">MANO CHAITANYA</a>"], "height": 1536}], "scope": "GOOGLE", "business_status": "OPERATIONAL", "types": ["doctor", "health", "point_of_interest", "establishment"], "icon": "https://maps.gstatic.com/mapfiles/place_api/icons/v1/png_71/generic_business-71.png"}, {"name": "Shivalaya", "reference": "ChIJcYtqLyc8rjsRmY8ETHfhmrE", "geometry": {"location": {"lat": 12.9649801, "lng": 77.4995126}, "viewport": {"northeast": {"lat": 12.9663763802915, "lng": 77.50082073029151}, "southwest": {"lat": 12.9636784197085, "lng": 77.4981227697085}}}, "opening_hours": {"open_now": true}, "place_id": "ChIJcYtqLyc8rjsRmY8ETHfhmrE", "plus_code": {"global_code": "7J4VXF7X+XR", "compound_code": "XF7X+XR Bengaluru, Karnataka, India"}, "vicinity": "836, 10th Main Road, ITI Employees Layout, Annapurneshwari Nagar, Bengaluru", "photos": [{"photo_reference": "ATtYBwLk74GZMRq1xu-gzISWkrPnD2Y2b-Re7Doec4QtI5zVhr4decFw3EUK3DVgriurmEfnaGt6SAALk4Mb3s-RpBNZ091-l2xvAdWSCQu_g8GFhCSiefsSs8rYHuFIiQGG685IXPJ1SFQAkYh1F7Y5XPaI65rsZ3UqojvyWLWt8S18cygJ", "width": 1536, "html_attributions": ["<a href=\"https://maps.google.com/maps/contrib/114906739037029061435\">Rahul Bansal</a>"], "height": 2048}], "scope": "GOOGLE", "business_status": "OPERATIONAL", "types": ["doctor", "health", "point_of_interest", "establishment"], "icon": "https://maps.gstatic.com/mapfiles/place_api/icons/v1/png_71/generic_business-71.png"}, {"rating": 5, "user_ratings_total": 1, "name": "Sri Ramakrishna", "reference": "ChIJA7xtpKE-rjsRnre881F-GBI", "geometry": {"location": {"lat": 12.958344, "lng": 77.49073609999999}, "viewport": {"northeast": {"lat": 12.9597362302915, "lng": 77.4919733802915}, "southwest": {"lat": 12.9570382697085, "lng": 77.48927541970849}}}, "place_id": "ChIJA7xtpKE-rjsRnre881F-GBI", "plus_code": {"global_code": "7J4VXF5R+87", "compound_code": "XF5R+87 Bengaluru, Karnataka, India"}, "vicinity": "Jnananjyothinagar, Jnana Ganga Nagar, Bengaluru", "scope": "GOOGLE", "business_status": "OPERATIONAL", "types": ["doctor", "health", "point_of_interest", "establishment"], "icon": "https://maps.gstatic.com/mapfiles/place_api/icons/v1/png_71/generic_business-71.png"}, {"rating": 4.1, "user_ratings_total": 15, "name": "Dr. Sushma's KRUPA HOMOEO CLINIC, A Homoeopathic Healing Center", "reference": "ChIJdx3qiiY8rjsRUKA6gK9y9f4", "geometry": {"location": {"lat": 12.966996, "lng": 77.50159099999999}, "viewport": {"northeast": {"lat": 12.9683499302915, "lng": 77.5029324802915}, "southwest": {"lat": 12.9656519697085, "lng": 77.5002345197085}}}, "opening_hours": {"open_now": true}, "place_id": "ChIJdx3qiiY8rjsRUKA6gK9y9f4", "plus_code": {"global_code": "7J4VXG82+QJ", "compound_code": "XG82+QJ Bengaluru, Karnataka, India"}, "vicinity": "near AIT college, #60 C, 1st Floor, Anugraha Arcade, 80 ft Road, 19th Main, ITI Employees Layout, NAGARBHAVI, near AIT college, Bengaluru", "photos": [{"photo_reference": "ATtYBwLBK1i2eNAM_IrY3fs_OOuch0gZEFanL44_UfRfvydgv4Q6WJKPqwbb2S55OX43cKl6cy0dJFEbGILKuneozSUaWZFxGuDNPOuJ-1lfxrZvZxm2Ji6O5Qk5OJT7k7eTVHe9wF6U3Lbm_Aozn8RCfJ860AyD4fzcIs8qUF4Yj7bEjfBV", "width": 1155, "html_attributions": ["<a href=\"https://maps.google.com/maps/contrib/110870788315384301575\">Dr. Sushma&#39;s KRUPA HOMOEO CLINIC, A Homoeopathic Healing Center</a>"], "height": 2048}], "scope": "GOOGLE", "business_status": "OPERATIONAL", "types": ["doctor", "health", "point_of_interest", "establishment"], "icon": "https://maps.gstatic.com/mapfiles/place_api/icons/v1/png_71/generic_business-71.png"}, {"name": "My Health Clinic", "reference": "ChIJt3btlHo9rjsRB2CcEeM0OOY", "geometry": {"location": {"lat": 12.9663407, "lng": 77.501408}, "viewport": {"northeast": {"lat": 12.9676269802915, "lng": 77.5027285802915}, "southwest": {"lat": 12.9649290197085, "lng": 77.5000306197085}}}, "place_id": "ChIJt3btlHo9rjsRB2CcEeM0OOY", "plus_code": {"global_code": "7J4VXG82+GH", "compound_code": "XG82+GH Bengaluru, Karnataka, India"}, "vicinity": "81, 5th Cross Road, MPM Layout, Kengunte, Mallathahalli, Bengaluru", "scope": "GOOGLE", "business_status": "OPERATIONAL", "types": ["doctor", "health", "point_of_interest", "establishment"], "icon": "https://maps.gstatic.com/mapfiles/place_api/icons/v1/png_71/generic_business-71.png"}]}