{"status": "OK", "html_attributions": [], "results": [{"rating": 4.2, "user_ratings_total": 54, "name": "DAIVIK ENT CENTRE", "reference": "ChIJrXoohes_rjsRYMsdtRAk1Hg", "geometry": {"location": {"lat": 12.8919658, "lng": 77.5424814}, "viewport": {"northeast": {"lat": 12.8933480302915, "lng": 77.5438413802915}, "southwest": {"lat": 12.8906500697085, "lng": 77.54114341970849}}}, "opening_hours": {"open_now": true}, "place_id": "ChIJrXoohes_rjsRYMsdtRAk1Hg", "plus_code": {"global_code": "7J4VVGRR+QX", "compound_code": "VGRR+QX Bengaluru, Karnataka, India"}, "vicinity": "next to Chowdeshwari Temple, #101,401/1C, DREAM PARADISE GUBBALALA MAIN ROAD, next to Chowdeshwari Temple, POST, Subramanyapura, Bengaluru", "photos": [{"photo_reference": "ATtYBwKq8pXCn-OiyQOSjkKgW8axoEsyoRGZqMao3ImPit6sGuvGJBwWiYlk3Kaum1dc121zXcZXbOYOYHSRI5B23uzp2HYZVR3Dhq3mB1QqaqHOipvwlvEtZwu_ytQOQWR-0YIgFP_Ctylv_27H08gjmgrHDx8oGwEWxtNSyHd1G2uTZd5S", "width": 2448, "html_attributions": ["<a href=\"https://maps.google.com/maps/contrib/112440439366922989664\">DAIVIK ENT CENTRE</a>"], "height": 3264}], "scope": "GOOGLE", "business_status": "OPERATIONAL", "types": ["doctor", "health", "point_of_interest", "establishment"], "icon": "https://maps.gstatic.com/mapfiles/place_api/icons/v1/png_71/generic_business-71.png"}, {"name": "Srinivas Kangeym", "reference": "ChIJIe7auOM_rjsRnJwdiBuMX38", "geometry": {"location": {"lat": 12.894742, "lng": 77.53527199999999}, "viewport": {"northeast": {"lat": 12.8960931302915, "lng": 77.5366104302915}, "southwest": {"lat": 12.8933951697085, "lng": 77.5339124697085}}}, "place_id": "ChIJIe7auOM_rjsRnJwdiBuMX38", "plus_code": {"global_code": "7J4VVGVP+V4", "compound_code": "VGVP+V4 Bengaluru, Karnataka, India"}, "vicinity": "Jayanagar housing society layout, Subramanyapura, Bengaluru", "scope": "GOOGLE", "business_status": "OPERATIONAL", "types": ["doctor", "health", "point_of_interest", "establishment"], "icon": "https://maps.gstatic.com/mapfiles/place_api/icons/v1/png_71/generic_business-71.png"}, {"rating": 4.8, "user_ratings_total": 20, "name": "Dr. Vaishnavi K V's Clinic For Women", "reference": "ChIJmTAg55Q_rjsR_R7yMN2xU8w", "geometry": {"location": {"lat": 12.8933832, "lng": 77.5374494}, "viewport": {"northeast": {"lat": 12.8946904302915, "lng": 77.53878243029149}, "southwest": {"lat": 12.8919924697085, "lng": 77.53608446970848}}}, "opening_hours": {"open_now": true}, "place_id": "ChIJmTAg55Q_rjsR_R7yMN2xU8w", "plus_code": {"global_code": "7J4VVGVP+9X", "compound_code": "VGVP+9X Bengaluru, Karnataka, India"}, "vicinity": "257, 3rd Cross Rd, Vajramuni Nagar,1st Stage,JHCS Layout, Off Pride Springfields Apts, Turahalli, Uttarahalli Hobli, (2 km, Kanakapura Road, Bengaluru", "photos": [{"photo_reference": "ATtYBwKMRzFzgKkVVzZANI9-iv73qaJFykqKV73jxkx9jCbOaxu2E6xz_L8QmT4vMFXeN4nYZNzj61crBJZq-UMCJSiYps3IlcPA8w91Jt19_3ESDY8I4mLgW0uKODAQl7Y_gLUoDPS-dHQgPxchgzDe116XJ8JldZBAy-S50SY5nflSjtTF", "width": 4160, "html_attributions": ["<a href=\"https://maps.google.com/maps/contrib/115678949779937904613\">Dr. Vaishnavi K V&#39;s Clinic For Women</a>"], "height": 3120}], "scope": "GOOGLE", "business_status": "OPERATIONAL", "types": ["doctor", "health", "point_of_interest", "establishment"], "icon": "https://maps.gstatic.com/mapfiles/place_api/icons/v1/png_71/generic_business-71.png"}, {"rating": 4.2, "user_ratings_total": 6, "name": "Sunrise Health Care & Diagnostic Center", "reference": "ChIJWUiMfFI_rjsRAgdrxv1LCVA", "geometry": {"location": {"lat": 12.8932785, "lng": 77.5383561}, "viewport": {"northeast": {"lat": 12.8946409802915, "lng": 77.53971038029151}, "southwest": {"lat": 12.8919430197085, "lng": 77.53701241970849}}}, "opening_hours": {"open_now": true}, "place_id": "ChIJWUiMfFI_rjsRAgdrxv1LCVA", "plus_code": {"global_code": "7J4VVGVQ+88", "compound_code": "VGVQ+88 Bengaluru, Karnataka, India"}, "vicinity": "265, 5th Main, Jayanagar Co-Operative Housing Society Layout, Gubbalala Main Road, Subramanyapura, Bengaluru", "scope": "GOOGLE", "business_status": "OPERATIONAL", "types": ["doctor", "health", "point_of_interest", "establishment"], "icon": "https://maps.gstatic.com/mapfiles/place_api/icons/v1/png_71/generic_business-71.png"}, {"name": "\u0cb0\u0cbe\u0c9c\u0cb0\u0cbe\u0cb5\u0ccd \u0cae\u0ca8\u0cc6", "reference": "ChIJdxA9pwM_rjsROt-KWPPbpL8", "geometry": {"location": {"lat": 12.896713, "lng": 77.538158}, "viewport": {"northeast": {"lat": 12.8979179802915, "lng": 77.53947103029151}, "southwest": {"lat": 12.8952200197085, "lng": 77.5367730697085}}}, "place_id": "ChIJdxA9pwM_rjsROt-KWPPbpL8", "plus_code": {"global_code": "7J4VVGWQ+M7", "compound_code": "VGWQ+M7 Bengaluru, Karnataka, India"}, "vicinity": "Jayanagar housing society layout, Subramanyapura, Bengaluru", "scope": "GOOGLE", "business_status": "OPERATIONAL", "types": ["doctor", "health", "point_of_interest", "establishment"], "icon": "https://maps.gstatic.com/mapfiles/place_api/icons/v1/png_71/generic_business-71.png"}, {"rating": 4.7, "user_ratings_total": 3, "name": "Ayurveda Kendra", "reference": "ChIJNdbzhus_rjsRGnWconu-7_0", "geometry": {"location": {"lat": 12.8918147, "lng": 77.5415816}, "viewport": {"northeast": {"lat": 12.8931225802915, "lng": 77.54294108029151}, "southwest": {"lat": 12.8904246197085, "lng": 77.5402431197085}}}, "place_id": "ChIJNdbzhus_rjsRGnWconu-7_0", "plus_code": {"global_code": "7J4VVGRR+PJ", "compound_code": "VGRR+PJ Bengaluru, Karnataka, India"}, "vicinity": "207, Subramanyapura Main Road, Jayanagar housing society layout, Subramanyapura, Bengaluru", "photos": [{"photo_reference": "ATtYBwKVNm_XZoqfuox2mgvtBcxqLOi9gx999hO7AXvlqos9StZXTjOmx9OfvhMgZz0Y5zinrqj-vAoPYWvfPd_qc6L74LPhQ5vKOkwxdFrNIy_rVe_5jXR9-ba_tJ8OluKtQGpOt6ocKg9NefRY2e-xQr6SJn2sC-L2M4uman7s1Vztgmmz", "width": 2736, "html_attributions": ["<a href=\"https://maps.google.com/maps/contrib/112804223029926516090\">Singing Sparrows</a>"], "height": 4864}], "scope": "GOOGLE", "business_status": "OPERATIONAL", "types": ["doctor", "health", "point_of_interest", "establishment"], "icon": "https://maps.gstatic.com/mapfiles/place_api/icons/v1/png_71/generic_business-71.png"}, {"rating": 5, "user_ratings_total": 2, "name": "Nakoda Medicals", "reference": "ChIJYSPcjPI_rjsRoNHUI5ndFtc", "geometry": {"location": {"lat": 12.8842204, "lng": 77.5413664}, "viewport": {"northeast": {"lat": 12.8855760302915, "lng": 77.54269243029148}, "southwest": {"lat": 12.88287806970849, "lng": 77.53999446970847}}}, "place_id": "ChIJYSPcjPI_rjsRoNHUI5ndFtc", "plus_code": {"global_code": "7J4VVGMR+MG", "compound_code": "VGMR+MG Bengaluru, Karnataka, India"}, "vicinity": "80 Feet Road, Sahara Layout, Gubbalala, Lingadeeranahalli, Bengaluru", "photos": [{"photo_reference": "ATtYBwJwcKabyfK6qBUXvzyJf071Wz6RYJdtEZ_cpG1lsKnTioufiLSOnHkp6JO88HkVxZQx0qLVbvbVGRED_EKXsY2PBlGpTWVFIxq-z_BIwlRZpqKb-EOulNJED8FKkHUAqld8wbOLv2OGKOL_KBd1BBdPqQNfljo5UYxBPn0FjxrfqENj", "width": 810, "html_attributions": ["<a href=\"https://maps.google.com/maps/contrib/110400064521010310197\">Ramnatha Acharya</a>"], "height": 1080}], "scope": "GOOGLE", "business_status": "OPERATIONAL", "types": ["doctor", "health", "point_of_interest", "establishment"], "icon": "https://maps.gstatic.com/mapfiles/place_api/icons/v1/png_71/generic_business-71.png"}, {"name": "BELAKU Dr Yogeshwar", "reference": "ChIJk7wZuL0_rjsR7gbp02xIdD8", "geometry": {"location": {"lat": 12.8855828, "lng": 77.54215359999999}, "viewport": {"northeast": {"lat": 12.8869317802915, "lng": 77.54350258029149}, "southwest": {"lat": 12.8842338197085, "lng": 77.54080461970848}}}, "place_id": "ChIJk7wZuL0_rjsR7gbp02xIdD8", "plus_code": {"global_code": "7J4VVGPR+6V", "compound_code": "VGPR+6V Bengaluru, Karnataka, India"}, "vicinity": "Gubbalala, Subramanyapura, Bengaluru", "scope": "GOOGLE", "business_status": "OPERATIONAL", "types": ["doctor", "health", "point_of_interest", "establishment"], "icon": "https://maps.gstatic.com/mapfiles/place_api/icons/v1/png_71/generic_business-71.png"}]}