{"status": "OK", "next_page_token": "ATtYBwInY4na2b-8_gI5SWreQayvwdka_ndlPVpc4aAgyAL8vKvT9J8UwFj_U1r_Y2dyI2GMeWzNkgSkATYOu0O2qxQfvRShuTzaFtzmyAZcsPsuq_s--HnjcYLGdDqDvFHJIyLFWN3blbMReeS8TOvuFKMqY1U8J8pJhaa1FYsTI2deS37vSAFxBwOzVJLM9OE2OaDrYcbfPZP5JGnNbyaxMV5s-jfRX9TVoM86fR_Q0kTdxllVjiqbU33TJOZ1drboXwKnJyBTiYbFiA9ftE4kUGl-Pp2npqFitc47Sv-IoZZXB75fyfSjtpfCp3l6epur34XKjLLI1FZtLoEEJowtFD-VQNsX0yVw61FDjlHW9rylhGy2OqmsHa5TK3zHrwDdxz8khnjJmx52RNfsGTvUfMyopFUcwiOFsjwfpjQ0n036UDXa1U4", "html_attributions": [], "results": [{"rating": 3.6, "user_ratings_total": 29, "name": "Clear Skin", "reference": "ChIJS9nuHXc-rjsR4N-MQ8S7PjI", "geometry": {"location": {"lat": 12.9602596, "lng": 77.5303667}, "viewport": {"northeast": {"lat": 12.9616561802915, "lng": 77.53173098029151}, "southwest": {"lat": 12.9589582197085, "lng": 77.5290330197085}}}, "opening_hours": {"open_now": true}, "place_id": "ChIJS9nuHXc-rjsR4N-MQ8S7PjI", "plus_code": {"global_code": "7J4VXG6J+44", "compound_code": "XG6J+44 Bengaluru, Karnataka, India"}, "vicinity": "No.13/14, Income Tax Layout, Chandra Layout Main Road, Govindarajanagar, Vijayanagar, Bengaluru", "photos": [{"photo_reference": "ATtYBwLv9fj_RxALhe4903l2tV3ikpycy6_qGyo-VnoxVPobBskNEi8VXgJdHEnL1NYU9aAwcYy2DfL9JLWa4s8_0Y3UPJifTO8ns1dBZ_Kai9qKRXqMrN1u3HIDKB9W5xMa7EtfVlvQsSGuPPEiAggSQLzLd_hS3aENgZqYzEYQx6jzCCN7", "width": 1080, "html_attributions": ["<a href=\"https://maps.google.com/maps/contrib/107771192317561993521\">Manohar RD</a>"], "height": 1920}], "scope": "GOOGLE", "business_status": "OPERATIONAL", "types": ["beauty_salon", "doctor", "health", "point_of_interest", "establishment"], "icon": "https://maps.gstatic.com/mapfiles/place_api/icons/v1/png_71/generic_business-71.png"}, {"rating": 4.5, "user_ratings_total": 8, "name": "Bhoomi IVF Centre", "reference": "ChIJ4d-YHHc-rjsRkwVEg9DWDGw", "geometry": {"location": {"lat": 12.9611471, "lng": 77.5273449}, "viewport": {"northeast": {"lat": 12.9624329302915, "lng": 77.52868218029151}, "southwest": {"lat": 12.9597349697085, "lng": 77.5259842197085}}}, "opening_hours": {"open_now": true}, "place_id": "ChIJ4d-YHHc-rjsRkwVEg9DWDGw", "plus_code": {"global_code": "7J4VXG6G+FW", "compound_code": "XG6G+FW Bengaluru, Karnataka, India"}, "vicinity": "#101, 1st Floor, 80 Feet Road, Chandra Layout Main Road, Vijayanagar, Bengaluru", "photos": [{"photo_reference": "ATtYBwJkloWoaKpCba4jUUKPpONO9XXWW23b4usbS9jp0Hy0pltSlCQnh3axwpuFDVnps3pMhIFGhIKGDX64YlfTEsYDoiqfNk12ClqKBsPevPSvYAL7UEp8PbjhPab5RZnlTfn5RZJirZQI2vWWPtSb1AQz9gfLfq8uXylIVSuiqREfvW9p", "width": 1920, "html_attributions": ["<a href=\"https://maps.google.com/maps/contrib/107771192317561993521\">Manohar RD</a>"], "height": 1080}], "scope": "GOOGLE", "business_status": "OPERATIONAL", "types": ["doctor", "health", "point_of_interest", "establishment"], "icon": "https://maps.gstatic.com/mapfiles/place_api/icons/v1/png_71/generic_business-71.png"}, {"name": "Sai Hanuman Medicals", "reference": "ChIJySmMv28-rjsRnzEZ_A-Jt-Y", "geometry": {"location": {"lat": 12.9512922, "lng": 77.52909129999999}, "viewport": {"northeast": {"lat": 12.9526398802915, "lng": 77.5304462302915}, "southwest": {"lat": 12.9499419197085, "lng": 77.5277482697085}}}, "place_id": "ChIJySmMv28-rjsRnzEZ_A-Jt-Y", "plus_code": {"global_code": "7J4VXG2H+GJ", "compound_code": "XG2H+GJ Bengaluru, Karnataka, India"}, "vicinity": "BUS STAND, BCC Layout, Vijayanagar, Bengaluru", "scope": "GOOGLE", "business_status": "OPERATIONAL", "types": ["doctor", "health", "point_of_interest", "establishment"], "icon": "https://maps.gstatic.com/mapfiles/place_api/icons/v1/png_71/generic_business-71.png"}, {"rating": 5, "user_ratings_total": 1, "name": "Al Kaleem Hazrath", "reference": "ChIJi-Cou3c_rjsRYkd3zhfLIXs", "geometry": {"location": {"lat": 12.9506528, "lng": 77.5283359}, "viewport": {"northeast": {"lat": 12.9520433802915, "lng": 77.5296926802915}, "southwest": {"lat": 12.9493454197085, "lng": 77.5269947197085}}}, "place_id": "ChIJi-Cou3c_rjsRYkd3zhfLIXs", "plus_code": {"global_code": "7J4VXG2H+78", "compound_code": "XG2H+78 Bengaluru, Karnataka, India"}, "vicinity": "304 9th cross bc lyout vijaynagar, 2nd Stage, Ahmed Nagar, Deepanjali Nagar, Bengaluru", "photos": [{"photo_reference": "ATtYBwK_ZNjRn6tu1PMxOF4HgDpoO9dtHJVn7oS0qTlM5z9XcvXBRFJ_RtMeG32fzRJ-L2XT1AzgLckfYkz7kL58zZzQ8ObaVQBqldTqCJnw29SPeahZKGvn9pvUWxBnm1w5BuNF6-KaPFH9pfIvGh5UhSx0swYTjvj-rwtSGIbZuMRWXoFb", "width": 720, "html_attributions": ["<a href=\"https://maps.google.com/maps/contrib/108535559474196943574\">Matheenulla M</a>"], "height": 1280}], "scope": "GOOGLE", "business_status": "OPERATIONAL", "types": ["doctor", "health", "point_of_interest", "establishment"], "icon": "https://maps.gstatic.com/mapfiles/place_api/icons/v1/png_71/generic_business-71.png"}, {"name": "Pilewan Syed Iqbal & Sons (CPT Bone Specialist)", "reference": "ChIJd4QtnWU-rjsR9vuQRwgvm_s", "geometry": {"location": {"lat": 12.949667, "lng": 77.526817}, "viewport": {"northeast": {"lat": 12.9510189302915, "lng": 77.5281440802915}, "southwest": {"lat": 12.9483209697085, "lng": 77.52544611970849}}}, "place_id": "ChIJd4QtnWU-rjsR9vuQRwgvm_s", "plus_code": {"global_code": "7J4VWGXG+VP", "compound_code": "WGXG+VP Bengaluru, Karnataka, India"}, "vicinity": "20, Leher Palya, Gangondanahalli Main Road, Sidiqya Masjid Road, Chandra Layout, Opposite-Anada Diagnostic, Nayandahalli, Bengaluru", "scope": "GOOGLE", "business_status": "OPERATIONAL", "types": ["doctor", "health", "point_of_interest", "establishment"], "icon": "https://maps.gstatic.com/mapfiles/place_api/icons/v1/png_71/generic_business-71.png"}, {"rating": 5, "user_ratings_total": 1, "name": "Bangalore pet shop", "reference": "ChIJC4D3gSg_rjsRmIfNki-tXeE", "geometry": {"location": {"lat": 12.9463815, "lng": 77.5305632}, "viewport": {"northeast": {"lat": 12.9477327302915, "lng": 77.53191103029151}, "southwest": {"lat": 12.9450347697085, "lng": 77.5292130697085}}}, "place_id": "ChIJC4D3gSg_rjsRmIfNki-tXeE", "plus_code": {"global_code": "7J4VWGWJ+H6", "compound_code": "WGWJ+H6 Bengaluru, Karnataka, India"}, "vicinity": "Ranganathan Colony, Nayanda Halli, Bengaluru", "scope": "GOOGLE", "business_status": "OPERATIONAL", "types": ["doctor", "health", "point_of_interest", "establishment"], "icon": "https://maps.gstatic.com/mapfiles/place_api/icons/v1/png_71/generic_business-71.png"}, {"rating": 5, "user_ratings_total": 2, "name": "Free Call boy service in Bangalore", "reference": "ChIJceOCXaY_rjsR1VwumOFGiVc", "geometry": {"location": {"lat": 12.9537026, "lng": 77.53079579999999}, "viewport": {"northeast": {"lat": 12.9550515802915, "lng": 77.5321447802915}, "southwest": {"lat": 12.9523536197085, "lng": 77.5294468197085}}}, "opening_hours": {"open_now": true}, "place_id": "ChIJceOCXaY_rjsR1VwumOFGiVc", "plus_code": {"global_code": "7J4VXG3J+F8", "compound_code": "XG3J+F8 Bengaluru, Karnataka, India"}, "vicinity": "117, 4th Main Road, Vijayanagar, Bengaluru", "photos": [{"photo_reference": "ATtYBwKEf-hAjDTscvBstmT4RyhwcOEVOR4El5dtDoupEPiki8Klmb3n9BeRADAJXc0Wooxjq4_VLpdaf6nZKglsKn7QF529s-bit9-JXwIbtjeHzvQGLIpts6f6Jmg82keZA3IW6RPTNmidQPPWcryapHPtpqJ3XdZItihmBNwsgicgdnVT", "width": 720, "html_attributions": ["<a href=\"https://maps.google.com/maps/contrib/114998884648120036488\">Free Call boy service in Bangalore</a>"], "height": 405}], "scope": "GOOGLE", "business_status": "OPERATIONAL", "types": ["doctor", "health", "point_of_interest", "establishment"], "icon": "https://maps.gstatic.com/mapfiles/place_api/icons/v1/png_71/generic_business-71.png"}, {"name": "Dr khizar pasha accupunture clinic", "reference": "ChIJZaaGSWU-rjsRDZue97_COy0", "geometry": {"location": {"lat": 12.9522251, "lng": 77.5262663}, "viewport": {"northeast": {"lat": 12.9535788802915, "lng": 77.52759388029149}, "southwest": {"lat": 12.9508809197085, "lng": 77.52489591970848}}}, "place_id": "ChIJZaaGSWU-rjsRDZue97_COy0", "plus_code": {"global_code": "7J4VXG2G+VG", "compound_code": "XG2G+VG Bengaluru, Karnataka, India"}, "vicinity": "Unnamed Road, Ahmed Nagar, Chandra Layout, Bengaluru", "scope": "GOOGLE", "business_status": "OPERATIONAL", "types": ["doctor", "health", "point_of_interest", "establishment"], "icon": "https://maps.gstatic.com/mapfiles/place_api/icons/v1/png_71/generic_business-71.png"}, {"name": "Shree Shirdi Sai Trading Corporation", "reference": "ChIJZbrHDWw-rjsRhrzR6PpSexI", "geometry": {"location": {"lat": 12.947926, "lng": 77.534436}, "viewport": {"northeast": {"lat": 12.9492860802915, "lng": 77.5357789302915}, "southwest": {"lat": 12.9465881197085, "lng": 77.5330809697085}}}, "opening_hours": {"open_now": true}, "place_id": "ChIJZbrHDWw-rjsRhrzR6PpSexI", "plus_code": {"global_code": "7J4VWGXM+5Q", "compound_code": "WGXM+5Q Bengaluru, Karnataka, India"}, "vicinity": "854, Mysore Road, PPIndl Area, Deepanjali Nagar, Bengaluru", "scope": "GOOGLE", "business_status": "OPERATIONAL", "types": ["doctor", "health", "point_of_interest", "establishment"], "icon": "https://maps.gstatic.com/mapfiles/place_api/icons/v1/png_71/generic_business-71.png"}, {"rating": 4.3, "user_ratings_total": 3, "name": "Shreepad Hegde Dr", "reference": "ChIJE8R9PncWrjsRVshYpDCK_HM", "geometry": {"location": {"lat": 12.9548038, "lng": 77.530648}, "viewport": {"northeast": {"lat": 12.9561217302915, "lng": 77.53199163029151}, "southwest": {"lat": 12.9534237697085, "lng": 77.5292936697085}}}, "opening_hours": {"open_now": true}, "place_id": "ChIJE8R9PncWrjsRVshYpDCK_HM", "plus_code": {"global_code": "7J4VXG3J+W7", "compound_code": "XG3J+W7 Bengaluru, Karnataka, India"}, "vicinity": "4th Main Road, 288, 4th Cross Road, Vijayanagar, Bengaluru", "scope": "GOOGLE", "business_status": "OPERATIONAL", "types": ["doctor", "health", "point_of_interest", "establishment"], "icon": "https://maps.gstatic.com/mapfiles/place_api/icons/v1/png_71/generic_business-71.png"}, {"rating": 5, "user_ratings_total": 2, "name": "Surya Clinic", "reference": "ChIJC7cDdHA-rjsRlPFZO2_7Lh0", "geometry": {"location": {"lat": 12.9544212, "lng": 77.5279051}, "viewport": {"northeast": {"lat": 12.9557791802915, "lng": 77.5292221302915}, "southwest": {"lat": 12.9530812197085, "lng": 77.5265241697085}}}, "opening_hours": {"open_now": true}, "place_id": "ChIJC7cDdHA-rjsRlPFZO2_7Lh0", "plus_code": {"global_code": "7J4VXG3H+Q5", "compound_code": "XG3H+Q5 Bengaluru, Karnataka, India"}, "vicinity": "No 170,1st floor,1st cross, 2nd stage Chandra layout, 1st A Cross Road, BCC Layout, Deepanjali Nagar, Bengaluru", "scope": "GOOGLE", "business_status": "OPERATIONAL", "types": ["doctor", "health", "point_of_interest", "establishment"], "icon": "https://maps.gstatic.com/mapfiles/place_api/icons/v1/png_71/generic_business-71.png"}, {"rating": 5, "user_ratings_total": 1, "name": "Aslam bhai building", "reference": "ChIJV4hQdPc_rjsRElHg7qJZuCU", "geometry": {"location": {"lat": 12.9502074, "lng": 77.52454259999999}, "viewport": {"northeast": {"lat": 12.9515595302915, "lng": 77.52589183029151}, "southwest": {"lat": 12.9488615697085, "lng": 77.52319386970849}}}, "place_id": "ChIJV4hQdPc_rjsRElHg7qJZuCU", "plus_code": {"global_code": "7J4VXG2F+3R", "compound_code": "XG2F+3R Bengaluru, Karnataka, India"}, "vicinity": "Unnamed Road, Ahmed Nagar, Chandra Layout, Bengaluru", "scope": "GOOGLE", "business_status": "OPERATIONAL", "types": ["doctor", "health", "point_of_interest", "establishment"], "icon": "https://maps.gstatic.com/mapfiles/place_api/icons/v1/png_71/generic_business-71.png"}, {"rating": 5, "user_ratings_total": 60, "name": "Smile Fitness", "reference": "ChIJbTRIzLk_rjsR0oQzxjzzk6M", "geometry": {"location": {"lat": 12.9552931, "lng": 77.52826879999999}, "viewport": {"northeast": {"lat": 12.9566055802915, "lng": 77.5296114802915}, "southwest": {"lat": 12.9539076197085, "lng": 77.5269135197085}}}, "opening_hours": {"open_now": true}, "place_id": "ChIJbTRIzLk_rjsR0oQzxjzzk6M", "plus_code": {"global_code": "7J4VXG4H+48", "compound_code": "XG4H+48 Bengaluru, Karnataka, India"}, "vicinity": "above nilgiris store, No. 1575, 2nd Floor, 3rd Main Road, 1st Cross, Chandra Layout Near Adishwara Electric World, above nilgiris store, Bengaluru", "photos": [{"photo_reference": "ATtYBwLB2CzuU6UyEq1aKYVCV7avR2lhbr4BVgYpwRAB4dczQRLU3kwKldf3zuI4bdJogoUCjrfVmUZ8rXMDxrrtpTz_nHO8qD5ig_ZbyA4cNA8yUAFZz3RkkBud4jJ3Kj2jcFznZnTqABHubAHKjct7yn6lJb0UqHrURaEDfYKglGnaywea", "width": 2914, "html_attributions": ["<a href=\"https://maps.google.com/maps/contrib/112557559362230010084\">Smile Fitness</a>"], "height": 1588}], "scope": "GOOGLE", "business_status": "OPERATIONAL", "types": ["doctor", "health", "point_of_interest", "establishment"], "icon": "https://maps.gstatic.com/mapfiles/place_api/icons/v1/png_71/generic_business-71.png"}, {"name": "Dr Krishna Chaitanya", "reference": "ChIJ2-gpOcM_rjsRqq5oWC4Vjfk", "geometry": {"location": {"lat": 12.9556445, "lng": 77.5262461}, "viewport": {"northeast": {"lat": 12.9569807302915, "lng": 77.52763443029151}, "southwest": {"lat": 12.9542827697085, "lng": 77.5249364697085}}}, "place_id": "ChIJ2-gpOcM_rjsRqq5oWC4Vjfk", "plus_code": {"global_code": "7J4VXG4G+7F", "compound_code": "XG4G+7F Bengaluru, Karnataka, India"}, "vicinity": "1480, 6th Cross Road, Nagarbhavi 1st Stage, Chandra Layout, Bengaluru", "scope": "GOOGLE", "business_status": "OPERATIONAL", "types": ["doctor", "health", "point_of_interest", "establishment"], "icon": "https://maps.gstatic.com/mapfiles/place_api/icons/v1/png_71/generic_business-71.png"}, {"name": "Dr G Ramesh Babu", "reference": "ChIJAQAAkHM-rjsRx_deVkJFU50", "geometry": {"location": {"lat": 12.9553906, "lng": 77.5355259}, "viewport": {"northeast": {"lat": 12.9567771302915, "lng": 77.5369125302915}, "southwest": {"lat": 12.9540791697085, "lng": 77.5342145697085}}}, "place_id": "ChIJAQAAkHM-rjsRx_deVkJFU50", "plus_code": {"global_code": "7J4VXG4P+56", "compound_code": "XG4P+56 Bengaluru, Karnataka, India"}, "vicinity": "1043, Rpc Layout, 11th Main, Vijaya Nagar, Bengaluru", "scope": "GOOGLE", "business_status": "OPERATIONAL", "types": ["doctor", "health", "point_of_interest", "establishment"], "icon": "https://maps.gstatic.com/mapfiles/place_api/icons/v1/png_71/generic_business-71.png"}, {"name": "Puttur Bone Setters", "reference": "ChIJZ7JmoFk_rjsR6dQZ2y2VlUs", "geometry": {"location": {"lat": 12.9445621, "lng": 77.52393239999999}, "viewport": {"northeast": {"lat": 12.9458822802915, "lng": 77.5252686302915}, "southwest": {"lat": 12.9431843197085, "lng": 77.5225706697085}}}, "opening_hours": {"open_now": false}, "place_id": "ChIJZ7JmoFk_rjsR6dQZ2y2VlUs", "plus_code": {"global_code": "7J4VWGVF+RH", "compound_code": "WGVF+RH Bengaluru, Karnataka, India"}, "vicinity": "Bus Stop, near Hi-tech Hospital, Nayanda Halli, Bengaluru", "scope": "GOOGLE", "business_status": "OPERATIONAL", "types": ["doctor", "health", "point_of_interest", "establishment"], "icon": "https://maps.gstatic.com/mapfiles/place_api/icons/v1/png_71/generic_business-71.png"}, {"rating": 5, "user_ratings_total": 1, "name": "Ramya Clinic", "reference": "ChIJw3RKG_Q_rjsRAFkBEwAhSSk", "geometry": {"location": {"lat": 12.9574584, "lng": 77.5266274}, "viewport": {"northeast": {"lat": 12.9588178802915, "lng": 77.5279450302915}, "southwest": {"lat": 12.9561199197085, "lng": 77.5252470697085}}}, "opening_hours": {"open_now": true}, "place_id": "ChIJw3RKG_Q_rjsRAFkBEwAhSSk", "plus_code": {"global_code": "7J4VXG4G+XM", "compound_code": "XG4G+XM Bengaluru, Karnataka, India"}, "vicinity": "1269, 4th Main Rd, 7th Cross Road, 2nd Phase, BDA Lay Out, Chandra Layout, Bengaluru", "photos": [{"photo_reference": "ATtYBwLFzCiNzJV_8LwkmrLIgjSt_z6KbHohtn-gzb8yaQLvLpxDNdrgD46xubrbk8wIYHtjEKSmRgDbzm-UlXD7nNs21lZVNxaxzQYYWgmEnKA4dT5MWUxzOAE4HHJ1ahPm0KMEsPCcr5CsCk5ANGBTTRvSUmuEH3VCWtQS66x2ezjC8Sru", "width": 4032, "html_attributions": ["<a href=\"https://maps.google.com/maps/contrib/106541935911476987232\">Preetham Hooli</a>"], "height": 3024}], "scope": "GOOGLE", "business_status": "OPERATIONAL", "types": ["doctor", "health", "point_of_interest", "establishment"], "icon": "https://maps.gstatic.com/mapfiles/place_api/icons/v1/png_71/generic_business-71.png"}, {"rating": 5, "user_ratings_total": 5, "name": "Nishanth Nilaya", "reference": "ChIJJZB6_XI-rjsRgkq_DukZRWk", "geometry": {"location": {"lat": 12.9556976, "lng": 77.536598}, "viewport": {"northeast": {"lat": 12.9570179802915, "lng": 77.53792283029149}, "southwest": {"lat": 12.9543200197085, "lng": 77.53522486970849}}}, "opening_hours": {"open_now": false}, "place_id": "ChIJJZB6_XI-rjsRgkq_DukZRWk", "plus_code": {"global_code": "7J4VXG4P+7J", "compound_code": "XG4P+7J Bengaluru, Karnataka, India"}, "vicinity": "567, 9th D Main Road, RPC Layout, Vijayanagar, Bengaluru", "scope": "GOOGLE", "business_status": "OPERATIONAL", "types": ["doctor", "health", "point_of_interest", "establishment"], "icon": "https://maps.gstatic.com/mapfiles/place_api/icons/v1/png_71/generic_business-71.png"}, {"rating": 4.9, "user_ratings_total": 51, "name": "Dr Ananya, Foot & Ankle Orthopaedic Surgeon", "reference": "ChIJB7_BN6k_rjsRoLdKA5cEKNY", "geometry": {"location": {"lat": 12.956917, "lng": 77.5353031}, "viewport": {"northeast": {"lat": 12.9582695302915, "lng": 77.5366320302915}, "southwest": {"lat": 12.9555715697085, "lng": 77.5339340697085}}}, "opening_hours": {"open_now": true}, "place_id": "ChIJB7_BN6k_rjsRoLdKA5cEKNY", "plus_code": {"global_code": "7J4VXG4P+Q4", "compound_code": "XG4P+Q4 Bengaluru, Karnataka, India"}, "vicinity": "No. 1056, 5th A cross, 11th Main Road, Vijayanagar 2nd stage, RPC Layout, Bengaluru", "photos": [{"photo_reference": "ATtYBwK8IMpBh4oLXM4eIBBBCeRT2lLEFxYevB4fmIrNNT5_eLlV6gZIzY0KNrIPNwl4zcCo7lGV0bAcUuKoB8qMRqUp74rs7-hWVBBL59CjQjT7qlPl8IeOd41pUrg42ZnE92pBW_GVFIDs1gtKAVj6fkZLA2bKvEIhgJPMQmMomgrjY4OJ", "width": 2917, "html_attributions": ["<a href=\"https://maps.google.com/maps/contrib/114585340862456481076\">Dr Ananya, Foot &amp; Ankle Orthopaedic Surgeon</a>"], "height": 1035}], "scope": "GOOGLE", "business_status": "OPERATIONAL", "types": ["doctor", "health", "point_of_interest", "establishment"], "icon": "https://maps.gstatic.com/mapfiles/place_api/icons/v1/png_71/generic_business-71.png"}, {"rating": 5, "user_ratings_total": 1, "name": "Sri Sai Poly Clinic", "reference": "ChIJ6bGWv2M-rjsRka6OLQ0DG7U", "geometry": {"location": {"lat": 12.9484003, "lng": 77.52108849999999}, "viewport": {"northeast": {"lat": 12.9497488802915, "lng": 77.52244038029151}, "southwest": {"lat": 12.9470509197085, "lng": 77.51974241970849}}}, "opening_hours": {"open_now": true}, "place_id": "ChIJ6bGWv2M-rjsRka6OLQ0DG7U", "plus_code": {"global_code": "7J4VWGXC+9C", "compound_code": "WGXC+9C Bengaluru, Karnataka, India"}, "vicinity": "99, 3rd Main Road, ITI HBCS Layout, Chandra Layout Extension II Stage, Nayanda Halli, Bengaluru", "photos": [{"photo_reference": "ATtYBwJjb0_BgcFnOptud3JpynAn5XzMb63n1MDWUM-ZoDbwtAVUwPCx7zUB0kHG4ev5Xv5CV9291W2fa4alvmbeDlGzv-mAU8X8SlyXc7h3_2rEB5GjEBRbab2FDKN1Ud40SR2wp4BKtxJbqXBW4NRxqDu8YdHZG2lzjG-dV0uxlera0GhQ", "width": 5312, "html_attributions": ["<a href=\"https://maps.google.com/maps/contrib/113177251966932725834\">Kishan S</a>"], "height": 2988}], "scope": "GOOGLE", "business_status": "OPERATIONAL", "types": ["doctor", "health", "point_of_interest", "establishment"], "icon": "https://maps.gstatic.com/mapfiles/place_api/icons/v1/png_71/generic_business-71.png"}]}