{"status": "OK", "html_attributions": [], "results": [{"rating": 3, "user_ratings_total": 2, "name": "AL HAYAT TOUR &TRAVEL", "reference": "ChIJGXWSoDV5AjoRr_gqBlOLzcE", "geometry": {"location": {"lat": 22.5381713, "lng": 88.31984179999999}, "viewport": {"northeast": {"lat": 22.5395304302915, "lng": 88.32113013029151}, "southwest": {"lat": 22.5368324697085, "lng": 88.31843216970849}}}, "opening_hours": {"open_now": true}, "place_id": "ChIJGXWSoDV5AjoRr_gqBlOLzcE", "plus_code": {"global_code": "7MJCG8Q9+7W", "compound_code": "G8Q9+7W Kolkata, West Bengal, India"}, "vicinity": "shop no: 113, 1, Bhukailash Road galaxy square market, Babu Bazar, Khidirpur, Kolkata", "photos": [{"photo_reference": "ATtYBwJwpC2XwDIL-0fsnk6VGipA8l86AUJJa6aZHhr3ZnZKUdQgaioGPLnC8EZq79NH9LhTQLuiXAFsGbk5UyTgfJkVt_y5deDanHgW7gDzty6ukYb5S8w3AW9RvPhI_03P2FLXloEbNQSSy8YnCICMk7guTvsoqxQ7alOWqcTj_KQ3tXMp", "width": 504, "html_attributions": ["<a href=\"https://maps.google.com/maps/contrib/110402531893983719666\">AL HAYAT TOUR &amp;TRAVEL</a>"], "height": 282}], "scope": "GOOGLE", "business_status": "OPERATIONAL", "types": ["supermarket", "grocery_or_supermarket", "food", "point_of_interest", "store", "establishment"], "icon": "https://maps.gstatic.com/mapfiles/place_api/icons/v1/png_71/shopping-71.png"}, {"rating": 5, "user_ratings_total": 2, "name": "Farhin Egg Centre", "reference": "ChIJ_TVizuB5AjoRvUQI43UG-Gk", "geometry": {"location": {"lat": 22.537562, "lng": 88.3194277}, "viewport": {"northeast": {"lat": 22.53890748029151, "lng": 88.3207755302915}, "southwest": {"lat": 22.5362095197085, "lng": 88.31807756970849}}}, "opening_hours": {"open_now": false}, "place_id": "ChIJ_TVizuB5AjoRvUQI43UG-Gk", "plus_code": {"global_code": "7MJCG8Q9+2Q", "compound_code": "G8Q9+2Q Kolkata, West Bengal, India"}, "vicinity": "machhli patti, Kolkata, Babu Bazar, Khidirpur, Kolkata", "photos": [{"photo_reference": "ATtYBwJA4EQNAAl49gVfnzAYIHjgblfgUEChnTWbRl-i8VqDLvcuOENNObuCLZPqmClHQmUrCTt3s0w55faLbHcMdGgnMyEYt7XqFGqi13Kr7MLdcBK150kzeeEutsGJL-cGvLVh-ZCIFfQOhwFl_Cmyyju4CuY-enLgvZC5JAtJNg9_VbiT", "width": 2336, "html_attributions": ["<a href=\"https://maps.google.com/maps/contrib/109120826275873217505\">Badshah Sardar</a>"], "height": 4160}], "scope": "GOOGLE", "business_status": "OPERATIONAL", "types": ["grocery_or_supermarket", "supermarket", "food", "point_of_interest", "store", "establishment"], "icon": "https://maps.gstatic.com/mapfiles/place_api/icons/v1/png_71/shopping-71.png"}, {"rating": 5, "user_ratings_total": 2, "name": "Kulsum Shopping Center", "reference": "ChIJmfHmEuB5AjoR9JTigHNYVmU", "geometry": {"location": {"lat": 22.5388643, "lng": 88.32283}, "viewport": {"northeast": {"lat": 22.5402990302915, "lng": 88.3241253302915}, "southwest": {"lat": 22.53760106970849, "lng": 88.32142736970849}}}, "place_id": "ChIJmfHmEuB5AjoR9JTigHNYVmU", "plus_code": {"global_code": "7MJCG8QF+G4", "compound_code": "G8QF+G4 Kolkata, West Bengal, India"}, "vicinity": "India", "scope": "GOOGLE", "business_status": "OPERATIONAL", "types": ["supermarket", "grocery_or_supermarket", "food", "point_of_interest", "store", "establishment"], "icon": "https://maps.gstatic.com/mapfiles/place_api/icons/v1/png_71/shopping-71.png"}, {"rating": 3, "user_ratings_total": 1, "name": "Super Suppliers", "reference": "ChIJ3Vspl193AjoRpFzO_LWnab0", "geometry": {"location": {"lat": 22.5376093, "lng": 88.3248622}, "viewport": {"northeast": {"lat": 22.5385625802915, "lng": 88.32609938029151}, "southwest": {"lat": 22.53586461970849, "lng": 88.32340141970849}}}, "place_id": "ChIJ3Vspl193AjoRpFzO_LWnab0", "plus_code": {"global_code": "7MJCG8QF+2W", "compound_code": "G8QF+2W Kolkata, West Bengal, India"}, "vicinity": "47 H/3, Doctor Sudhir Bose Road, Babu Bazar, Khidirpur, Kolkata", "photos": [{"photo_reference": "ATtYBwJ7eTzJ4as-SaQd-4dRfYE1Sgey_0FAGyCH3oZhAYokVJb9FbXg_r-oeop1zazLpIOhyLJjaw5e0WFncedlM6g5JRH34IAQsOhSmsX7Qdg7Kv3jmeCWtRiNAYWOFqZhsrA4rW8IMkWi8_Z0ROch5fmNaqr829b5G0kn8LgxIUecNuEi", "width": 720, "html_attributions": ["<a href=\"https://maps.google.com/maps/contrib/112225653014484901232\">MD Irfan</a>"], "height": 721}], "scope": "GOOGLE", "business_status": "OPERATIONAL", "types": ["supermarket", "grocery_or_supermarket", "food", "point_of_interest", "store", "establishment"], "icon": "https://maps.gstatic.com/mapfiles/place_api/icons/v1/png_71/shopping-71.png"}, {"rating": 5, "user_ratings_total": 1, "name": "S. Super Market", "reference": "ChIJybIYUWB3AjoRTXnOKXqY5fE", "geometry": {"location": {"lat": 22.5428863, "lng": 88.32541719999999}, "viewport": {"northeast": {"lat": 22.54420403029151, "lng": 88.3267986802915}, "southwest": {"lat": 22.5415060697085, "lng": 88.32410071970848}}}, "opening_hours": {"open_now": true}, "place_id": "ChIJybIYUWB3AjoRTXnOKXqY5fE", "plus_code": {"global_code": "7MJCG8VG+55", "compound_code": "G8VG+55 Kolkata, West Bengal, India"}, "vicinity": "8, Kabitirtha Sarani, Watgunj Redlight Area, Watganj, Kolkata", "scope": "GOOGLE", "business_status": "OPERATIONAL", "types": ["supermarket", "grocery_or_supermarket", "food", "point_of_interest", "store", "establishment"], "icon": "https://maps.gstatic.com/mapfiles/place_api/icons/v1/png_71/shopping-71.png"}, {"rating": 3.5, "user_ratings_total": 4, "name": "Shaw Stores kadamtala More", "reference": "ChIJcco36ON5AjoRHxwBdFb5nK0", "geometry": {"location": {"lat": 22.5327602, "lng": 88.32026429999999}, "viewport": {"northeast": {"lat": 22.5341227302915, "lng": 88.3215550302915}, "southwest": {"lat": 22.5314247697085, "lng": 88.3188570697085}}}, "opening_hours": {"open_now": false}, "place_id": "ChIJcco36ON5AjoRHxwBdFb5nK0", "plus_code": {"global_code": "7MJCG8MC+44", "compound_code": "G8MC+44 Kolkata, West Bengal, India"}, "vicinity": "B/10/H/2, Moulana Mohammed Ali Road, Babu Bazar, Khidirpur, Kolkata", "photos": [{"photo_reference": "ATtYBwIfjNIlLtQjugycp269J3tm-qHIcDrt6ecqOF8GksCzKYYgpX6F-k08uTgONPUjmipWbjk5qNQKXSEnL5tAUK4w3q6XwjvcY2QmOOsk4DdizwoxqAkSoX6WQA7GRbkkuQaxcvICyj7uB6D3IE4CygpQPlj6TS04sKH_8JFjoeKZTukg", "width": 966, "html_attributions": ["<a href=\"https://maps.google.com/maps/contrib/104225792243034784221\">Suraj Shaw</a>"], "height": 1288}], "scope": "GOOGLE", "business_status": "OPERATIONAL", "types": ["supermarket", "grocery_or_supermarket", "food", "point_of_interest", "store", "establishment"], "icon": "https://maps.gstatic.com/mapfiles/place_api/icons/v1/png_71/shopping-71.png"}, {"rating": 4.3, "user_ratings_total": 6, "name": "Insan Ali And Son's", "reference": "ChIJexlLxGB3AjoRbwsckq_QzXY", "geometry": {"location": {"lat": 22.5416781, "lng": 88.3280246}, "viewport": {"northeast": {"lat": 22.5430880302915, "lng": 88.3294320802915}, "southwest": {"lat": 22.5403900697085, "lng": 88.32673411970849}}}, "place_id": "ChIJexlLxGB3AjoRbwsckq_QzXY", "plus_code": {"global_code": "7MJCG8RH+M6", "compound_code": "G8RH+M6 Kolkata, West Bengal, India"}, "vicinity": "Orpan Gang Market, Alipore, Kolkata", "scope": "GOOGLE", "business_status": "OPERATIONAL", "types": ["supermarket", "grocery_or_supermarket", "food", "point_of_interest", "store", "establishment"], "icon": "https://maps.gstatic.com/mapfiles/place_api/icons/v1/png_71/shopping-71.png"}]}