{"status": "OK", "html_attributions": [], "results": [{"rating": 3.6, "user_ratings_total": 37, "name": "Arambagh's Food Mart Bhowanipore", "reference": "ChIJ_1pVLTZ3AjoR_nFh7ctoj4Y", "geometry": {"location": {"lat": 22.5249538, "lng": 88.3440689}, "viewport": {"northeast": {"lat": 22.5262983802915, "lng": 88.3453214302915}, "southwest": {"lat": 22.5236004197085, "lng": 88.34262346970849}}}, "opening_hours": {"open_now": true}, "place_id": "ChIJ_1pVLTZ3AjoR_nFh7ctoj4Y", "plus_code": {"global_code": "7MJCG8FV+XJ", "compound_code": "G8FV+XJ Kolkata, West Bengal, India"}, "vicinity": "Shop No. 19/A, Harish Mukherjee Road, Bhowanipore, Kolkata", "photos": [{"photo_reference": "ATtYBwIoigtXlpW_0o3UQO6m8qTpk8qfWFnSuEayenbJV3VwZiOqWqx4-A9HHsf0tau_K_yUncdqLT49C6n9vTT7despap8oJ-juqJA3ohcuE5SixHYnZ1z8nVjE08h9pfuiKODNktutsgZ4zQDpLp2kAwEqfOswO3-1HrfsAzasAV7SNSxe", "width": 4096, "html_attributions": ["<a href=\"https://maps.google.com/maps/contrib/105610639415252953216\">Bishnu Gupta</a>"], "height": 2304}], "scope": "GOOGLE", "business_status": "OPERATIONAL", "types": ["department_store", "supermarket", "grocery_or_supermarket", "food", "point_of_interest", "store", "establishment"], "icon": "https://maps.gstatic.com/mapfiles/place_api/icons/v1/png_71/shopping-71.png"}, {"rating": 4.2, "user_ratings_total": 7851, "name": "BB-KOLKATA-RASHBEHARI AVENUE-LAKEMALL", "reference": "ChIJuYd7TjN3AjoRuyIPQnG1O8A", "geometry": {"location": {"lat": 22.5164107, "lng": 88.34897099999999}, "viewport": {"northeast": {"lat": 22.5179478302915, "lng": 88.3502920802915}, "southwest": {"lat": 22.5152498697085, "lng": 88.34759411970849}}}, "opening_hours": {"open_now": true}, "place_id": "ChIJuYd7TjN3AjoRuyIPQnG1O8A", "plus_code": {"global_code": "7MJCG88X+HH", "compound_code": "G88X+HH Kolkata, West Bengal, India"}, "vicinity": "Plot No, 104, Rash Behari Avenue, lakemall, Kolkata", "photos": [{"photo_reference": "ATtYBwKdY9g271CTIeRS3PlzQoE9gbJfDgXcsuph9m_p-aOllwnoxLJxNROttpB-81tZyMka4kIo7b7QvVijnfEqDB_pSZ8bGKcRSKZqEdccXFjs9NOXgnCSE4PlUe45u0GJRifuF2SlOKSuTLt8umjg4r8f03SElICDJDHV-YH4n7a2HnNA", "width": 4128, "html_attributions": ["<a href=\"https://maps.google.com/maps/contrib/100340561443319294264\">Resident Evil</a>"], "height": 3096}], "scope": "GOOGLE", "business_status": "OPERATIONAL", "types": ["department_store", "supermarket", "grocery_or_supermarket", "food", "point_of_interest", "store", "establishment"], "icon": "https://maps.gstatic.com/mapfiles/place_api/icons/v1/png_71/shopping-71.png"}, {"rating": 3.2, "user_ratings_total": 10, "name": "Arambagh's Food Mart Lake Market", "reference": "ChIJsykBLkdxAjoRm9jQ_LH9gmY", "geometry": {"location": {"lat": 22.5160327, "lng": 88.3489141}, "viewport": {"northeast": {"lat": 22.5173591302915, "lng": 88.3503269802915}, "southwest": {"lat": 22.5146611697085, "lng": 88.34762901970849}}}, "opening_hours": {"open_now": true}, "place_id": "ChIJsykBLkdxAjoRm9jQ_LH9gmY", "plus_code": {"global_code": "7MJCG88X+CH", "compound_code": "G88X+CH Kolkata, West Bengal, India"}, "vicinity": "9, Lake Place Road, Lake Market, East Kolkata Township, Kolkata", "photos": [{"photo_reference": "ATtYBwKwgdNgMrljFNG3AqlrFNl7cFcl7RrAe9fADLs3LLq16KDgiWBnD_tUAOv5gKBjidKiuGFOBueAU9gAtBZUAYXHBXNRD4jFeeMotzc_3rBBwqoAlBieWWhck3viyEtgkcXIZVtoLDC3pj71WIPL6onBxliEDcM1J4ulWa9Vwp88AU_2", "width": 4000, "html_attributions": ["<a href=\"https://maps.google.com/maps/contrib/117092229063223515422\">Abesh Barman</a>"], "height": 2000}], "scope": "GOOGLE", "business_status": "OPERATIONAL", "types": ["department_store", "supermarket", "grocery_or_supermarket", "food", "point_of_interest", "store", "establishment"], "icon": "https://maps.gstatic.com/mapfiles/place_api/icons/v1/png_71/shopping-71.png"}, {"rating": 5, "user_ratings_total": 2, "name": "BalajI Food Products", "reference": "ChIJd1BlgUt3AjoRUGQpsagTqbs", "geometry": {"location": {"lat": 22.5190588, "lng": 88.33891179999999}, "viewport": {"northeast": {"lat": 22.5204465302915, "lng": 88.3402711302915}, "southwest": {"lat": 22.5177485697085, "lng": 88.33757316970849}}}, "opening_hours": {"open_now": true}, "place_id": "ChIJd1BlgUt3AjoRUGQpsagTqbs", "plus_code": {"global_code": "7MJCG89Q+JH", "compound_code": "G89Q+JH Kolkata, West Bengal, India"}, "vicinity": "45/1, Chetla Road, Chetla, Kolkata", "scope": "GOOGLE", "business_status": "OPERATIONAL", "types": ["supermarket", "grocery_or_supermarket", "food", "point_of_interest", "store", "establishment"], "icon": "https://maps.gstatic.com/mapfiles/place_api/icons/v1/png_71/shopping-71.png"}, {"name": "Biswajit sarkar", "reference": "ChIJ64ZYp7x3AjoR7MiTatpPDD8", "geometry": {"location": {"lat": 22.5178342, "lng": 88.3413848}, "viewport": {"northeast": {"lat": 22.5192145802915, "lng": 88.34273118029151}, "southwest": {"lat": 22.5165166197085, "lng": 88.3400332197085}}}, "place_id": "ChIJ64ZYp7x3AjoR7MiTatpPDD8", "plus_code": {"global_code": "7MJCG89R+4H", "compound_code": "G89R+4H Kolkata, West Bengal, India"}, "vicinity": "161, Nepal Bhattacharjee Street, Anami Sangha, Kalighat, Kolkata", "scope": "GOOGLE", "business_status": "OPERATIONAL", "types": ["supermarket", "grocery_or_supermarket", "food", "point_of_interest", "store", "establishment"], "icon": "https://maps.gstatic.com/mapfiles/place_api/icons/v1/png_71/shopping-71.png"}, {"rating": 4.2, "user_ratings_total": 5, "name": "Bajaj Finace ....", "reference": "ChIJq6fF3Oh3AjoR8hi6mpYZGPU", "geometry": {"location": {"lat": 22.5231247, "lng": 88.3438338}, "viewport": {"northeast": {"lat": 22.5244724302915, "lng": 88.34517478029152}, "southwest": {"lat": 22.5217744697085, "lng": 88.3424768197085}}}, "opening_hours": {"open_now": false}, "place_id": "ChIJq6fF3Oh3AjoR8hi6mpYZGPU", "plus_code": {"global_code": "7MJCG8FV+6G", "compound_code": "G8FV+6G Kolkata, West Bengal, India"}, "vicinity": "Kalighat, Kolkata", "photos": [{"photo_reference": "ATtYBwIDpS8FzBdD7Jp33xJ4xZVXlkYBoJNKOCMD3csqQv-8Es1B3ozKISzgRUaCmzGY2D9XpPTOtM9uxuQZy64M8CqCkfoP_W2hGnWrGvv6G5Euuj9ejxR0cTOg1cK81B1XzwWY0q1a5FRxG8v1-pv8mlaoJaG8-bN8pXNoL7hx9JoSio9t", "width": 939, "html_attributions": ["<a href=\"https://maps.google.com/maps/contrib/114789766457550241287\">FREE FIRE ATTACK</a>"], "height": 690}], "scope": "GOOGLE", "business_status": "OPERATIONAL", "types": ["supermarket", "grocery_or_supermarket", "food", "point_of_interest", "store", "establishment"], "icon": "https://maps.gstatic.com/mapfiles/place_api/icons/v1/png_71/shopping-71.png"}, {"name": "Buildmat Bricks", "reference": "ChIJ0w0DGjZ3AjoR_5Z6s4BTY40", "geometry": {"location": {"lat": 22.5231495, "lng": 88.3439348}, "viewport": {"northeast": {"lat": 22.52447928029151, "lng": 88.3452837302915}, "southwest": {"lat": 22.5217813197085, "lng": 88.34258576970849}}}, "place_id": "ChIJ0w0DGjZ3AjoR_5Z6s4BTY40", "plus_code": {"global_code": "7MJCG8FV+7H", "compound_code": "G8FV+7H Kolkata, West Bengal, India"}, "vicinity": "39, Kalidas Patitundi Lane, Kalighat, Kolkata", "scope": "GOOGLE", "business_status": "OPERATIONAL", "types": ["supermarket", "grocery_or_supermarket", "food", "point_of_interest", "store", "establishment"], "icon": "https://maps.gstatic.com/mapfiles/place_api/icons/v1/png_71/shopping-71.png"}, {"name": "DAS'S SHOP", "reference": "ChIJ-z2ENyB3AjoR-0xJVdxw4Jk", "geometry": {"location": {"lat": 22.5163755, "lng": 88.3336777}, "viewport": {"northeast": {"lat": 22.5177193802915, "lng": 88.3350230802915}, "southwest": {"lat": 22.5150214197085, "lng": 88.33232511970849}}}, "opening_hours": {"open_now": true}, "place_id": "ChIJ-z2ENyB3AjoR-0xJVdxw4Jk", "plus_code": {"global_code": "7MJCG88M+HF", "compound_code": "G88M+HF Kolkata, West Bengal, India"}, "vicinity": "Alipur Road", "scope": "GOOGLE", "business_status": "OPERATIONAL", "types": ["supermarket", "grocery_or_supermarket", "food", "point_of_interest", "store", "establishment"], "icon": "https://maps.gstatic.com/mapfiles/place_api/icons/v1/png_71/shopping-71.png"}, {"rating": 4.2, "user_ratings_total": 18, "name": "Lake Mall Exit", "reference": "ChIJCXI4UTN3AjoRqfG9WS-yMyM", "geometry": {"location": {"lat": 22.5165561, "lng": 88.34856599999999}, "viewport": {"northeast": {"lat": 22.5179222802915, "lng": 88.3498374302915}, "southwest": {"lat": 22.5152243197085, "lng": 88.34713946970848}}}, "place_id": "ChIJCXI4UTN3AjoRqfG9WS-yMyM", "plus_code": {"global_code": "7MJCG88X+JC", "compound_code": "G88X+JC Kolkata, West Bengal, India"}, "vicinity": "13, Janak Road, Lake Market, Kalighat, Kolkata", "photos": [{"photo_reference": "ATtYBwKg2hP1TsJW1tLBNlvRjtulI4csXCXCs6pqUiaPRUnblSycCLAdOfkao2z5jPATMIfLXvAffAm9cYTc25nr156dhwya64lgJZO8oCEfgXGSa3Ia69C_CddS94h0qj7oxLt1BI9j9iESxdl1ZRSciT_KNtlfbuJB1hnXIFEmZiQWsOCz", "width": 4608, "html_attributions": ["<a href=\"https://maps.google.com/maps/contrib/107307417129497868495\">Reeju Barman</a>"], "height": 3456}], "scope": "GOOGLE", "business_status": "OPERATIONAL", "types": ["supermarket", "grocery_or_supermarket", "food", "point_of_interest", "store", "establishment"], "icon": "https://maps.gstatic.com/mapfiles/place_api/icons/v1/png_71/shopping-71.png"}, {"rating": 5, "user_ratings_total": 2, "name": "\u09b2\u09c7\u0995 \u09ae\u09b2 \u09aa\u09cd\u09b0\u09a7\u09be\u09a8 \u09ab\u099f\u0995 Lake Mall Main Entrance", "reference": "ChIJhRbTTzN3AjoRt0NV95tkfQE", "geometry": {"location": {"lat": 22.5166559, "lng": 88.3488508}, "viewport": {"northeast": {"lat": 22.5180652302915, "lng": 88.35019088029149}, "southwest": {"lat": 22.5153672697085, "lng": 88.34749291970849}}}, "place_id": "ChIJhRbTTzN3AjoRt0NV95tkfQE", "plus_code": {"global_code": "7MJCG88X+MG", "compound_code": "G88X+MG Kolkata, West Bengal, India"}, "vicinity": "\u09b0\u09be\u09b8\u09ac\u09bf\u09b9\u09be\u09b0\u09c0 \u0985\u09cd\u09af\u09be\u09ad\u09bf\u09a8\u09bf\u0989, Lake Market, Kalighat, Kolkata", "photos": [{"photo_reference": "ATtYBwKkgR9sNOUXW8qPBzeG40N4NOLH30v9VFftjwqIO_tXEsIrn1GbhzyM2zhFe-xycDfWIBe5Zath7iTh6qKfTYH8a8ouJZCAC8vsUfehgDFbNA0hsVlbwrv2f3zNYOPSwxloCHLLMr2xZfHsZaqgCShi_wD1ukKJxoWedAyDC_tIXOsK", "width": 1200, "html_attributions": ["<a href=\"https://maps.google.com/maps/contrib/114222575874332867167\">SUKANTA DAS</a>"], "height": 1600}], "scope": "GOOGLE", "business_status": "OPERATIONAL", "types": ["supermarket", "grocery_or_supermarket", "food", "point_of_interest", "store", "establishment"], "icon": "https://maps.gstatic.com/mapfiles/place_api/icons/v1/png_71/shopping-71.png"}, {"rating": 5, "user_ratings_total": 2, "name": "Haldirams Sweets And Snacks", "reference": "ChIJXTwMPDN3AjoRUvh2CTqvAGk", "geometry": {"location": {"lat": 22.5172476, "lng": 88.34979630000001}, "viewport": {"northeast": {"lat": 22.5185934302915, "lng": 88.35121793029151}, "southwest": {"lat": 22.5158954697085, "lng": 88.3485199697085}}}, "opening_hours": {"open_now": true}, "place_id": "ChIJXTwMPDN3AjoRUvh2CTqvAGk", "plus_code": {"global_code": "7MJCG88X+VW", "compound_code": "G88X+VW Kolkata, West Bengal, India"}, "vicinity": "1, Deshapriya Park Rd Deshapriya Park, Deshapriya Park Road, Deshapriya Park, Manoharpukur, Kalighat, Kolkata", "scope": "GOOGLE", "business_status": "OPERATIONAL", "types": ["grocery_or_supermarket", "supermarket", "food", "point_of_interest", "store", "establishment"], "icon": "https://maps.gstatic.com/mapfiles/place_api/icons/v1/png_71/shopping-71.png"}, {"name": "Appu Pandey Fhone", "reference": "ChIJ-1dQR1xxAjoRB37Zc0guKXE", "geometry": {"location": {"lat": 22.5110901, "lng": 88.34370580000001}, "viewport": {"northeast": {"lat": 22.5124304802915, "lng": 88.3450519802915}, "southwest": {"lat": 22.5097325197085, "lng": 88.3423540197085}}}, "place_id": "ChIJ-1dQR1xxAjoRB37Zc0guKXE", "plus_code": {"global_code": "7MJCG86V+CF", "compound_code": "G86V+CF Kolkata, West Bengal, India"}, "vicinity": "46, Chandra Mondal Lane, Sahanagar, Kalighat, Kolkata", "scope": "GOOGLE", "business_status": "OPERATIONAL", "types": ["supermarket", "grocery_or_supermarket", "food", "point_of_interest", "store", "establishment"], "icon": "https://maps.gstatic.com/mapfiles/place_api/icons/v1/png_71/shopping-71.png"}, {"rating": 3.8, "user_ratings_total": 12, "name": "In & Out", "reference": "ChIJwWxTMcpwAjoRLhkNLReY4fM", "geometry": {"location": {"lat": 22.5109185, "lng": 88.3454016}, "viewport": {"northeast": {"lat": 22.51225653029151, "lng": 88.34689953029151}, "southwest": {"lat": 22.5095585697085, "lng": 88.34420156970849}}}, "opening_hours": {"open_now": true}, "place_id": "ChIJwWxTMcpwAjoRLhkNLReY4fM", "plus_code": {"global_code": "7MJCG86W+95", "compound_code": "G86W+95 Kolkata, West Bengal, India"}, "vicinity": "200, Shyamaprasad Mukherjee Road, Mudiali, Kalighat, Kolkata", "photos": [{"photo_reference": "ATtYBwJr88nxbiSxK49-v06nW3HD3GtU8AKuj8dFOrTShBVWxjJib0fxnxi-H6JlH57NZ4o8FUQ-gKmh8JYei-0fs9L5zfnrw2R19Tezf3KljBFf2RCdMJMPwgjyGRTu9zEC2i-2L-CoO3nN2kLQelctWngCMlKfT6smZbeo4y5mWgUeEt3Y", "width": 1920, "html_attributions": ["<a href=\"https://maps.google.com/maps/contrib/108631269745427333113\">Subham Choudhary</a>"], "height": 1080}], "scope": "GOOGLE", "business_status": "OPERATIONAL", "types": ["supermarket", "grocery_or_supermarket", "food", "point_of_interest", "store", "establishment"], "icon": "https://maps.gstatic.com/mapfiles/place_api/icons/v1/png_71/shopping-71.png"}, {"rating": 5, "user_ratings_total": 1, "name": "Big Mart Retail Store", "reference": "ChIJl3GXWvd3AjoRYLwOsVTdMuA", "geometry": {"location": {"lat": 22.5222354, "lng": 88.3279309}, "viewport": {"northeast": {"lat": 22.52352988029151, "lng": 88.3292687302915}, "southwest": {"lat": 22.5208319197085, "lng": 88.3265707697085}}}, "opening_hours": {"open_now": true}, "place_id": "ChIJl3GXWvd3AjoRYLwOsVTdMuA", "plus_code": {"global_code": "7MJCG8CH+V5", "compound_code": "G8CH+V5 Kolkata, West Bengal, India"}, "vicinity": "15, Burdwan Road, Alipore, Kolkata", "scope": "GOOGLE", "business_status": "OPERATIONAL", "types": ["supermarket", "grocery_or_supermarket", "food", "point_of_interest", "store", "establishment"], "icon": "https://maps.gstatic.com/mapfiles/place_api/icons/v1/png_71/shopping-71.png"}, {"rating": 5, "user_ratings_total": 3, "name": "Ashok Stores", "reference": "ChIJL76dljJ3AjoRgfz_QtBODiY", "geometry": {"location": {"lat": 22.5178634, "lng": 88.3521691}, "viewport": {"northeast": {"lat": 22.5192174802915, "lng": 88.3535519302915}, "southwest": {"lat": 22.5165195197085, "lng": 88.3508539697085}}}, "place_id": "ChIJL76dljJ3AjoRgfz_QtBODiY", "plus_code": {"global_code": "7MJCG992+4V", "compound_code": "G992+4V Kolkata, West Bengal, India"}, "vicinity": "183, Sarat Bose Road, Manoharpukur, Kalighat, Kolkata", "photos": [{"photo_reference": "ATtYBwL83zkgVbd0Vz-Zm3CO4Sij06q7wSUn3XgA9gm9wSYuG08DwVHR4zL-FeDlDdXIGraLdI6RSWkxbx0VXNrIJCiBJV4SN-sF9WQ2HMcDArdVebwWYXSiWdT8rVifLTiesBCz7Ey-T-M8-DNwJnAqxNfp26q5n9NM3fnW9-ayguJswF0q", "width": 3024, "html_attributions": ["<a href=\"https://maps.google.com/maps/contrib/114537818840037615540\">SUBHASISH CHAKRABARTI</a>"], "height": 4032}], "scope": "GOOGLE", "business_status": "OPERATIONAL", "types": ["supermarket", "grocery_or_supermarket", "food", "point_of_interest", "store", "establishment"], "icon": "https://maps.gstatic.com/mapfiles/place_api/icons/v1/png_71/shopping-71.png"}, {"rating": 3, "user_ratings_total": 1, "name": "Suruchi parking", "reference": "ChIJpQG2pJBxAjoRqxLCVVw8Rc8", "geometry": {"location": {"lat": 22.50837689999999, "lng": 88.3381587}, "viewport": {"northeast": {"lat": 22.5097320802915, "lng": 88.3395078302915}, "southwest": {"lat": 22.5070341197085, "lng": 88.33680986970849}}}, "place_id": "ChIJpQG2pJBxAjoRqxLCVVw8Rc8", "plus_code": {"global_code": "7MJCG85Q+97", "compound_code": "G85Q+97 Kolkata, West Bengal, India"}, "vicinity": "P-845/A, Block P, New Alipore, Kolkata", "scope": "GOOGLE", "business_status": "OPERATIONAL", "types": ["supermarket", "grocery_or_supermarket", "food", "point_of_interest", "store", "establishment"], "icon": "https://maps.gstatic.com/mapfiles/place_api/icons/v1/png_71/shopping-71.png"}, {"rating": 3.8, "user_ratings_total": 127, "name": "Easyday Club", "reference": "ChIJY6SJard3AjoRD9Yuz-CMSMk", "geometry": {"location": {"lat": 22.52775, "lng": 88.3502752}, "viewport": {"northeast": {"lat": 22.5290798302915, "lng": 88.35161798029151}, "southwest": {"lat": 22.5263818697085, "lng": 88.3489200197085}}}, "opening_hours": {"open_now": true}, "place_id": "ChIJY6SJard3AjoRD9Yuz-CMSMk", "plus_code": {"global_code": "7MJCG9H2+34", "compound_code": "G9H2+34 Kolkata, West Bengal, India"}, "vicinity": "RIDDHI SIDDHI JYOTI, 1st floor, 1, Bakul Bagan Row, Bhowanipore, Kolkata", "photos": [{"photo_reference": "ATtYBwI899GQItf2bJO6luyfEZ1ruuWwGlenQOYiV0iM57J0zB-XgKCzPtTttE6tXJpNJoT4p3e_UgFLzPn50CdQ_1w8G9voNuCwVpJSJFTeMmcX3FtQFN7y3ZTpAApeplCxauuIvlg86GbFWwbUstm_3StiMSkOfdiX8jhzOuFQ3qgE5Sw-", "width": 2136, "html_attributions": ["<a href=\"https://maps.google.com/maps/contrib/105409587033112175812\">Raj Khawariya</a>"], "height": 4624}], "scope": "GOOGLE", "business_status": "OPERATIONAL", "types": ["supermarket", "grocery_or_supermarket", "food", "point_of_interest", "store", "establishment"], "icon": "https://maps.gstatic.com/mapfiles/place_api/icons/v1/png_71/shopping-71.png"}]}