{"status": "OK", "html_attributions": [], "results": [{"rating": 3.7, "user_ratings_total": 1376, "name": "Tuglakabad", "reference": "ChIJYTzKn9rmDDkRYuPviyTnMVM", "geometry": {"location": {"lat": 28.5035147, "lng": 77.297372}, "viewport": {"northeast": {"lat": 28.5048795302915, "lng": 77.2988161302915}, "southwest": {"lat": 28.5021815697085, "lng": 77.29611816970849}}}, "place_id": "ChIJYTzKn9rmDDkRYuPviyTnMVM", "plus_code": {"global_code": "7JWVG73W+CW", "compound_code": "G73W+CW New Delhi, Delhi, India"}, "vicinity": "Block E, Mohan Cooperative Industrial Estate, Badarpur, New Delhi", "photos": [{"photo_reference": "ATtYBwLVNNoYEq0zTKbGT8q2yNLuWaDZH3IN9-YBLBPOUgNMkQDxg0J-eU-QlSSm6qCUiZ3LgXLXaoYoVWqso9fb5L1pCmMRZNEuBMDKJFD379LibieTRASvWlwAiO5ksxoC3JpFpkE3rtSrV6fdhn-XFQE0hWT8hUX6OgRhqZNZ5qijY2Kk", "width": 3472, "html_attributions": ["<a href=\"https://maps.google.com/maps/contrib/112473133058588357743\">deepesh kumar</a>"], "height": 4624}], "scope": "GOOGLE", "business_status": "OPERATIONAL", "types": ["train_station", "transit_station", "point_of_interest", "establishment"], "icon": "https://maps.gstatic.com/mapfiles/place_api/icons/v1/png_71/train-71.png"}, {"rating": 4.1, "user_ratings_total": 15, "name": "Mohan Estate Metro Station", "reference": "ChIJ10tRvcXmDDkRHsBTHIrm__o", "geometry": {"location": {"lat": 28.5085545, "lng": 77.2994382}, "viewport": {"northeast": {"lat": 28.5098934802915, "lng": 77.3007568802915}, "southwest": {"lat": 28.5071955197085, "lng": 77.2980589197085}}}, "place_id": "ChIJ10tRvcXmDDkRHsBTHIrm__o", "plus_code": {"global_code": "7JWVG75X+CQ", "compound_code": "G75X+CQ New Delhi, Delhi, India"}, "vicinity": "Main Mathura Road, Mohan Cooperative Industrial Estate, Badarpur, New Delhi, South Delhi, New Delhi", "photos": [{"photo_reference": "ATtYBwLBKOpbgx6bitffOXkNiI7jb03sHGWKXw4x_V5O69KQLNAuuq5a-K1UdwxNFBP4TLxpINXrV4jEOm03lZq7dmo9QB2ScRbjNxV7F1zmiKkLvKT6g6blpfeixkFr-YtQQiRdaN-AHQjJ6iwtlklE6qFxmmMGye_arKNg6HyyPtxl-aJE", "width": 4160, "html_attributions": ["<a href=\"https://maps.google.com/maps/contrib/112460985186314198092\">Armaan</a>"], "height": 2340}], "scope": "GOOGLE", "business_status": "OPERATIONAL", "types": ["train_station", "transit_station", "point_of_interest", "establishment"], "icon": "https://maps.gstatic.com/mapfiles/place_api/icons/v1/png_71/train-71.png"}, {"rating": 4.2, "user_ratings_total": 78, "name": "Sarita Vihar Metro Depot", "reference": "ChIJETln-LfmDDkRzJAIKYLcuUs", "geometry": {"location": {"lat": 28.5167105, "lng": 77.2990046}, "viewport": {"northeast": {"lat": 28.5180210302915, "lng": 77.3002465302915}, "southwest": {"lat": 28.5153230697085, "lng": 77.2975485697085}}}, "place_id": "ChIJETln-LfmDDkRzJAIKYLcuUs", "plus_code": {"global_code": "7JWVG78X+MJ", "compound_code": "G78X+MJ New Delhi, Delhi, India"}, "vicinity": "Ali Extension, Ali, New Delhi", "photos": [{"photo_reference": "ATtYBwKUEtNF8R6pcCZiCQUB8g8xw-ktgA3NsNvILKqfTOdbbp88mDSIO1zm2_9mZj4xT2dnfK_otQwahiI371KYWJcBZa0UULuuArda8T2RuruCP8_Z3g9fS0RAa5jkFrPVoZAElBS779RN0m9bG9wOJJUpqM6ZdipP1qm5Wj1Vp_fZHM7M", "width": 3264, "html_attributions": ["<a href=\"https://maps.google.com/maps/contrib/114870460187661561443\">Shubham Sinha</a>"], "height": 2448}], "scope": "GOOGLE", "business_status": "OPERATIONAL", "types": ["train_station", "transit_station", "point_of_interest", "establishment"], "icon": "https://maps.gstatic.com/mapfiles/place_api/icons/v1/png_71/train-71.png"}]}