{"status": "OK", "html_attributions": [], "results": [{"name": "DSP Office", "reference": "ChIJhU7S1YQ3DTkRvsV1_SRs5PU", "geometry": {"location": {"lat": 28.210861, "lng": 76.8636131}, "viewport": {"northeast": {"lat": 28.2122879802915, "lng": 76.86479758029151}, "southwest": {"lat": 28.2095900197085, "lng": 76.86209961970849}}}, "opening_hours": {"open_now": true}, "place_id": "ChIJhU7S1YQ3DTkRvsV1_SRs5PU", "plus_code": {"global_code": "7JWR6V67+8C", "compound_code": "6V67+8C Bhiwadi, Rajasthan, India"}, "vicinity": "RIICO Industrial Area, Bhiwadi", "scope": "GOOGLE", "business_status": "OPERATIONAL", "types": ["local_government_office", "point_of_interest", "establishment"], "icon": "https://maps.gstatic.com/mapfiles/place_api/icons/v1/png_71/civic_building-71.png"}, {"rating": 3, "user_ratings_total": 2, "name": "Sales Tax Office", "reference": "ChIJUTNKMJo3DTkRPLv6_3Brivc", "geometry": {"location": {"lat": 28.2055427, "lng": 76.8628889}, "viewport": {"northeast": {"lat": 28.2069312302915, "lng": 76.8642524302915}, "southwest": {"lat": 28.2042332697085, "lng": 76.8615544697085}}}, "opening_hours": {"open_now": true}, "place_id": "ChIJUTNKMJo3DTkRPLv6_3Brivc", "plus_code": {"global_code": "7JWR6V47+65", "compound_code": "6V47+65 Bhiwadi, Rajasthan, India"}, "vicinity": "RIICO Industrial Area, Bhiwadi", "scope": "GOOGLE", "business_status": "OPERATIONAL", "types": ["local_government_office", "point_of_interest", "establishment"], "icon": "https://maps.gstatic.com/mapfiles/place_api/icons/v1/png_71/civic_building-71.png"}, {"rating": 3.4, "user_ratings_total": 7, "name": "RIICO Office", "reference": "ChIJQz6b0o03DTkRiBSSPYFoGNQ", "geometry": {"location": {"lat": 28.2123547, "lng": 76.85410739999999}, "viewport": {"northeast": {"lat": 28.2137055802915, "lng": 76.8554405302915}, "southwest": {"lat": 28.2110076197085, "lng": 76.8527425697085}}}, "place_id": "ChIJQz6b0o03DTkRiBSSPYFoGNQ", "plus_code": {"global_code": "7JWR6V63+WJ", "compound_code": "6V63+WJ Bhiwadi, Rajasthan, India"}, "vicinity": "RIICO Industrial Area, Bhiwadi", "photos": [{"photo_reference": "CmRaAAAAPqVRtWrSXbj93f81Izqf-5gH9M7LUeZeEhjK8VkQMPHA5LqrwfGL9-cnkoW06ceGeIjYMD_qP3sOaH0rZWrocImHdkyrJKD6nOi8bkSV0RGbx3_Gpi_jRHVeMJHlAXlJEhDZr_rvxF-uSTkp51Jwu5Z-GhRqxkfl12DJI01WO4G58Nls1AmdRA", "width": 4608, "html_attributions": ["<a href=\"https://maps.google.com/maps/contrib/105424273343375128435\">Chunmun Singh</a>"], "height": 2128}], "scope": "GOOGLE", "business_status": "OPERATIONAL", "types": ["local_government_office", "point_of_interest", "establishment"], "icon": "https://maps.gstatic.com/mapfiles/place_api/icons/v1/png_71/civic_building-71.png"}, {"rating": 4.2, "user_ratings_total": 6, "permanently_closed": true, "name": "Baba Transport Company", "reference": "ChIJ86-wuZk3DTkRF2-8hQcPCmw", "geometry": {"location": {"lat": 28.20312169999999, "lng": 76.8624336}, "viewport": {"northeast": {"lat": 28.2044681802915, "lng": 76.86382718029151}, "southwest": {"lat": 28.20177021970849, "lng": 76.86112921970849}}}, "place_id": "ChIJ86-wuZk3DTkRF2-8hQcPCmw", "plus_code": {"global_code": "7JWR6V36+6X", "compound_code": "6V36+6X Bhiwadi, Rajasthan, India"}, "vicinity": "RIICO Industrial Area, Bhiwadi", "photos": [{"photo_reference": "CmRaAAAAkG2Ky3_G1wnPP8FHZNrDmlRlQxx6uI7LvVfP_fQhIQmzeHGm5IHBuln57QrH0Tp3cLS1E2PJAAex4BwELuyMVUkZgYC3DHAlVwewIIsy5F0sHca9YCXON34b_9uWu6RxEhCmnTHAGYUmpghglk9dEsLJGhQMuJRDA4pnyuzPZ00TMvUU26rozA", "width": 640, "html_attributions": ["<a href=\"https://maps.google.com/maps/contrib/105018734321987169581\">Sunil Gurjar</a>"], "height": 480}], "scope": "GOOGLE", "business_status": "CLOSED_TEMPORARILY", "types": ["local_government_office", "point_of_interest", "establishment"], "icon": "https://maps.gstatic.com/mapfiles/place_api/icons/v1/png_71/civic_building-71.png"}, {"permanently_closed": true, "name": "Safedecor", "reference": "ChIJ1eUSoZQ3DTkRofzEvyeZ3us", "geometry": {"location": {"lat": 28.2032317, "lng": 76.85024}, "viewport": {"northeast": {"lat": 28.2045508302915, "lng": 76.8515848302915}, "southwest": {"lat": 28.2018528697085, "lng": 76.8488868697085}}}, "place_id": "ChIJ1eUSoZQ3DTkRofzEvyeZ3us", "plus_code": {"global_code": "7JWR6V32+73", "compound_code": "6V32+73 Bhiwadi, Rajasthan, India"}, "vicinity": "Bhiwadi,, RIICO Industrial Area, Bhiwadi", "scope": "GOOGLE", "business_status": "CLOSED_TEMPORARILY", "types": ["local_government_office", "point_of_interest", "establishment"], "icon": "https://maps.gstatic.com/mapfiles/place_api/icons/v1/png_71/civic_building-71.png"}, {"permanently_closed": true, "name": "Police station", "reference": "ChIJD-pdQlw3DTkRaBl1nEWlte8", "geometry": {"location": {"lat": 28.2121408, "lng": 76.8623971}, "viewport": {"northeast": {"lat": 28.2136355302915, "lng": 76.8638364802915}, "southwest": {"lat": 28.2109375697085, "lng": 76.86113851970849}}}, "place_id": "ChIJD-pdQlw3DTkRaBl1nEWlte8", "plus_code": {"global_code": "7JWR6V66+VX", "compound_code": "6V66+VX Bhiwadi, Rajasthan, India"}, "vicinity": "RIICO Industrial Area, Bhiwadi", "scope": "GOOGLE", "business_status": "CLOSED_TEMPORARILY", "types": ["police", "local_government_office", "point_of_interest", "establishment"], "icon": "https://maps.gstatic.com/mapfiles/place_api/icons/v1/png_71/police-71.png"}, {"name": "EVERGEEN GOODS CARRIERS", "reference": "ChIJ42EjfY83DTkRcHtbC3ba3eE", "geometry": {"location": {"lat": 28.213749, "lng": 76.860423}, "viewport": {"northeast": {"lat": 28.2150444802915, "lng": 76.86177808029151}, "southwest": {"lat": 28.2123465197085, "lng": 76.8590801197085}}}, "opening_hours": {"open_now": true}, "place_id": "ChIJ42EjfY83DTkRcHtbC3ba3eE", "plus_code": {"global_code": "7JWR6V76+F5", "compound_code": "6V76+F5 Bhiwadi, Rajasthan, India"}, "vicinity": "Shop No H-11 Ganpati Palaza Near, Phoolbagh Chowk Bhiwadi, Bhiwadi", "scope": "GOOGLE", "business_status": "OPERATIONAL", "types": ["moving_company", "local_government_office", "storage", "point_of_interest", "establishment"], "icon": "https://maps.gstatic.com/mapfiles/place_api/icons/v1/png_71/generic_business-71.png"}, {"rating": 4.6, "user_ratings_total": 5, "name": "ESI", "reference": "ChIJCYIHy4Q3DTkRv4f0VaRnal0", "geometry": {"location": {"lat": 28.2108037, "lng": 76.8647087}, "viewport": {"northeast": {"lat": 28.2119618802915, "lng": 76.8659971802915}, "southwest": {"lat": 28.2092639197085, "lng": 76.8632992197085}}}, "opening_hours": {"open_now": true}, "place_id": "ChIJCYIHy4Q3DTkRv4f0VaRnal0", "plus_code": {"global_code": "7JWR6V67+8V", "compound_code": "6V67+8V Bhiwadi, Rajasthan, India"}, "vicinity": "RIICO Industrial Area, Bhiwadi", "scope": "GOOGLE", "business_status": "OPERATIONAL", "types": ["local_government_office", "point_of_interest", "establishment"], "icon": "https://maps.gstatic.com/mapfiles/place_api/icons/v1/png_71/civic_building-71.png"}, {"name": "RIICO Office Unit 2", "reference": "ChIJg7dX5o03DTkRYqP8POGcMIk", "geometry": {"location": {"lat": 28.2108468, "lng": 76.85425219999999}, "viewport": {"northeast": {"lat": 28.21216393029151, "lng": 76.85560003029151}, "southwest": {"lat": 28.2094659697085, "lng": 76.8529020697085}}}, "opening_hours": {"open_now": true}, "place_id": "ChIJg7dX5o03DTkRYqP8POGcMIk", "plus_code": {"global_code": "7JWR6V63+8P", "compound_code": "6V63+8P Bhiwadi, Rajasthan, India"}, "vicinity": "RIICO Industrial Area, Bhiwadi", "scope": "GOOGLE", "business_status": "OPERATIONAL", "types": ["local_government_office", "point_of_interest", "establishment"], "icon": "https://maps.gstatic.com/mapfiles/place_api/icons/v1/png_71/civic_building-71.png"}, {"name": "RIICO water works", "reference": "ChIJU7SLK4w3DTkRokHG4J2i8R0", "geometry": {"location": {"lat": 28.2127707, "lng": 76.8544507}, "viewport": {"northeast": {"lat": 28.2140296802915, "lng": 76.85580488029152}, "southwest": {"lat": 28.2113317197085, "lng": 76.8531069197085}}}, "opening_hours": {"open_now": true}, "place_id": "ChIJU7SLK4w3DTkRokHG4J2i8R0", "plus_code": {"global_code": "7JWR6V73+4Q", "compound_code": "6V73+4Q Bhiwadi, Rajasthan, India"}, "vicinity": "Bhiwadi", "scope": "GOOGLE", "business_status": "OPERATIONAL", "types": ["local_government_office", "point_of_interest", "establishment"], "icon": "https://maps.gstatic.com/mapfiles/place_api/icons/v1/png_71/civic_building-71.png"}, {"permanently_closed": true, "name": "Kaushik Associates", "reference": "ChIJ4fqFgJk3DTkRuKXnBrIrdXw", "geometry": {"location": {"lat": 28.20471599999999, "lng": 76.863243}, "viewport": {"northeast": {"lat": 28.2060472802915, "lng": 76.8646612302915}, "southwest": {"lat": 28.2033493197085, "lng": 76.8619632697085}}}, "place_id": "ChIJ4fqFgJk3DTkRuKXnBrIrdXw", "plus_code": {"global_code": "7JWR6V37+V7", "compound_code": "6V37+V7 Bhiwadi, Rajasthan, India"}, "vicinity": "KG plaza,RIICO Industrial Area, Bhiwadi", "scope": "GOOGLE", "business_status": "CLOSED_TEMPORARILY", "types": ["local_government_office", "point_of_interest", "establishment"], "icon": "https://maps.gstatic.com/mapfiles/place_api/icons/v1/png_71/civic_building-71.png"}, {"permanently_closed": true, "name": "Shri Shyam Road Carrier", "reference": "ChIJ52OPgJk3DTkRXhGl93RH1B4", "geometry": {"location": {"lat": 28.204712, "lng": 76.863238}, "viewport": {"northeast": {"lat": 28.2060428302915, "lng": 76.8646579302915}, "southwest": {"lat": 28.20334486970849, "lng": 76.8619599697085}}}, "place_id": "ChIJ52OPgJk3DTkRXhGl93RH1B4", "plus_code": {"global_code": "7JWR6V37+V7", "compound_code": "6V37+V7 Bhiwadi, Rajasthan, India"}, "vicinity": "216 KG Plaza,RIICO CHOWK, Bhiwadi", "scope": "GOOGLE", "business_status": "CLOSED_TEMPORARILY", "types": ["local_government_office", "point_of_interest", "establishment"], "icon": "https://maps.gstatic.com/mapfiles/place_api/icons/v1/png_71/civic_building-71.png"}, {"name": "DIC Center", "reference": "ChIJC-Rqvo03DTkRhT785bD1_mQ", "geometry": {"location": {"lat": 28.2110453, "lng": 76.85307739999999}, "viewport": {"northeast": {"lat": 28.2123770802915, "lng": 76.85442188029151}, "southwest": {"lat": 28.2096791197085, "lng": 76.8517239197085}}}, "opening_hours": {"open_now": true}, "place_id": "ChIJC-Rqvo03DTkRhT785bD1_mQ", "plus_code": {"global_code": "7JWR6V63+C6", "compound_code": "6V63+C6 Bhiwadi, Rajasthan, India"}, "vicinity": "RIICO Industrial Area, Bhiwadi", "scope": "GOOGLE", "business_status": "OPERATIONAL", "types": ["local_government_office", "point_of_interest", "establishment"], "icon": "https://maps.gstatic.com/mapfiles/place_api/icons/v1/png_71/civic_building-71.png"}, {"rating": 4.5, "user_ratings_total": 6, "name": "R.T.O. Check Post", "reference": "ChIJ-Y8pf503DTkRHJkIsBZBx6A", "geometry": {"location": {"lat": 28.2086288, "lng": 76.87176099999999}, "viewport": {"northeast": {"lat": 28.2099254302915, "lng": 76.8730856802915}, "southwest": {"lat": 28.2072274697085, "lng": 76.87038771970849}}}, "opening_hours": {"open_now": true}, "place_id": "ChIJ-Y8pf503DTkRHJkIsBZBx6A", "plus_code": {"global_code": "7JWR6V5C+FP", "compound_code": "6V5C+FP RIICO Industrial Area, Bhiwadi, Rajasthan, India"}, "vicinity": "Alwar", "photos": [{"photo_reference": "CmRaAAAAZCUr88b-qUrDmjWBUxCkKn70Hr-2lfhTfTddz-U-uXVHK0Ad79JmDaWvchcQJbnj6KyclwC4p8O-8JImTAmkASe7ym9v8OnDPA1I9gCFqWMaAdriRF6ZBr9S8AFBGfXaEhA0Ojd1EFF2Zty7jrnTsw2vGhSW7wxlxB_adhOiHlxSz7sslWoC2Q", "width": 2560, "html_attributions": ["<a href=\"https://maps.google.com/maps/contrib/110512556412654115465\">Petr Soukal</a>"], "height": 1440}], "scope": "GOOGLE", "business_status": "OPERATIONAL", "types": ["local_government_office", "point_of_interest", "establishment"], "icon": "https://maps.gstatic.com/mapfiles/place_api/icons/v1/png_71/civic_building-71.png"}, {"name": "Mrk", "reference": "ChIJRRRnceg3DTkRWRldM09UPQA", "geometry": {"location": {"lat": 28.21246739999999, "lng": 76.8521303}, "viewport": {"northeast": {"lat": 28.2138155802915, "lng": 76.8535141302915}, "southwest": {"lat": 28.2111176197085, "lng": 76.8508161697085}}}, "place_id": "ChIJRRRnceg3DTkRWRldM09UPQA", "plus_code": {"global_code": "7JWR6V62+XV", "compound_code": "6V62+XV Bhiwadi, Rajasthan, India"}, "vicinity": "RIICO Chowk, Bhiwadi", "scope": "GOOGLE", "business_status": "OPERATIONAL", "types": ["local_government_office", "point_of_interest", "establishment"], "icon": "https://maps.gstatic.com/mapfiles/place_api/icons/v1/png_71/civic_building-71.png"}]}