{"status": "OK", "next_page_token": "AcnaJv0tp6AnUd9PxDU-pMs2FBt4jFBsQJi_FvAfnM6v8es2Nw8uuprupzRt_QuCF5JmC9pEyNFywF0dFer9dH96CrT4SVcPB0TBmvVdUwJ_Hhkiu46VchQeqgD6uint_LvWgotRXG0gmJs8HdjwTBeRCtebqsxmvzFKkmAZ2EHrnls18zI9c_KyPFaG5uW3C4kQ8b7dMZvffPSMYTkkTen-uti1O8MuF-e_29H_DYVksIHrhL63X-LOXCg34tCNjDHi6KV09lzAItUUZFp9PJlharFAxvpNMHJWg6RbpbHkYNEUOfsdvjzGVbAhIBkESyjjaIOW3RJiKnxKisVagq69Mc5KvBCwE33K10GWE_jz5_MjSiu7Nd-bI8ixDDumL4FO2FmJLY78yvIGn4g8VZgiuMJ-Q_Mcwuy7t8RJ_aGSYnF6NosI7Ct4BwcmqpTv1EHRLHvfysMP70jO2X7L_VGN4mpvFPgJV5E_gpK3P76-IIoh-T-Zpz1tciTMyMTHJDeiYJzsz4XXGRJjmms3puoFGcP8vaXHmuXNpx-vU3xENHCAU6mu8XO94lry1d3HWxN0H3c1DLm0ApieJn44T99fzSeSRAuCxZ4AZFEHPW9TFZutSF_rCQGlAaT4IuZJYgxTC5Q_5ac3gZg0CNA726Fh4pqSLg", "html_attributions": [], "results": [{"rating": 4.7, "user_ratings_total": 3, "name": "All India Anti-Terrorist Front", "reference": "ChIJ7Zo76ycYDTkRntA3APCQEfk", "geometry": {"location": {"lat": 28.453106, "lng": 77.011586}, "viewport": {"northeast": {"lat": 28.4544845802915, "lng": 77.01292368029151}, "southwest": {"lat": 28.45178661970849, "lng": 77.0102257197085}}}, "place_id": "ChIJ7Zo76ycYDTkRntA3APCQEfk", "plus_code": {"global_code": "7JWVF236+6J", "compound_code": "F236+6J Gurugram, Haryana, India"}, "vicinity": "Near Police Chowki, Pataudi Road, Gandhi Nagar, Sector 11, Gurugram", "scope": "GOOGLE", "business_status": "OPERATIONAL", "types": ["local_government_office", "point_of_interest", "establishment"], "icon": "https://maps.gstatic.com/mapfiles/place_api/icons/v1/png_71/civic_building-71.png"}, {"rating": 3.7, "user_ratings_total": 10, "name": "E-Disha Centre Gurgaon", "reference": "ChIJT3lW6z4YDTkRAMQTjEAjRgY", "geometry": {"location": {"lat": 28.448649, "lng": 77.0291232}, "viewport": {"northeast": {"lat": 28.4499700802915, "lng": 77.03056978029151}, "southwest": {"lat": 28.4472721197085, "lng": 77.02787181970851}}}, "opening_hours": {"open_now": false}, "place_id": "ChIJT3lW6z4YDTkRAMQTjEAjRgY", "plus_code": {"global_code": "7JWVC2XH+FJ", "compound_code": "C2XH+FJ Gurugram, Haryana, India"}, "vicinity": "H-5, Old Railway Road, Shanti Nagar, Shivaji Nagar, Sector 11, Gurugram", "photos": [{"photo_reference": "CmRZAAAA9TX7a9t4d0JHneGvASaOmDHeM3i8BaxePdi42h5XsGxiK81rj6upcm8-1fXmIYyRDWCIs7ROOzQ5unDor6JUQDZ0gZxwRvO-1XzXu4ijCs7jFXzLZ3NUdOrYkaRVTUmPEhCGQHfeeLWVNR38xrYyPKdpGhTWalMwMS1VwIk_OtDWLURcxjV2CQ", "width": 4160, "html_attributions": ["<a href=\"https://maps.google.com/maps/contrib/114305203585357317930\">Parvez Khan</a>"], "height": 3120}], "scope": "GOOGLE", "business_status": "OPERATIONAL", "types": ["local_government_office", "point_of_interest", "establishment"], "icon": "https://maps.gstatic.com/mapfiles/place_api/icons/v1/png_71/civic_building-71.png"}, {"name": "Ansar Bag Shop", "reference": "ChIJBYF6kWcZDTkRn_Jjsu273M4", "geometry": {"location": {"lat": 28.4457273, "lng": 77.01204000000001}, "viewport": {"northeast": {"lat": 28.4469928302915, "lng": 77.01334228029151}, "southwest": {"lat": 28.4442948697085, "lng": 77.0106443197085}}}, "opening_hours": {"open_now": true}, "place_id": "ChIJBYF6kWcZDTkRn_Jjsu273M4", "plus_code": {"global_code": "7JWVC2W6+7R", "compound_code": "C2W6+7R Gurugram, Haryana, India"}, "vicinity": "Hari Nagar, Sector 10A, Gurugram", "scope": "GOOGLE", "business_status": "OPERATIONAL", "types": ["local_government_office", "point_of_interest", "establishment"], "icon": "https://maps.gstatic.com/mapfiles/place_api/icons/v1/png_71/civic_building-71.png"}, {"name": "Apollo tyre foundation Gurgaon", "reference": "ChIJTQCYvZcZDTkRQIakn1gIUQw", "geometry": {"location": {"lat": 28.44244999999999, "lng": 77.0161495}, "viewport": {"northeast": {"lat": 28.4437637302915, "lng": 77.0174971302915}, "southwest": {"lat": 28.44106576970849, "lng": 77.0147991697085}}}, "place_id": "ChIJTQCYvZcZDTkRQIakn1gIUQw", "plus_code": {"global_code": "7JWVC2R8+XF", "compound_code": "C2R8+XF Gurugram, Haryana, India"}, "vicinity": "125, Delhi - Jaipur Expressway, Nahar Pur Rupa, Sector 33, Gurugram", "scope": "GOOGLE", "business_status": "OPERATIONAL", "types": ["local_government_office", "point_of_interest", "establishment"], "icon": "https://maps.gstatic.com/mapfiles/place_api/icons/v1/png_71/civic_building-71.png"}, {"rating": 4, "user_ratings_total": 12, "name": "DRIVING TEST TRACK", "reference": "ChIJ85pTXz4YDTkRf-sFsg3LQos", "geometry": {"location": {"lat": 28.4475689, "lng": 77.0294457}, "viewport": {"northeast": {"lat": 28.4490406302915, "lng": 77.0307385302915}, "southwest": {"lat": 28.4463426697085, "lng": 77.0280405697085}}}, "opening_hours": {"open_now": false}, "place_id": "ChIJ85pTXz4YDTkRf-sFsg3LQos", "plus_code": {"global_code": "7JWVC2XH+2Q", "compound_code": "C2XH+2Q Gurugram, Haryana, India"}, "vicinity": "36A, Delhi - Jaipur Expressway, Hans Enclave, Sector 33, Gurugram", "photos": [{"photo_reference": "CmRaAAAAqkjedsJqTg6RvNKAOOVXnTsJZv-KB_yR0f2gfq_SkJgxhGMf5dlFkBWn5kYy_cUDATp9OW5xGAxv2Q6ETlFI5MLo5GivzxEhRoMVxaksjRwkC22zOR8wzO2HyiA8hmGPEhAqGlxrSUqUGiQ1EdrQmiJDGhSaW_dXX6C7JYhUKliZEBFFlffKSA", "width": 3000, "html_attributions": ["<a href=\"https://maps.google.com/maps/contrib/110164588287027600272\">Vikram Amgai</a>"], "height": 4000}], "scope": "GOOGLE", "business_status": "OPERATIONAL", "types": ["local_government_office", "point_of_interest", "establishment"], "icon": "https://maps.gstatic.com/mapfiles/place_api/icons/v1/png_71/civic_building-71.png"}, {"rating": 5, "user_ratings_total": 2, "name": "Sharma Bhavan", "reference": "ChIJ2Wt8mCAZDTkRou0xk_qk2Gk", "geometry": {"location": {"lat": 28.4429464, "lng": 77.0139714}, "viewport": {"northeast": {"lat": 28.4442960802915, "lng": 77.0153500802915}, "southwest": {"lat": 28.4415981197085, "lng": 77.01265211970849}}}, "place_id": "ChIJ2Wt8mCAZDTkRou0xk_qk2Gk", "plus_code": {"global_code": "7JWVC2V7+5H", "compound_code": "C2V7+5H Gurugram, Haryana, India"}, "vicinity": "Unnamed Road, Vishwakarma Nagar, Sector 10A, Gurugram", "photos": [{"photo_reference": "CmRaAAAAo0GBKgwTRCfyIB6UokqitmcoAIcYrMsMqM_Mf4I02-E-KBClumbV3hpfszry0wfZ7DDtm7JbbULGTC-UHWJatH4CyCeBu-h5-1X42vZmL1ds3CPJLTBLBJxhf9ksuPePEhBo4aOnlYiWFM6PfJVrYU1SGhRr3GzhTN-kLNQ7PQ33rDYT42KJOg", "width": 2000, "html_attributions": ["<a href=\"https://maps.google.com/maps/contrib/100437414527193363326\">Govind sharma</a>"], "height": 4000}], "scope": "GOOGLE", "business_status": "OPERATIONAL", "types": ["local_government_office", "point_of_interest", "establishment"], "icon": "https://maps.gstatic.com/mapfiles/place_api/icons/v1/png_71/civic_building-71.png"}, {"rating": 3.6, "user_ratings_total": 5, "permanently_closed": true, "name": "DC Office", "reference": "ChIJ43jn3j4YDTkR1JeU-wADKd4", "geometry": {"location": {"lat": 28.449381, "lng": 77.030326}, "viewport": {"northeast": {"lat": 28.4509612302915, "lng": 77.03236464999998}, "southwest": {"lat": 28.4482632697085, "lng": 77.02964645000002}}}, "place_id": "ChIJ43jn3j4YDTkR1JeU-wADKd4", "plus_code": {"global_code": "7JWVC2XJ+Q4", "compound_code": "C2XJ+Q4 Gurugram, Haryana, India"}, "vicinity": "H-5, Old Railway Road, Shanti Nagar, Shivaji Nagar, Sector 11, Gurugram", "photos": [{"photo_reference": "CmRaAAAAyfUerVcfFt29eeYuke84VduXQK1kbbXto48ombszdNQBleJOvv-EiuLT2_T8AHsBxTY_66K5dQxiNXd4w91dcVVfyV294hfegWnaGXSuCEV8FTG7awUSTRsWfHvBKfl6EhCTx_34_iAxHKsw3mcW0O-FGhQ9Hl4E_MFl_CTtHYUFBoh7JYeHdA", "width": 4000, "html_attributions": ["<a href=\"https://maps.google.com/maps/contrib/105876859688473576363\">Parveen Nagar</a>"], "height": 3000}], "scope": "GOOGLE", "business_status": "CLOSED_TEMPORARILY", "types": ["local_government_office", "point_of_interest", "establishment"], "icon": "https://maps.gstatic.com/mapfiles/place_api/icons/v1/png_71/civic_building-71.png"}, {"rating": 5, "user_ratings_total": 1, "name": "Teacher Bhawan Hostel Scert", "reference": "ChIJCev0SucZDTkRPbZVV9PBlZc", "geometry": {"location": {"lat": 28.4523364, "lng": 77.0300281}, "viewport": {"northeast": {"lat": 28.4537576302915, "lng": 77.0315760802915}, "southwest": {"lat": 28.4510596697085, "lng": 77.0288781197085}}}, "place_id": "ChIJCev0SucZDTkRPbZVV9PBlZc", "plus_code": {"global_code": "7JWVF22J+W2", "compound_code": "F22J+W2 Gurugram, Haryana, India"}, "vicinity": "Shivaji Nagar, Sector 11, Gurugram", "photos": [{"photo_reference": "CmRaAAAAY2fjicky547Q5-6vu3I8jeVQ2vCKhfSmtIFv2tPq_VD-whmvB4B5XZhyuibahTG6csSA0yMk3j23Puy7biTMrBWs0iNDUAYLaGzSCAmR4O8MjuwSUDj5UhplVo0_ToYXEhCRVOciSQ_WbJur-VTjL3fHGhT_zLS8s3siZxKXcNbszjMOKpoRfA", "width": 3120, "html_attributions": ["<a href=\"https://maps.google.com/maps/contrib/109107214577899829434\">Amarjeet Mor</a>"], "height": 4160}], "scope": "GOOGLE", "business_status": "OPERATIONAL", "types": ["local_government_office", "point_of_interest", "establishment"], "icon": "https://maps.gstatic.com/mapfiles/place_api/icons/v1/png_71/civic_building-71.png"}, {"name": "District Courts Gurgaon", "reference": "ChIJwUU5cFgZDTkRC1tPPtfQNIo", "geometry": {"location": {"lat": 28.451277, "lng": 77.03051359999999}, "viewport": {"northeast": {"lat": 28.4527947302915, "lng": 77.0318988802915}, "southwest": {"lat": 28.45009676970849, "lng": 77.02920091970849}}}, "place_id": "ChIJwUU5cFgZDTkRC1tPPtfQNIo", "plus_code": {"global_code": "7JWVF22J+G6", "compound_code": "F22J+G6 Gurugram, Haryana, India"}, "vicinity": "Shivaji Nagar, Sector 11, Gurugram", "scope": "GOOGLE", "business_status": "OPERATIONAL", "types": ["local_government_office", "point_of_interest", "establishment"], "icon": "https://maps.gstatic.com/mapfiles/place_api/icons/v1/png_71/civic_building-71.png"}, {"rating": 3.3, "user_ratings_total": 7, "name": "HARYANA REAL ESTATE REGULATORY AUTHORITY GURUGRAM CAMP OFFICE", "reference": "ChIJLWq5rZYZDTkRtoBjuar9ZFY", "geometry": {"location": {"lat": 28.451177, "lng": 77.030564}, "viewport": {"northeast": {"lat": 28.4526057802915, "lng": 77.0321213302915}, "southwest": {"lat": 28.4499078197085, "lng": 77.0294233697085}}}, "opening_hours": {"open_now": true}, "place_id": "ChIJLWq5rZYZDTkRtoBjuar9ZFY", "plus_code": {"global_code": "7JWVF22J+F6", "compound_code": "F22J+F6 Gurugram, Haryana, India"}, "vicinity": "Chamber No.255,Near Gate No.8, Opposite Court No.9, District & Sessions, Court, Gurugram", "photos": [{"photo_reference": "CmRaAAAAm6SAakRIBnXzQVnD5ge2MSdaoEceXIkP4mz-rH4MZ8oCKrqWh-GOra4-OdJPsL-ovsYDjAB6BhurWDXlWl8O85e4uGBSHaPwPjeLF1ikcnoaIvgUGil4jtf_PXyevxTxEhDdXRFKIh0ULCuDFusm1UKFGhQ_xzA2kZMq6CH-dGHFwTjpW-N8rg", "width": 3120, "html_attributions": ["<a href=\"https://maps.google.com/maps/contrib/115300961263326801290\">Anti corruption squad</a>"], "height": 4160}], "scope": "GOOGLE", "business_status": "OPERATIONAL", "types": ["local_government_office", "point_of_interest", "establishment"], "icon": "https://maps.gstatic.com/mapfiles/place_api/icons/v1/png_71/civic_building-71.png"}, {"rating": 5, "user_ratings_total": 5, "name": "InstantCourtMarriageGurgaon.com", "reference": "ChIJMSGyIT8YDTkRC2LY1BkeEn8", "geometry": {"location": {"lat": 28.44928149999999, "lng": 77.0307405}, "viewport": {"northeast": {"lat": 28.4505790302915, "lng": 77.0318245802915}, "southwest": {"lat": 28.44788106970849, "lng": 77.02912661970848}}}, "opening_hours": {"open_now": true}, "place_id": "ChIJMSGyIT8YDTkRC2LY1BkeEn8", "plus_code": {"global_code": "7JWVC2XJ+P7", "compound_code": "C2XJ+P7 Gurugram, Haryana, India"}, "vicinity": "Near Mini Secretariat, Rajiv Chowk, Gurugram", "scope": "GOOGLE", "business_status": "OPERATIONAL", "types": ["local_government_office", "point_of_interest", "establishment"], "icon": "https://maps.gstatic.com/mapfiles/place_api/icons/v1/png_71/civic_building-71.png"}, {"rating": 5, "user_ratings_total": 1, "name": "Bizgrow Consulting LLP ,ITR Filing, Income Tax Return filing, Tax Consultant, Tax Filing", "reference": "ChIJB2ps7P4XDTkR629sF7cA9gU", "geometry": {"location": {"lat": 28.446437, "lng": 77.009973}, "viewport": {"northeast": {"lat": 28.4477203802915, "lng": 77.01149193029151}, "southwest": {"lat": 28.4450224197085, "lng": 77.00879396970849}}}, "place_id": "ChIJB2ps7P4XDTkR629sF7cA9gU", "plus_code": {"global_code": "7JWVC2W5+HX", "compound_code": "C2W5+HX Gurugram, Haryana, India"}, "vicinity": "Gali Number 1, 750/22, Gandhi Nagar Road, Gurugram", "scope": "GOOGLE", "business_status": "OPERATIONAL", "types": ["lawyer", "accounting", "finance", "local_government_office", "point_of_interest", "establishment"], "icon": "https://maps.gstatic.com/mapfiles/place_api/icons/v1/png_71/generic_business-71.png"}, {"permanently_closed": true, "name": "Sara Document Writers", "reference": "ChIJdWT5qEcZDTkRxyk0z23po-A", "geometry": {"location": {"lat": 28.4509497, "lng": 77.0313498}, "viewport": {"northeast": {"lat": 28.4522948802915, "lng": 77.03267828029149}, "southwest": {"lat": 28.44959691970849, "lng": 77.02998031970849}}}, "place_id": "ChIJdWT5qEcZDTkRxyk0z23po-A", "plus_code": {"global_code": "7JWVF22J+9G", "compound_code": "F22J+9G Gurugram, Haryana, India"}, "vicinity": "Shop No, Deep Plaza, near Hotel Accura BMK, 228, Old Railway Road, Gurugram", "photos": [{"photo_reference": "CmRaAAAA6DgaHZ0f2PU4IqxxgS18KdtNkZ0kGgMF_3MA3ncZh61QloYHTFnmejpBxvxspaS_ftjeg1x2EUeYJrCqRWl2oMwf7P0D_k9OHrm9Y7md6BQWMp4idmXz8GZv5nYbTVqTEhC77xzOGCrTn4kna9KurpLHGhQf_NBFhC8B3Fw8trrE0xneZlHnSQ", "width": 800, "html_attributions": ["<a href=\"https://maps.google.com/maps/contrib/101329605560715181306\">Sara Document Writers</a>"], "height": 448}], "scope": "GOOGLE", "business_status": "CLOSED_TEMPORARILY", "types": ["local_government_office", "point_of_interest", "establishment"], "icon": "https://maps.gstatic.com/mapfiles/place_api/icons/v1/png_71/civic_building-71.png"}, {"rating": 5, "user_ratings_total": 14, "name": "Deed Writers", "reference": "ChIJ43pPBfsZDTkRpxcJFQlewEw", "geometry": {"location": {"lat": 28.4533094, "lng": 77.0308127}, "viewport": {"northeast": {"lat": 28.4546127802915, "lng": 77.0321651302915}, "southwest": {"lat": 28.4519148197085, "lng": 77.0294671697085}}}, "opening_hours": {"open_now": true}, "place_id": "ChIJ43pPBfsZDTkRpxcJFQlewEw", "plus_code": {"global_code": "7JWVF23J+88", "compound_code": "F23J+88 Gurugram, Haryana, India"}, "vicinity": "old railway road, Peer Baba Wali Gali, Civil Lines, Gurugram", "scope": "GOOGLE", "business_status": "OPERATIONAL", "types": ["local_government_office", "point_of_interest", "establishment"], "icon": "https://maps.gstatic.com/mapfiles/place_api/icons/v1/png_71/civic_building-71.png"}, {"rating": 3.9, "user_ratings_total": 7, "name": "FRRO Gurgaon", "reference": "ChIJMchUyDkYDTkRNGtRvReHMJI", "geometry": {"location": {"lat": 28.4549823, "lng": 77.02999690000001}, "viewport": {"northeast": {"lat": 28.4562748302915, "lng": 77.0311731802915}, "southwest": {"lat": 28.4535768697085, "lng": 77.0284752197085}}}, "opening_hours": {"open_now": true}, "place_id": "ChIJMchUyDkYDTkRNGtRvReHMJI", "plus_code": {"global_code": "7JWVF23H+XX", "compound_code": "F23H+XX Gurugram, Haryana, India"}, "vicinity": "544/18, Old Railway Road, Shivaji Nagar, Sector 11, Gurugram", "photos": [{"photo_reference": "CmRaAAAA_N6q9iowXbGjH0F1fB2Cro53GU6DSVEAZHG4_LwzmgNmHBc9fUzGKK3y-72dEv2wrWq2qS0Mijgwl0BezC5MySMcvRk8zPF8vF6ysbcGfZzflBaek52izMM1fKmKnf5KEhCGT28IER6eZ12Wh0zeZ4O2GhRgix-Y5cdw9TmCiF9Z8sVeWQjZ6w", "width": 4032, "html_attributions": ["<a href=\"https://maps.google.com/maps/contrib/117523192629864130149\">Kunal Batra</a>"], "height": 3024}], "scope": "GOOGLE", "business_status": "OPERATIONAL", "types": ["local_government_office", "point_of_interest", "establishment"], "icon": "https://maps.gstatic.com/mapfiles/place_api/icons/v1/png_71/civic_building-71.png"}, {"permanently_closed": true, "name": "SMH Solution", "reference": "ChIJj_cl3jAYDTkRtg6DHwEgmjs", "geometry": {"location": {"lat": 28.458641, "lng": 77.02602999999999}, "viewport": {"northeast": {"lat": 28.4600525802915, "lng": 77.02730818029151}, "southwest": {"lat": 28.4573546197085, "lng": 77.02461021970849}}}, "place_id": "ChIJj_cl3jAYDTkRtg6DHwEgmjs", "plus_code": {"global_code": "7JWVF25G+FC", "compound_code": "F25G+FC Gurugram, Haryana, India"}, "vicinity": "U-12, Near Sohra Chowk, Basai Road, Krishna Palace, Prem Nagar, Sector 11, Gurugram", "scope": "GOOGLE", "business_status": "CLOSED_TEMPORARILY", "types": ["accounting", "finance", "local_government_office", "point_of_interest", "establishment"], "icon": "https://maps.gstatic.com/mapfiles/place_api/icons/v1/png_71/civic_building-71.png"}, {"name": "Pooja Caterers", "reference": "ChIJ0WZ74DAYDTkREfKGjhK0kRU", "geometry": {"location": {"lat": 28.458518, "lng": 77.02626599999999}, "viewport": {"northeast": {"lat": 28.4600144302915, "lng": 77.02745643029151}, "southwest": {"lat": 28.4573164697085, "lng": 77.02475846970849}}}, "opening_hours": {"open_now": true}, "place_id": "ChIJ0WZ74DAYDTkREfKGjhK0kRU", "plus_code": {"global_code": "7JWVF25G+CG", "compound_code": "F25G+CG Gurugram, Haryana, India"}, "vicinity": "250, Krishna Palace, Near Sohra Chowk GGN, Basai Road, Prem Nagar, Sector 11, Gurugram", "scope": "GOOGLE", "business_status": "OPERATIONAL", "types": ["local_government_office", "food", "point_of_interest", "establishment"], "icon": "https://maps.gstatic.com/mapfiles/place_api/icons/v1/png_71/generic_business-71.png"}, {"rating": 5, "user_ratings_total": 1, "permanently_closed": true, "name": "Adv. Surender Parkash", "reference": "ChIJ2w-7rpgZDTkRrfoOC8gSnow", "geometry": {"location": {"lat": 28.45104469999999, "lng": 77.031562}, "viewport": {"northeast": {"lat": 28.4523443802915, "lng": 77.03277523029149}, "southwest": {"lat": 28.44964641970849, "lng": 77.03007726970849}}}, "place_id": "ChIJ2w-7rpgZDTkRrfoOC8gSnow", "plus_code": {"global_code": "7JWVF22J+CJ", "compound_code": "F22J+CJ Gurugram, Haryana, India"}, "vicinity": "Deep plaza complex near Distt & session Court, Gurugram", "scope": "GOOGLE", "business_status": "CLOSED_TEMPORARILY", "types": ["finance", "local_government_office", "point_of_interest", "establishment"], "icon": "https://maps.gstatic.com/mapfiles/place_api/icons/v1/png_71/civic_building-71.png"}, {"rating": 5, "user_ratings_total": 1, "name": "Accountant Near Me", "reference": "ChIJu91CFlAZDTkRW7Q5vaLOfb8", "geometry": {"location": {"lat": 28.4601702, "lng": 77.0178777}, "viewport": {"northeast": {"lat": 28.46150663029151, "lng": 77.01926223029152}, "southwest": {"lat": 28.4588086697085, "lng": 77.0165642697085}}}, "opening_hours": {"open_now": true}, "place_id": "ChIJu91CFlAZDTkRW7Q5vaLOfb8", "plus_code": {"global_code": "7JWVF269+35", "compound_code": "F269+35 Gurugram, Haryana, India"}, "vicinity": "Part Time Accountant 478, Gali, Street Number 13, Arjun Nagar, Gurugram", "photos": [{"photo_reference": "CmRaAAAAV3M1Da8onAVMUYe7q_Lr9JxTZE-GB4CvBGNSbihfeuPcR7SXw39NXWjsjW6PzlLyY_SnJI417iJgk-OTzWYzCSfLUKBNjEAAlElLPTtb8iWcTxtau-im4GkjBDgGX0jIEhCRoDtb056WM0mzqFNXl0TCGhRpd1M1oo-AAdX-Lu2o3jYJxIMjVw", "width": 1024, "html_attributions": ["<a href=\"https://maps.google.com/maps/contrib/116111685350084311046\">Accountant Near Me</a>"], "height": 577}], "scope": "GOOGLE", "business_status": "OPERATIONAL", "types": ["lawyer", "accounting", "finance", "local_government_office", "point_of_interest", "establishment"], "icon": "https://maps.gstatic.com/mapfiles/place_api/icons/v1/png_71/generic_business-71.png"}, {"name": "D K Motors", "reference": "ChIJg2k-NjcYDTkR9zxf1kYmi6I", "geometry": {"location": {"lat": 28.457579, "lng": 77.02811700000001}, "viewport": {"northeast": {"lat": 28.4588852302915, "lng": 77.0293975302915}, "southwest": {"lat": 28.4561872697085, "lng": 77.0266995697085}}}, "opening_hours": {"open_now": true}, "place_id": "ChIJg2k-NjcYDTkR9zxf1kYmi6I", "plus_code": {"global_code": "7JWVF25H+26", "compound_code": "F25H+26 Gurugram, Haryana, India"}, "vicinity": "Shop No. 3, Basement, Anand Complex, Jail Road, Near Sohna Chowk, Gurugram", "photos": [{"photo_reference": "CmRaAAAAdMwzY6thXx4JmVRDTyzXzSvc4Pp9czHBEYsaDRg-pn9snlw-AFaFtLh-Gbdjm8eJjRThAT_lW_FoicgsTV34w503YUSV9SuwPWVE9UFnHZckwOUh-ZzIOhD73mbOGBQbEhBXYSD3yNYhCEbUiewo_s-CGhT0QaLsJs9pjQ_vSBmh6P7VBPr3Fw", "width": 2048, "html_attributions": ["<a href=\"https://maps.google.com/maps/contrib/102609277167735657763\">D K Motors</a>"], "height": 1152}], "scope": "GOOGLE", "business_status": "OPERATIONAL", "types": ["local_government_office", "point_of_interest", "establishment"], "icon": "https://maps.gstatic.com/mapfiles/place_api/icons/v1/png_71/civic_building-71.png"}]}