{"status": "OK", "next_page_token": "ATtYBwI9ANzNi6c49Xwst2CZTmv6mreCqXR-kVXYi8JdOqmfi1906t3pEZynskyig-xukoFsjlLjE1oSOWxe_d4FQ7rzg0vF2lfZOaaC6LnPu2SAcCFMxAMTKCBTGRoHbq0fFP8BI2mwwMZbDoe4O4yNfsIzjB0hEMrgTpdnn_uwYMH5RQDzTr8NDftKU1MfWo5Y3sqnUGDcgGHAn-LsFbk3ho9mDwoRnCGi-5OhnlxmAFI5cENS5dJ7Fr6zMBn3fqsSKhn5sg-HtyAszIdWeh-UhOVGcNmS2GdfBklK5a6gIW0_RoRYJFWw0hsQmVlpewfGkay5UYJo9JApnx4L2NnpRsnzpFK31SkSg7B7X9h3FlEaBxCpjjyBCwSaVB4WMU6EzuYISucbSpmINVHF4tG1mmbBuUabhy4sL33Dn4oYP0hMcWX2NWw", "html_attributions": [], "results": [{"rating": 5, "user_ratings_total": 3, "name": "Usha Agro Fertilizer", "reference": "ChIJlc-ecYd2AjoRh0HwS2ysQ2g", "geometry": {"location": {"lat": 22.5644034, "lng": 88.3960701}, "viewport": {"northeast": {"lat": 22.5658242302915, "lng": 88.39741628029151}, "southwest": {"lat": 22.56312626970849, "lng": 88.39471831970849}}}, "opening_hours": {"open_now": false}, "place_id": "ChIJlc-ecYd2AjoRh0HwS2ysQ2g", "plus_code": {"global_code": "7MJCH97W+QC", "compound_code": "H97W+QC Kolkata, West Bengal, India"}, "vicinity": "15, Sura 3rd Lane, Subhas Sarobar Park, Phool Bagan, Beleghata, Kolkata", "scope": "GOOGLE", "business_status": "OPERATIONAL", "types": ["doctor", "food", "health", "point_of_interest", "establishment"], "icon": "https://maps.gstatic.com/mapfiles/place_api/icons/v1/png_71/generic_business-71.png"}, {"rating": 4.7, "user_ratings_total": 20, "name": "Poorva Eye Care", "reference": "ChIJb6WfE252AjoRtyQxq05H4m0", "geometry": {"location": {"lat": 22.568203, "lng": 88.3918455}, "viewport": {"northeast": {"lat": 22.5695271302915, "lng": 88.39316183029152}, "southwest": {"lat": 22.56682916970849, "lng": 88.3904638697085}}}, "opening_hours": {"open_now": true}, "place_id": "ChIJb6WfE252AjoRtyQxq05H4m0", "plus_code": {"global_code": "7MJCH99R+7P", "compound_code": "H99R+7P Kolkata, West Bengal, India"}, "vicinity": "72, Hem Chandra Naskar Road, Subhas Sarobar Park, Phool Bagan, Beleghata, Kolkata", "photos": [{"photo_reference": "ATtYBwLzrEklYeOOt3wP31oDSk5Bxn7DFx-uWZmRQmzOZgXJv80T4lmltPd-yLmda5AT5D-YEkeaPfueqzgW3-VIoWKWyFkRpWoUW-f2KlXwy9TaxMFYPoadWYDlcR43ZBTna5U9kjd4y4E9TCnmMJnnPfGX5nhchiZr34rYGRG1onheEGRr", "width": 6000, "html_attributions": ["<a href=\"https://maps.google.com/maps/contrib/113029575305512486811\">Business View Asia C/o 1st Clicks 02</a>"], "height": 4000}], "scope": "GOOGLE", "business_status": "OPERATIONAL", "types": ["doctor", "health", "point_of_interest", "establishment"], "icon": "https://maps.gstatic.com/mapfiles/place_api/icons/v1/png_71/generic_business-71.png"}, {"rating": 4.7, "user_ratings_total": 3, "name": "CHAKI BARI CLINIC ( A HOUSE OF SPECIALIST DOCTORS)", "reference": "ChIJ2cJ7CoF2AjoR2nyGfjyvESA", "geometry": {"location": {"lat": 22.5600085, "lng": 88.3991646}, "viewport": {"northeast": {"lat": 22.5613223302915, "lng": 88.4005082802915}, "southwest": {"lat": 22.5586243697085, "lng": 88.3978103197085}}}, "opening_hours": {"open_now": true}, "place_id": "ChIJ2cJ7CoF2AjoR2nyGfjyvESA", "plus_code": {"global_code": "7MJCH96X+2M", "compound_code": "H96X+2M Kolkata, West Bengal, India"}, "vicinity": "44/6,, 44/6, Chavlpatty Rd, Kulia, Beleghata, Kolkata", "photos": [{"photo_reference": "ATtYBwKr5HzpbjvM6go2YwHKW_fllLOgM0sR96WF4YFDx8hMywNfAIFW2F7joWe5thkRJqvZB_izsDuZ3Vl1Di7RzCzbmLTvXL4XslqiUZw7JtS8uuxj_yEJKifoOjdMn9w0D7vzPHTzBLDDdm1CZarp8KIeEuEH7IJ2DbwZ230rkT4iZgyy", "width": 529, "html_attributions": ["<a href=\"https://maps.google.com/maps/contrib/105925969713544566488\">chaki bari</a>"], "height": 441}], "scope": "GOOGLE", "business_status": "OPERATIONAL", "types": ["doctor", "health", "point_of_interest", "establishment"], "icon": "https://maps.gstatic.com/mapfiles/place_api/icons/v1/png_71/generic_business-71.png"}, {"name": "Dey Dr Rabindra Nath", "reference": "ChIJcxioB4F2AjoRaHUMpRtZOvE", "geometry": {"location": {"lat": 22.5606765, "lng": 88.3990546}, "viewport": {"northeast": {"lat": 22.5620244802915, "lng": 88.4004104302915}, "southwest": {"lat": 22.5593265197085, "lng": 88.3977124697085}}}, "place_id": "ChIJcxioB4F2AjoRaHUMpRtZOvE", "plus_code": {"global_code": "7MJCH96X+7J", "compound_code": "H96X+7J Kolkata, West Bengal, India"}, "vicinity": "1h, 1/4, Raja Janmejoy Road, Beleghata, Kolkata", "scope": "GOOGLE", "business_status": "OPERATIONAL", "types": ["doctor", "health", "point_of_interest", "establishment"], "icon": "https://maps.gstatic.com/mapfiles/place_api/icons/v1/png_71/generic_business-71.png"}, {"rating": 2.7, "user_ratings_total": 20, "name": "Dr Ranjan Sharma", "reference": "ChIJ3wXxTYB2AjoRUUcVOcgp7tc", "geometry": {"location": {"lat": 22.5616006, "lng": 88.3998124}, "viewport": {"northeast": {"lat": 22.5629612802915, "lng": 88.40111788029151}, "southwest": {"lat": 22.5602633197085, "lng": 88.3984199197085}}}, "place_id": "ChIJ3wXxTYB2AjoRUUcVOcgp7tc", "plus_code": {"global_code": "7MJCH96X+JW", "compound_code": "H96X+JW Kolkata, West Bengal, India"}, "vicinity": "Dr. Suresh Chandra, 108/1B, Banerjee Road, Beleghata, Kolkata", "photos": [{"photo_reference": "ATtYBwIVxN5C69jY8a7PQyLXeIV45c8zNTci_lWytHOzQR7u0NoTNHiyQnoTci0AmYtB2d11gKp49J4fpTQ7VV7TGf_i7rcXP7VJieazIhD3c0EfMS2IJAdj7N8eOMBpmEO-5f1rGYk5wTsurCmnpJzeAc8ct1u_NWGw8dqmszpEcmtqsiiy", "width": 3096, "html_attributions": ["<a href=\"https://maps.google.com/maps/contrib/115630514378946325608\">Ranjan Sharma</a>"], "height": 4128}], "scope": "GOOGLE", "business_status": "OPERATIONAL", "types": ["doctor", "health", "point_of_interest", "establishment"], "icon": "https://maps.gstatic.com/mapfiles/place_api/icons/v1/png_71/generic_business-71.png"}, {"name": "Beliaghata Dr.Dinabandhu Chakrabarti Residence", "reference": "ChIJowb5eYB2AjoRww6RhG3J7S8", "geometry": {"location": {"lat": 22.5639084, "lng": 88.3997579}, "viewport": {"northeast": {"lat": 22.5652448302915, "lng": 88.40112863029151}, "southwest": {"lat": 22.5625468697085, "lng": 88.39843066970849}}}, "place_id": "ChIJowb5eYB2AjoRww6RhG3J7S8", "plus_code": {"global_code": "7MJCH97X+HW", "compound_code": "H97X+HW Kolkata, West Bengal, India"}, "vicinity": "60d 1f, Doctor SC Banerjee Road, S.C, Kolkata", "scope": "GOOGLE", "business_status": "OPERATIONAL", "types": ["doctor", "health", "point_of_interest", "establishment"], "icon": "https://maps.gstatic.com/mapfiles/place_api/icons/v1/png_71/generic_business-71.png"}, {"name": "Gastroenterologist at Beliaghata, Kolkata", "reference": "ChIJTxfTkGR3AjoRGpOYNI2rtvs", "geometry": {"location": {"lat": 22.5628567, "lng": 88.3968515}, "viewport": {"northeast": {"lat": 22.5641504302915, "lng": 88.3981877302915}, "southwest": {"lat": 22.5614524697085, "lng": 88.39548976970849}}}, "place_id": "ChIJTxfTkGR3AjoRGpOYNI2rtvs", "plus_code": {"global_code": "7MJCH97W+4P", "compound_code": "H97W+4P Kolkata, West Bengal, India"}, "vicinity": "Ashok Mitra, Sopan Kutir, 53B, Beleghata Main Road, Kolkata", "photos": [{"photo_reference": "ATtYBwL1P_nP6jvIvS-zU_62naW4hAhDlQNI6euU0Bf2mXZ7QcDTQ8enB0K_n6mUbuqcq63t7JvogUsAd-h3TGba5h1xbYnInGft5LP-lZovqKnNhv2uNiS7h4YCvXUWYJF_qYtE3TFqrW9NYh4XvQ0zi7c8NcdhkGY6QxAwsPQoG2TP4d8v", "width": 699, "html_attributions": ["<a href=\"https://maps.google.com/maps/contrib/112401063237317119188\">Gastroenterologist at Beliaghata, Kolkata</a>"], "height": 521}], "scope": "GOOGLE", "business_status": "OPERATIONAL", "types": ["doctor", "health", "point_of_interest", "establishment"], "icon": "https://maps.gstatic.com/mapfiles/place_api/icons/v1/png_71/generic_business-71.png"}, {"name": "Rejuv Ayurveda|| Ayurvedic Treatment Centre||", "reference": "ChIJ_74EZOx3AjoRpgHuSSVvm54", "geometry": {"location": {"lat": 22.5625587, "lng": 88.3965601}, "viewport": {"northeast": {"lat": 22.5640224802915, "lng": 88.39793583029152}, "southwest": {"lat": 22.5613245197085, "lng": 88.3952378697085}}}, "opening_hours": {"open_now": false}, "place_id": "ChIJ_74EZOx3AjoRpgHuSSVvm54", "plus_code": {"global_code": "7MJCH97W+2J", "compound_code": "H97W+2J Kolkata, West Bengal, India"}, "vicinity": "112, 2, Beleghata Main Road, Beleghata, Kolkata", "photos": [{"photo_reference": "ATtYBwKpyILSn4X3viINkwN5Cb5om6ziLuDNA0KRvRPHFqsSkUYNnAkiQ14EkAVflm6rMOXGH4B2LmhcYA4ajEy2_84F9e3oGSSUkqHlS7L3Oh5Qm3h83YXZQ6XdqqOmQDgtOePWkZPc_7FIjYA8SAVssuwSTpEiMFfg2KqENoINvbqdwnc", "width": 595, "html_attributions": ["<a href=\"https://maps.google.com/maps/contrib/108752533733160659096\">Rejuv Ayurveda|| Ayurvedic Treatment Centre||</a>"], "height": 394}], "scope": "GOOGLE", "business_status": "OPERATIONAL", "types": ["doctor", "health", "point_of_interest", "store", "establishment"], "icon": "https://maps.gstatic.com/mapfiles/place_api/icons/v1/png_71/generic_business-71.png"}, {"rating": 4.7, "user_ratings_total": 3, "name": "Dr Sanjay Kumar", "reference": "ChIJz7zCSId2AjoRKNCI6VJZDtA", "geometry": {"location": {"lat": 22.5630255, "lng": 88.39625699999999}, "viewport": {"northeast": {"lat": 22.5643752802915, "lng": 88.3976290802915}, "southwest": {"lat": 22.5616773197085, "lng": 88.39493111970849}}}, "place_id": "ChIJz7zCSId2AjoRKNCI6VJZDtA", "plus_code": {"global_code": "7MJCH97W+6G", "compound_code": "H97W+6G Kolkata, West Bengal, India"}, "vicinity": "1D, Ideal apartment, 152 RRL, Ramesh Mitra Road, Kolkata", "photos": [{"photo_reference": "ATtYBwKG6QdBNqhzVmulEvywfj0YHEasZ6tsZ3gnwYeM-SZPQxRmcDrWvoXjRDsoJyR2GqpSK57tnJsVmVSc5wMyEPX3kkSquyPsoKcLv5s5kVvyqfwhMc3Bc_GRej-A0DhHbbbX_ria5t-rA_2qtGc1eKfKtc42iW4lty7CE9e3GjHzl7OI", "width": 639, "html_attributions": ["<a href=\"https://maps.google.com/maps/contrib/101296213490915640861\">dr. sanjay kumar</a>"], "height": 639}], "scope": "GOOGLE", "business_status": "OPERATIONAL", "types": ["doctor", "health", "point_of_interest", "establishment"], "icon": "https://maps.gstatic.com/mapfiles/place_api/icons/v1/png_71/generic_business-71.png"}, {"rating": 3, "user_ratings_total": 1, "name": "DR P S DAS POPULAR DENTAL", "reference": "ChIJs-KdR4d2AjoRxPtgRL3eZgs", "geometry": {"location": {"lat": 22.5628018, "lng": 88.395996}, "viewport": {"northeast": {"lat": 22.5641961302915, "lng": 88.3973536302915}, "southwest": {"lat": 22.5614981697085, "lng": 88.39465566970848}}}, "place_id": "ChIJs-KdR4d2AjoRxPtgRL3eZgs", "plus_code": {"global_code": "7MJCH97W+49", "compound_code": "H97W+49 Kolkata, West Bengal, India"}, "vicinity": "112/5, Beleghata Main Road, Kulia, Beleghata, Kolkata", "scope": "GOOGLE", "business_status": "OPERATIONAL", "types": ["doctor", "health", "point_of_interest", "establishment"], "icon": "https://maps.gstatic.com/mapfiles/place_api/icons/v1/png_71/generic_business-71.png"}, {"rating": 5, "user_ratings_total": 1, "name": "Chowdhury Laboratory", "reference": "ChIJAdR3P4d2AjoRd4AzamxK-bQ", "geometry": {"location": {"lat": 22.5627047, "lng": 88.3955545}, "viewport": {"northeast": {"lat": 22.5640358802915, "lng": 88.3970139802915}, "southwest": {"lat": 22.5613379197085, "lng": 88.39431601970848}}}, "opening_hours": {"open_now": false}, "place_id": "ChIJAdR3P4d2AjoRd4AzamxK-bQ", "plus_code": {"global_code": "7MJCH97W+36", "compound_code": "H97W+36 Kolkata, West Bengal, India"}, "vicinity": "Gagan Sarkar Road, Beleghata, Kolkata", "photos": [{"photo_reference": "ATtYBwIn53xn8bHJX10J6i0eZnBogiEZJYDE1lU330FZ62pPhq9ng5i7n-Cdtui5-ZHogYXPoGlRs9NOoH0ogLMTUc1rwMzYOr5WJj6CZqVXHZOcp_EIt3TbQ3wCN-c9JxkETblUsLH39UjQBcI6wDxF3IhJ1Ggf1UUPh1e3qaK3JytSJh32", "width": 3120, "html_attributions": ["<a href=\"https://maps.google.com/maps/contrib/100237199117164092571\">Satyajit Bhattacharjee</a>"], "height": 4160}], "scope": "GOOGLE", "business_status": "OPERATIONAL", "types": ["doctor", "health", "point_of_interest", "establishment"], "icon": "https://maps.gstatic.com/mapfiles/place_api/icons/v1/png_71/generic_business-71.png"}, {"name": "Chamber Dr Bikash Dey", "reference": "ChIJhQ_WoSt0AjoRsu3RNk_fCBA", "geometry": {"location": {"lat": 22.5611308, "lng": 88.4052391}, "viewport": {"northeast": {"lat": 22.5624679802915, "lng": 88.4064979302915}, "southwest": {"lat": 22.55977001970849, "lng": 88.40379996970849}}}, "place_id": "ChIJhQ_WoSt0AjoRsu3RNk_fCBA", "plus_code": {"global_code": "7MJCHC64+F3", "compound_code": "HC64+F3 Kolkata, West Bengal, India"}, "vicinity": "MG Gold Musium, Ramkrishna Naskar Lane, Subhas Sarobar Park, Kulia, Beleghata, Kolkata", "scope": "GOOGLE", "business_status": "OPERATIONAL", "types": ["doctor", "health", "point_of_interest", "establishment"], "icon": "https://maps.gstatic.com/mapfiles/place_api/icons/v1/png_71/generic_business-71.png"}, {"rating": 4.5, "user_ratings_total": 2, "name": "Dey Dr Bikash Kr", "reference": "ChIJAQAAAGN2AjoRrbnoGtWcnbk", "geometry": {"location": {"lat": 22.5613469, "lng": 88.40539489999999}, "viewport": {"northeast": {"lat": 22.5627321802915, "lng": 88.4067414302915}, "southwest": {"lat": 22.5600342197085, "lng": 88.4040434697085}}}, "place_id": "ChIJAQAAAGN2AjoRrbnoGtWcnbk", "plus_code": {"global_code": "7MJCHC64+G5", "compound_code": "HC64+G5 Kolkata, West Bengal, India"}, "vicinity": "95h, 21, Beleghata Main Road, Beleghata, Kolkata", "scope": "GOOGLE", "business_status": "OPERATIONAL", "types": ["doctor", "health", "point_of_interest", "establishment"], "icon": "https://maps.gstatic.com/mapfiles/place_api/icons/v1/png_71/generic_business-71.png"}, {"name": "Nemani Dr Pradeep Kr", "reference": "ChIJV3NOSHx2AjoR3fl21JpgbTA", "geometry": {"location": {"lat": 22.5638838, "lng": 88.39609759999999}, "viewport": {"northeast": {"lat": 22.5652278302915, "lng": 88.39755463029151}, "southwest": {"lat": 22.5625298697085, "lng": 88.3948566697085}}}, "place_id": "ChIJV3NOSHx2AjoR3fl21JpgbTA", "plus_code": {"global_code": "7MJCH97W+HC", "compound_code": "H97W+HC Kolkata, West Bengal, India"}, "vicinity": "8/4a, Suren Sarkar Road, Beliaghata, Beliaghata, Kolkata", "scope": "GOOGLE", "business_status": "OPERATIONAL", "types": ["doctor", "health", "point_of_interest", "establishment"], "icon": "https://maps.gstatic.com/mapfiles/place_api/icons/v1/png_71/generic_business-71.png"}, {"name": "Poddar Dr Indrajit", "reference": "ChIJV3NOSHx2AjoR25tnlN6BPjc", "geometry": {"location": {"lat": 22.5638838, "lng": 88.39609759999999}, "viewport": {"northeast": {"lat": 22.5652278302915, "lng": 88.39755463029151}, "southwest": {"lat": 22.5625298697085, "lng": 88.3948566697085}}}, "place_id": "ChIJV3NOSHx2AjoR25tnlN6BPjc", "plus_code": {"global_code": "7MJCH97W+HC", "compound_code": "H97W+HC Kolkata, West Bengal, India"}, "vicinity": "64/11f, Suren Sarkar Road, Beliaghata, Beliaghata, Kolkata", "scope": "GOOGLE", "business_status": "OPERATIONAL", "types": ["doctor", "health", "point_of_interest", "establishment"], "icon": "https://maps.gstatic.com/mapfiles/place_api/icons/v1/png_71/generic_business-71.png"}, {"name": "Debnath Dr Bidyut", "reference": "ChIJV3NOSHx2AjoRk5httREEs6g", "geometry": {"location": {"lat": 22.5638838, "lng": 88.39609759999999}, "viewport": {"northeast": {"lat": 22.5652278302915, "lng": 88.39755463029151}, "southwest": {"lat": 22.5625298697085, "lng": 88.3948566697085}}}, "place_id": "ChIJV3NOSHx2AjoRk5httREEs6g", "plus_code": {"global_code": "7MJCH97W+HC", "compound_code": "H97W+HC Kolkata, West Bengal, India"}, "vicinity": "58/1a, Suren Sarkar Road, Beliaghata, Beliaghata, Kolkata", "scope": "GOOGLE", "business_status": "OPERATIONAL", "types": ["doctor", "health", "point_of_interest", "establishment"], "icon": "https://maps.gstatic.com/mapfiles/place_api/icons/v1/png_71/generic_business-71.png"}, {"name": "Basu Dr Kaberi", "reference": "ChIJV3NOSHx2AjoRiIf2cEvAS0M", "geometry": {"location": {"lat": 22.5638838, "lng": 88.39609759999999}, "viewport": {"northeast": {"lat": 22.5652278302915, "lng": 88.39755463029151}, "southwest": {"lat": 22.5625298697085, "lng": 88.3948566697085}}}, "place_id": "ChIJV3NOSHx2AjoRiIf2cEvAS0M", "plus_code": {"global_code": "7MJCH97W+HC", "compound_code": "H97W+HC Kolkata, West Bengal, India"}, "vicinity": "8, Suren Sarkar Road, Beliaghata, Beliaghata, Kolkata", "scope": "GOOGLE", "business_status": "OPERATIONAL", "types": ["doctor", "health", "point_of_interest", "establishment"], "icon": "https://maps.gstatic.com/mapfiles/place_api/icons/v1/png_71/generic_business-71.png"}, {"name": "Sarkar Dr Mihir Kr", "reference": "ChIJV3NOSHx2AjoRddyRIwNxJcY", "geometry": {"location": {"lat": 22.5638838, "lng": 88.39609759999999}, "viewport": {"northeast": {"lat": 22.5652278302915, "lng": 88.39755463029151}, "southwest": {"lat": 22.5625298697085, "lng": 88.3948566697085}}}, "place_id": "ChIJV3NOSHx2AjoRddyRIwNxJcY", "plus_code": {"global_code": "7MJCH97W+HC", "compound_code": "H97W+HC Kolkata, West Bengal, India"}, "vicinity": "64/10a, Suren Sarkar Road, Beliaghata, Beliaghata, Kolkata", "scope": "GOOGLE", "business_status": "OPERATIONAL", "types": ["doctor", "health", "point_of_interest", "establishment"], "icon": "https://maps.gstatic.com/mapfiles/place_api/icons/v1/png_71/generic_business-71.png"}, {"name": "Dr Satyendra Narayan Basu", "reference": "ChIJV3NOSHx2AjoRwTF3pTHe85k", "geometry": {"location": {"lat": 22.5638838, "lng": 88.39609759999999}, "viewport": {"northeast": {"lat": 22.5652278302915, "lng": 88.39755463029151}, "southwest": {"lat": 22.5625298697085, "lng": 88.3948566697085}}}, "place_id": "ChIJV3NOSHx2AjoRwTF3pTHe85k", "plus_code": {"global_code": "7MJCH97W+HC", "compound_code": "H97W+HC Kolkata, West Bengal, India"}, "vicinity": "32a/38, Suren Sarkar Road, Beliaghata, Beliaghata, Kolkata", "scope": "GOOGLE", "business_status": "OPERATIONAL", "types": ["doctor", "health", "point_of_interest", "establishment"], "icon": "https://maps.gstatic.com/mapfiles/place_api/icons/v1/png_71/generic_business-71.png"}, {"rating": 4.5, "user_ratings_total": 4, "name": "Synapse Neuro Centre l (Dr. S. B. Ray) l (Dr. Santi Brata Ray) l Neuro Stroke | Headache | Back Pain", "reference": "ChIJVQ8y_312AjoRpGrF-EzN2tg", "geometry": {"location": {"lat": 22.5643704, "lng": 88.39650379999999}, "viewport": {"northeast": {"lat": 22.5657252302915, "lng": 88.3977820802915}, "southwest": {"lat": 22.5630272697085, "lng": 88.3950841197085}}}, "opening_hours": {"open_now": true}, "place_id": "ChIJVQ8y_312AjoRpGrF-EzN2tg", "plus_code": {"global_code": "7MJCH97W+PJ", "compound_code": "H97W+PJ Kolkata, West Bengal, India"}, "vicinity": "Police Station, opposite to Beliaghata, 18/4, Sura 3rd Lane, Beleghata, Kolkata", "photos": [{"photo_reference": "ATtYBwJPOgfRHByeWsKbtJWbkYOtZcFJGsVkzDMzo7CH3TlgvqVreXh59C96JFzMYc9rwy0f8Qa6OpDYSHPMRUCTWvM2IgVn2QGxWTC9LgFcr_DS3OUibmYEYu1FpbACwDwPUBLq7p6euDgfKYyh3jqQINsCogbb68j7PXSnXao9X6Sj4Qg", "width": 524, "html_attributions": ["<a href=\"https://maps.google.com/maps/contrib/112748108923483058630\">Synapse Neuro Centre l (Dr. S. B. Ray) l (Dr. Santi Brata Ray) l Neuro Stroke | Headache | Back Pain</a>"], "height": 524}], "scope": "GOOGLE", "business_status": "OPERATIONAL", "types": ["doctor", "health", "point_of_interest", "establishment"], "icon": "https://maps.gstatic.com/mapfiles/place_api/icons/v1/png_71/generic_business-71.png"}]}