{"status": "OK", "html_attributions": [], "results": [{"rating": 3, "user_ratings_total": 2, "name": "Dr Lal PathLabs", "reference": "ChIJH1QAtIp4AjoRVJNHB7g5PDs", "geometry": {"location": {"lat": 22.588957, "lng": 88.301592}, "viewport": {"northeast": {"lat": 22.59017538029151, "lng": 88.3029291802915}, "southwest": {"lat": 22.5874774197085, "lng": 88.3002312197085}}}, "opening_hours": {"open_now": true}, "place_id": "ChIJH1QAtIp4AjoRVJNHB7g5PDs", "plus_code": {"global_code": "7MJCH8Q2+HJ", "compound_code": "H8Q2+HJ Howrah, West Bengal, India"}, "vicinity": "Santragachi, Santragachi, Howrah", "photos": [{"photo_reference": "ATtYBwJXqcGYjbiVSn9B8uKzaOIgOZZ7y3kEJQZHqCnPziYvOwBiQTuvlZ3kXiouFwUiAjolV9NLvWKuMMSQd8KIxwxZQ6fp-w_h1o2YVy_e5WfbvIv0zUcHaygZ3WpQEcv7ybUQ4sqKuSNEAkiFSKKu5QQwwcdJziCpgGu2P9HwU7vOWPei", "width": 3072, "html_attributions": ["<a href=\"https://maps.google.com/maps/contrib/113037694823164891937\">Ramit Pramanick</a>"], "height": 4096}], "scope": "GOOGLE", "business_status": "OPERATIONAL", "types": ["doctor", "health", "point_of_interest", "establishment"], "icon": "https://maps.gstatic.com/mapfiles/place_api/icons/v1/png_71/generic_business-71.png"}, {"rating": 4.8, "user_ratings_total": 111, "name": "32 PEARLS DENTAL CLINIC (HOWRAH)", "reference": "ChIJq-3TFmp4AjoRwQDhy3ahSoY", "geometry": {"location": {"lat": 22.5877798, "lng": 88.3017821}, "viewport": {"northeast": {"lat": 22.5891573802915, "lng": 88.3031376802915}, "southwest": {"lat": 22.5864594197085, "lng": 88.30043971970849}}}, "opening_hours": {"open_now": false}, "place_id": "ChIJq-3TFmp4AjoRwQDhy3ahSoY", "plus_code": {"global_code": "7MJCH8Q2+4P", "compound_code": "H8Q2+4P Howrah, West Bengal, India"}, "vicinity": "30/1/1, Ram Charan Sett Road, Ramrajatala, Howrah", "photos": [{"photo_reference": "ATtYBwIO7UfqK_k2vvL1SJ4vZ-Mklx_RjvJsvoa63If6SK0hB2nXC9OmqWAOW4M81bE00ywmTrQOf6az57sqyk32JdmC1PDuKiTkMRyaArhCYmooHxZAz-ccsi29VYqRypkZaSYe0LFLI0n2g07jA3YL3jI8P8TLTZN5olz2TcjwkZripdwo", "width": 2898, "html_attributions": ["<a href=\"https://maps.google.com/maps/contrib/100214529586117403924\">32 PEARLS DENTAL CLINIC (HOWRAH)</a>"], "height": 2898}], "scope": "GOOGLE", "business_status": "OPERATIONAL", "types": ["doctor", "dentist", "health", "point_of_interest", "establishment"], "icon": "https://maps.gstatic.com/mapfiles/place_api/icons/v1/png_71/generic_business-71.png"}, {"name": "LifeSpan", "reference": "ChIJlWFskOJ5AjoRfdN2PCaST6U", "geometry": {"location": {"lat": 22.6015727, "lng": 88.29993309999999}, "viewport": {"northeast": {"lat": 22.6029914302915, "lng": 88.3013008302915}, "southwest": {"lat": 22.6002934697085, "lng": 88.29860286970849}}}, "place_id": "ChIJlWFskOJ5AjoRfdN2PCaST6U", "plus_code": {"global_code": "7MJCJ72X+JX", "compound_code": "J72X+JX Howrah, West Bengal, India"}, "vicinity": "Balitikuri Manikpirtala, Dasnagar, Howrah", "scope": "GOOGLE", "business_status": "OPERATIONAL", "types": ["doctor", "health", "point_of_interest", "establishment"], "icon": "https://maps.gstatic.com/mapfiles/place_api/icons/v1/png_71/generic_business-71.png"}, {"name": "Zonovus Healthcare (P) Ltd.", "reference": "ChIJBT_09Ld5AjoRsDqZMt-E70w", "geometry": {"location": {"lat": 22.6017222, "lng": 88.2998003}, "viewport": {"northeast": {"lat": 22.6030577802915, "lng": 88.3011475302915}, "southwest": {"lat": 22.60035981970849, "lng": 88.2984495697085}}}, "opening_hours": {"open_now": true}, "place_id": "ChIJBT_09Ld5AjoRsDqZMt-E70w", "plus_code": {"global_code": "7MJCJ72X+MW", "compound_code": "J72X+MW Howrah, West Bengal, India"}, "vicinity": "UCO Bank, Balitikuri Manikpirtala, Dasnagar, opposite Balitikuri, Howrah", "photos": [{"photo_reference": "ATtYBwJHSx9bm7OEwmkmt6BHQ9Pj1tIDt4OQ7dkBjMjORAyEJ-g_UcweabB_nfD-Bp841iPvYtCIob8f8jRxZEcPUMRjmvATyavSipIz6W5n-4cM7lDHQyOCunRI3-O7LaCt3AcbpovARZk1nhv4MMe8K73kLLEL1LJeKJflUgNbtqLaqrN3", "width": 1300, "html_attributions": ["<a href=\"https://maps.google.com/maps/contrib/111494080615280758456\">Zonovus Healthcare (P) Ltd.</a>"], "height": 1600}], "scope": "GOOGLE", "business_status": "OPERATIONAL", "types": ["doctor", "health", "point_of_interest", "establishment"], "icon": "https://maps.gstatic.com/mapfiles/place_api/icons/v1/png_71/generic_business-71.png"}, {"name": "Parbati Bhavan", "reference": "ChIJOxRr4NJ5AjoRLLjhaRyvMWQ", "geometry": {"location": {"lat": 22.5953756, "lng": 88.29835969999999}, "viewport": {"northeast": {"lat": 22.5967248302915, "lng": 88.2997088802915}, "southwest": {"lat": 22.5940268697085, "lng": 88.2970109197085}}}, "place_id": "ChIJOxRr4NJ5AjoRLLjhaRyvMWQ", "plus_code": {"global_code": "7MJCH7WX+58", "compound_code": "H7WX+58 Howrah, West Bengal, India"}, "vicinity": "Ramrajatala, Howrah", "scope": "GOOGLE", "business_status": "OPERATIONAL", "types": ["doctor", "health", "point_of_interest", "establishment"], "icon": "https://maps.gstatic.com/mapfiles/place_api/icons/v1/png_71/generic_business-71.png"}, {"rating": 5, "user_ratings_total": 1, "name": "RAMKRISHNA OPTICS", "reference": "ChIJH3GKum54AjoRf4dHS5N3CWs", "geometry": {"location": {"lat": 22.5938691, "lng": 88.29886929999999}, "viewport": {"northeast": {"lat": 22.5952178302915, "lng": 88.3001896802915}, "southwest": {"lat": 22.5925198697085, "lng": 88.29749171970849}}}, "opening_hours": {"open_now": false}, "place_id": "ChIJH3GKum54AjoRf4dHS5N3CWs", "plus_code": {"global_code": "7MJCH7VX+GG", "compound_code": "H7VX+GG Howrah, West Bengal, India"}, "vicinity": "T/4, Arupara Road, Ramrajatala, Howrah", "photos": [{"photo_reference": "ATtYBwLbLj_02meJ8eX2FAD7oKuxAJ5ZJzEa2g0HHln68zOnmZS9CXqP4FYjyhA9INJFaMBQOVy095Gv-ryRsXIf2-SiVa-BbSxY95Tf50gMpIUYwOm5SAz_kh7YJGoOvcvsAI4VtB52aKfKkL3L_bUjxXZ8IfGK76niR9nvScsHJDaTQWin", "width": 4608, "html_attributions": ["<a href=\"https://maps.google.com/maps/contrib/104341622711825514875\">RAMKRISHNA OPTICS</a>"], "height": 3456}], "scope": "GOOGLE", "business_status": "OPERATIONAL", "types": ["doctor", "health", "point_of_interest", "establishment"], "icon": "https://maps.gstatic.com/mapfiles/place_api/icons/v1/png_71/generic_business-71.png"}, {"rating": 5, "user_ratings_total": 2, "name": "Mullick Eye Clinic", "reference": "ChIJOxBYQfR5AjoRHI7pwEMQxgE", "geometry": {"location": {"lat": 22.5989294, "lng": 88.30704399999999}, "viewport": {"northeast": {"lat": 22.6002830802915, "lng": 88.3083928302915}, "southwest": {"lat": 22.5975851197085, "lng": 88.30569486970849}}}, "place_id": "ChIJOxBYQfR5AjoRHI7pwEMQxgE", "plus_code": {"global_code": "7MJCH8X4+HR", "compound_code": "H8X4+HR Howrah, West Bengal, India"}, "vicinity": "Dasnagar, Howrah", "photos": [{"photo_reference": "ATtYBwLFi5zeOBop83idTLBIEtxY19iZwSHkDrIfrIrRexfeiRElP3e9WrKnxtjgq1yChbgYFLnq4_SFABgvoPGX71SPAF-FsT7cwulb8HQS_sYBN0z5oWWi7NfcRhW1_uj6BVfqLrxOH6L9QDCSG4wJCVjLen1LMV5dZJu6pUrOyUfcJaFi", "width": 1080, "html_attributions": ["<a href=\"https://maps.google.com/maps/contrib/104119213651638769331\">ajay shaw</a>"], "height": 1920}], "scope": "GOOGLE", "business_status": "OPERATIONAL", "types": ["doctor", "health", "point_of_interest", "establishment"], "icon": "https://maps.gstatic.com/mapfiles/place_api/icons/v1/png_71/generic_business-71.png"}, {"name": "Lens", "reference": "ChIJldZzwG15AjoRPEMeexYvDMo", "geometry": {"location": {"lat": 22.6058282, "lng": 88.2940926}, "viewport": {"northeast": {"lat": 22.6071575802915, "lng": 88.2954144302915}, "southwest": {"lat": 22.6044596197085, "lng": 88.2927164697085}}}, "place_id": "ChIJldZzwG15AjoRPEMeexYvDMo", "plus_code": {"global_code": "7MJCJ74V+8J", "compound_code": "J74V+8J Howrah, West Bengal, India"}, "vicinity": "beside muktaram dey high school, lens, beside muktaram dey high school, Amta Road, Howrah", "photos": [{"photo_reference": "ATtYBwKz7HJmuHxOdCCYtjL1x_cvkdhLSKXgdCa878beEPaczr2MfRywQo4QzMQTTVH4zRd-QV_AyG0ExNzmx13SXJifizXepUNUAm35pckvos-unCJkajFdPoGmNanmwprjewLAuYPB4Q2kIcLBTuZL2hAKPNMHpn9XB5PU-jMU1kkcal0", "width": 1920, "html_attributions": ["<a href=\"https://maps.google.com/maps/contrib/107327717491372588934\">FC DRI</a>"], "height": 1080}], "scope": "GOOGLE", "business_status": "OPERATIONAL", "types": ["doctor", "health", "point_of_interest", "establishment"], "icon": "https://maps.gstatic.com/mapfiles/place_api/icons/v1/png_71/generic_business-71.png"}, {"rating": 5, "user_ratings_total": 2, "name": "Jyotirmoyee Diabetes Centre | Best Diabetes & Skin Care & Thyroid Centre Near Me | Best Diabetes & Skin Care Centre in Howrah |", "reference": "ChIJF9DyK4R5AjoRIKI0Z4lzNhM", "geometry": {"location": {"lat": 22.5923017, "lng": 88.30306399999999}, "viewport": {"northeast": {"lat": 22.5936218302915, "lng": 88.3043992802915}, "southwest": {"lat": 22.5909238697085, "lng": 88.30170131970849}}}, "place_id": "ChIJF9DyK4R5AjoRIKI0Z4lzNhM", "plus_code": {"global_code": "7MJCH8R3+W6", "compound_code": "H8R3+W6 Howrah, West Bengal, India"}, "vicinity": "Water Tank, 60/11,Kantapukur, near Ichapur, 3rd By Lane, Howrah", "scope": "GOOGLE", "business_status": "OPERATIONAL", "types": ["doctor", "health", "point_of_interest", "establishment"], "icon": "https://maps.gstatic.com/mapfiles/place_api/icons/v1/png_71/generic_business-71.png"}, {"rating": 4.8, "user_ratings_total": 19, "name": "Heal & Care Polyclinic & Diagnostic Centre", "reference": "ChIJqxe7C7B5AjoRLK9IS5NY5VY", "geometry": {"location": {"lat": 22.6052258, "lng": 88.2914034}, "viewport": {"northeast": {"lat": 22.6066100802915, "lng": 88.29276923029151}, "southwest": {"lat": 22.6039121197085, "lng": 88.29007126970849}}}, "opening_hours": {"open_now": true}, "place_id": "ChIJqxe7C7B5AjoRLK9IS5NY5VY", "plus_code": {"global_code": "7MJCJ74R+3H", "compound_code": "J74R+3H Howrah, West Bengal, India"}, "vicinity": "Makardah Rd, Masjid Market, Balitikuri, Bankra, Howrah", "photos": [{"photo_reference": "ATtYBwIgY4ujkvgoIjwXHQ1NlhtLD2uCZe3C_RHzou1tnKZfK1e__ekFy5r3dD_lW80b20xoEyFxuDOn9UziNpePovn7rN5bIQvJTX2vCwGgiARf1kkKWQRlS1di-uE5GKdqJpu-DoMK7afVbmPs_yCfTkOZD4VXSI1gk1tsGRqJ3O9LYEp9", "width": 4128, "html_attributions": ["<a href=\"https://maps.google.com/maps/contrib/117027839477386395059\">Kazi babul haider</a>"], "height": 2322}], "scope": "GOOGLE", "business_status": "OPERATIONAL", "types": ["doctor", "health", "point_of_interest", "establishment"], "icon": "https://maps.gstatic.com/mapfiles/place_api/icons/v1/png_71/generic_business-71.png"}, {"name": "Kashipur marthichaya", "reference": "ChIJBzMvc2Z5AjoRDe1TXtlSlyE", "geometry": {"location": {"lat": 22.6063165, "lng": 88.3089081}, "viewport": {"northeast": {"lat": 22.6076727802915, "lng": 88.3102163302915}, "southwest": {"lat": 22.6049748197085, "lng": 88.30751836970849}}}, "opening_hours": {"open_now": true}, "place_id": "ChIJBzMvc2Z5AjoRDe1TXtlSlyE", "plus_code": {"global_code": "7MJCJ845+GH", "compound_code": "J845+GH Howrah, West Bengal, India"}, "vicinity": "Unnamed Road, Natun Pally, Kunjapara, Netajigarh, Dasnagar, Howrah", "photos": [{"photo_reference": "ATtYBwKQBJGn_xs6QN17N-RbQpoNZUDjFvWT2uyjhjYtsZLJlj8YUPLBtEYDc476JypQvjyWOwFlbVm_JPdJkakGA_284m0ISJigGNqIHyvPTB5ssepHWcf7Cj964XusyTBpwuI8HjjbSla0SdmIMeuQ9IdlEhomYKfRuT-CUFxyUX-oC1i3", "width": 4128, "html_attributions": ["<a href=\"https://maps.google.com/maps/contrib/113887816626841361724\">Bholanath Sen</a>"], "height": 3096}], "scope": "GOOGLE", "business_status": "OPERATIONAL", "types": ["doctor", "health", "point_of_interest", "establishment"], "icon": "https://maps.gstatic.com/mapfiles/place_api/icons/v1/png_71/generic_business-71.png"}, {"name": "Dr. Goutam Pal", "reference": "ChIJXS7l6fJ5AjoRxUIWb-3xm28", "geometry": {"location": {"lat": 22.6002917, "lng": 88.2884546}, "viewport": {"northeast": {"lat": 22.6016556302915, "lng": 88.28980468029151}, "southwest": {"lat": 22.59895766970849, "lng": 88.28710671970849}}}, "place_id": "ChIJXS7l6fJ5AjoRxUIWb-3xm28", "plus_code": {"global_code": "7MJCJ72Q+49", "compound_code": "J72Q+49 Howrah, West Bengal, India"}, "vicinity": "Satashi Uttarpara, Jagacha, Howrah", "scope": "GOOGLE", "business_status": "OPERATIONAL", "types": ["doctor", "health", "point_of_interest", "establishment"], "icon": "https://maps.gstatic.com/mapfiles/place_api/icons/v1/png_71/generic_business-71.png"}, {"rating": 4, "user_ratings_total": 1, "name": "Dr BP maji", "reference": "ChIJ3Zr7IGZ5AjoRo1WUDCrhJp4", "geometry": {"location": {"lat": 22.5899127, "lng": 88.2954176}, "viewport": {"northeast": {"lat": 22.5912699302915, "lng": 88.2967635302915}, "southwest": {"lat": 22.5885719697085, "lng": 88.2940655697085}}}, "opening_hours": {"open_now": false}, "place_id": "ChIJ3Zr7IGZ5AjoRo1WUDCrhJp4", "plus_code": {"global_code": "7MJCH7QW+X5", "compound_code": "H7QW+X5 Howrah, West Bengal, India"}, "vicinity": "135, Ram Charan Sett Road, Baruipara, Ramrajatala, Howrah", "scope": "GOOGLE", "business_status": "OPERATIONAL", "types": ["doctor", "health", "point_of_interest", "establishment"], "icon": "https://maps.gstatic.com/mapfiles/place_api/icons/v1/png_71/generic_business-71.png"}, {"name": "Sarala Seba Sadan \u09b8\u09b0\u09b2\u09be \u09b8\u09c7\u09ac\u09be \u09b8\u09a6\u09a8", "reference": "ChIJsbbcuWd5AjoRN-7Td4Jh6iA", "geometry": {"location": {"lat": 22.6106002, "lng": 88.3032751}, "viewport": {"northeast": {"lat": 22.6120025802915, "lng": 88.30464098029151}, "southwest": {"lat": 22.6093046197085, "lng": 88.3019430197085}}}, "place_id": "ChIJsbbcuWd5AjoRN-7Td4Jh6iA", "plus_code": {"global_code": "7MJCJ863+68", "compound_code": "J863+68 Howrah, West Bengal, India"}, "vicinity": "Balitikuri, Howrah", "photos": [{"photo_reference": "ATtYBwLHekNeHaCGW40Hcy9E9naKBcrO8iAHTw0hk0l9F1BFLH9FSGWTfvn-wBNiA7Vh5_7117iarUMvfbt8cq7fvrN4VJEg8UA457OdXS11fxO8bTeujRSwgbq6vEWdFV6MuE4wkV3vDidTUQEzgSWuhnlJAqybrgu_TwxuS2pMkf_828oX", "width": 4160, "html_attributions": ["<a href=\"https://maps.google.com/maps/contrib/106172648382849749855\">Moidul Mollah</a>"], "height": 3120}], "scope": "GOOGLE", "business_status": "OPERATIONAL", "types": ["doctor", "health", "point_of_interest", "establishment"], "icon": "https://maps.gstatic.com/mapfiles/place_api/icons/v1/png_71/generic_business-71.png"}, {"rating": 5, "user_ratings_total": 1, "name": "Dr.Abhay Kumar", "reference": "ChIJgyicgIt5AjoR5Ap1oWGOUL4", "geometry": {"location": {"lat": 22.5882523, "lng": 88.3001074}, "viewport": {"northeast": {"lat": 22.5896338802915, "lng": 88.3014574802915}, "southwest": {"lat": 22.5869359197085, "lng": 88.2987595197085}}}, "opening_hours": {"open_now": false}, "place_id": "ChIJgyicgIt5AjoR5Ap1oWGOUL4", "plus_code": {"global_code": "7MJCH8Q2+82", "compound_code": "H8Q2+82 Howrah, West Bengal, India"}, "vicinity": "inside Apollo Clinic, Ram Charan Sett Rd, Near Bhanumati School, inside Apollo Clinic, Ramrajatala, Howrah", "photos": [{"photo_reference": "ATtYBwIDcWMAVXtwDh8mI17GFkru-mfF9btKNYl9JdPitpEhEscv18kfHNyb17k87a0zjPcWMyZLzgjmyfP11VnAq4I5HoYPVmMeeDB87ujLaNtwq7iQrVGFTbmPZjIeU-OBzDomiK2eBp4L4jYw3tmxduUJLdJrOcP4YFu6T0qDP2-YRSTD", "width": 3500, "html_attributions": ["<a href=\"https://maps.google.com/maps/contrib/114789574829250418350\">Dr.Abhay Kumar- Kidney Cancer Surgeon |Bladder Cancer Treatment |Neobladder Surgery in kolkata</a>"], "height": 2334}], "scope": "GOOGLE", "business_status": "OPERATIONAL", "types": ["doctor", "health", "point_of_interest", "establishment"], "icon": "https://maps.gstatic.com/mapfiles/place_api/icons/v1/png_71/generic_business-71.png"}, {"rating": 3.7, "user_ratings_total": 3, "name": "New mulla para", "reference": "ChIJ5XH-EkJ5AjoR7dwndF6Oh98", "geometry": {"location": {"lat": 22.6050555, "lng": 88.2884428}, "viewport": {"northeast": {"lat": 22.6064502802915, "lng": 88.2898059802915}, "southwest": {"lat": 22.6037523197085, "lng": 88.2871080197085}}}, "place_id": "ChIJ5XH-EkJ5AjoR7dwndF6Oh98", "plus_code": {"global_code": "7MJCJ74Q+29", "compound_code": "J74Q+29 Howrah, West Bengal, India"}, "vicinity": "Makardah Road, Bankra, Howrah", "photos": [{"photo_reference": "ATtYBwLbNU0LVpKm5gbGYIbUQc8Xan91akAYwHCK8fMO8lR_n3OrOh56T4EoQWmULX70NG-gMdXGXdUH7XxEgh0AhC8-XEngW6EnS15hRHf2PbFdlrK3RBUs7jhXxIsB_mxtFQp-v8Yl3_jl1IuuMNcb4U4xANQAQbYBCuyKUpfRY9yByye1", "width": 720, "html_attributions": ["<a href=\"https://maps.google.com/maps/contrib/111009812538009147616\">md Shakil</a>"], "height": 960}], "scope": "GOOGLE", "business_status": "OPERATIONAL", "types": ["doctor", "health", "point_of_interest", "establishment"], "icon": "https://maps.gstatic.com/mapfiles/place_api/icons/v1/png_71/generic_business-71.png"}, {"name": "Medical Counselling", "reference": "ChIJG4Vzk855AjoRsPe_Z6tazpU", "geometry": {"location": {"lat": 22.5892652, "lng": 88.3056119}, "viewport": {"northeast": {"lat": 22.5906260802915, "lng": 88.3069649302915}, "southwest": {"lat": 22.5879281197085, "lng": 88.3042669697085}}}, "opening_hours": {"open_now": false}, "place_id": "ChIJG4Vzk855AjoRsPe_Z6tazpU", "plus_code": {"global_code": "7MJCH8Q4+P6", "compound_code": "H8Q4+P6 Howrah, West Bengal, India"}, "vicinity": "Ramrajatala, Howrah", "scope": "GOOGLE", "business_status": "OPERATIONAL", "types": ["doctor", "health", "point_of_interest", "establishment"], "icon": "https://maps.gstatic.com/mapfiles/place_api/icons/v1/png_71/generic_business-71.png"}, {"rating": 4, "user_ratings_total": 5, "name": "Dr Dasarathi Sarkar", "reference": "ChIJXyYUPRV4AjoRcsuVJ-EgU3E", "geometry": {"location": {"lat": 22.5892652, "lng": 88.305612}, "viewport": {"northeast": {"lat": 22.5906260802915, "lng": 88.3069649302915}, "southwest": {"lat": 22.5879281197085, "lng": 88.3042669697085}}}, "place_id": "ChIJXyYUPRV4AjoRcsuVJ-EgU3E", "plus_code": {"global_code": "7MJCH8Q4+P6", "compound_code": "H8Q4+P6 Howrah, West Bengal, India"}, "vicinity": "162 & 163/1, Sastri Narendranath Ganguly Road, Howrah", "photos": [{"photo_reference": "ATtYBwL-I4h7NdatVNot5p66c_7C9fmSBJwfWPDGN0Z-8bEA1DFcF4zsLcT0WVNL63JQ_uBMYAJXe4XZ54Qk-uKu3Slo-S1Vp-iUp82DcN27kccv9Iip6OeDWWAgXa4pTB2wSZq5K_AdzyJpMirZJTE7T1Hmnk0N03b_6E7c9zixD67hik7w", "width": 960, "html_attributions": ["<a href=\"https://maps.google.com/maps/contrib/114646575090265273868\">Puja Mahato</a>"], "height": 1280}], "scope": "GOOGLE", "business_status": "OPERATIONAL", "types": ["doctor", "health", "point_of_interest", "establishment"], "icon": "https://maps.gstatic.com/mapfiles/place_api/icons/v1/png_71/generic_business-71.png"}, {"name": "Tapas Maya industries", "reference": "ChIJc-4hzcF5AjoRNp2txcBau-8", "geometry": {"location": {"lat": 22.6075009, "lng": 88.3103704}, "viewport": {"northeast": {"lat": 22.60888403029151, "lng": 88.3117326802915}, "southwest": {"lat": 22.6061860697085, "lng": 88.30903471970848}}}, "place_id": "ChIJc-4hzcF5AjoRNp2txcBau-8", "plus_code": {"global_code": "7MJCJ856+24", "compound_code": "J856+24 Howrah, West Bengal, India"}, "vicinity": "Kashipur Temple Road, Kunjapara, Dasnagar, Howrah", "scope": "GOOGLE", "business_status": "OPERATIONAL", "types": ["doctor", "health", "point_of_interest", "establishment"], "icon": "https://maps.gstatic.com/mapfiles/place_api/icons/v1/png_71/generic_business-71.png"}, {"name": "Dr Swapan Kr Hara", "reference": "ChIJmwsSzxZ4AjoR3tdAQShLMP8", "geometry": {"location": {"lat": 22.5925201, "lng": 88.31098349999999}, "viewport": {"northeast": {"lat": 22.5938695802915, "lng": 88.31231878029152}, "southwest": {"lat": 22.5911716197085, "lng": 88.30962081970851}}}, "place_id": "ChIJmwsSzxZ4AjoR3tdAQShLMP8", "plus_code": {"global_code": "7MJCH8V6+29", "compound_code": "H8V6+29 Howrah, West Bengal, India"}, "vicinity": "Ichapur, Howrah", "scope": "GOOGLE", "business_status": "OPERATIONAL", "types": ["doctor", "health", "point_of_interest", "establishment"], "icon": "https://maps.gstatic.com/mapfiles/place_api/icons/v1/png_71/generic_business-71.png"}]}