{"status": "OK", "next_page_token": "ATtYBwJqmQT_aF23ljvzi9bFr4y46M7v1SO88D4waqNaxtOUJDicoJOhs2bL9rWhPZ487b3GWI6bJBeMsd7XzxV7vn2bVcQiPcgOHQoAQxt7LtgcK_6vI8AnEyPajfJqlYj2wOjkrdYuGyCKxcfVPUxjSxHydKQMAI2yQ-sKXT-CLGvXULjCuLH0J7fjDzKzsegpIjr4ieaUnfEESNohJiQBm2x44Icdu4W1VFeUbnc9bFgDYMX2jSVp-UFbfJWVFUfqo_ifowTVngVmBWY-ApL0dofFSyVb_x4gDtaqvVhE1d2F99MTxhso8T9_mvk6Boif0Qt2UXEJETHxBgmMV4K90deceCLTV2InFvBT65NUAKf7Zpxwi1nUtkbR1Smj0yZiSfAUjXdDk_bUcECDwwP6QCRzRihfOuzTsjMK4CMvNiBrmfsCBnA", "html_attributions": [], "results": [{"rating": 5, "user_ratings_total": 2, "name": "Niramoy Homoeo", "reference": "ChIJxZeNAJt5AjoRXY1rVIk-sc8", "geometry": {"location": {"lat": 22.5961716, "lng": 88.31859469999999}, "viewport": {"northeast": {"lat": 22.5975177302915, "lng": 88.3200050302915}, "southwest": {"lat": 22.5948197697085, "lng": 88.31730706970849}}}, "opening_hours": {"open_now": false}, "place_id": "ChIJxZeNAJt5AjoRXY1rVIk-sc8", "plus_code": {"global_code": "7MJCH8W9+FC", "compound_code": "H8W9+FC Howrah, West Bengal, India"}, "vicinity": "21, natabarpal road, Kadam Tala, Howrah", "photos": [{"photo_reference": "ATtYBwJCSMAYZWVLt__d_n6FeYpykD2yNJtEMLqZ1jlmk92gd1Qy3oD-bRUWmKtpWUQ3Mus2abtt_w0Q2qSPr6Ew44BKpPMqZ-XoSTxRby_mlc9aDCtIRpaAH14IV0AtqYLrV0mjokEJiUUtxLfitOOuD7Ts4lsLmZF_bwOEHtDNY_Di8E31", "width": 3120, "html_attributions": ["<a href=\"https://maps.google.com/maps/contrib/107598161539691437237\">Dr. Sourav Panja</a>"], "height": 4160}], "scope": "GOOGLE", "business_status": "OPERATIONAL", "types": ["doctor", "health", "point_of_interest", "establishment"], "icon": "https://maps.gstatic.com/mapfiles/place_api/icons/v1/png_71/generic_business-71.png"}, {"name": "SREEDHAR CLINIC", "reference": "ChIJgf1s4QN4AjoRYwG58xl13Dg", "geometry": {"location": {"lat": 22.6049184, "lng": 88.3200524}, "viewport": {"northeast": {"lat": 22.6062406802915, "lng": 88.3213875302915}, "southwest": {"lat": 22.6035427197085, "lng": 88.3186895697085}}}, "opening_hours": {"open_now": false}, "place_id": "ChIJgf1s4QN4AjoRYwG58xl13Dg", "plus_code": {"global_code": "7MJCJ83C+X2", "compound_code": "J83C+X2 Howrah, West Bengal, India"}, "vicinity": "Belgachia, Liluah, Howrah", "scope": "GOOGLE", "business_status": "OPERATIONAL", "types": ["doctor", "health", "point_of_interest", "establishment"], "icon": "https://maps.gstatic.com/mapfiles/place_api/icons/v1/png_71/generic_business-71.png"}, {"rating": 5, "user_ratings_total": 3, "name": "Dr.T.N.Banerjee's Clinic", "reference": "ChIJQSy54Rt4AjoRBOhG4GLwvtk", "geometry": {"location": {"lat": 22.59333389999999, "lng": 88.3180648}, "viewport": {"northeast": {"lat": 22.5946539802915, "lng": 88.3193987302915}, "southwest": {"lat": 22.5919560197085, "lng": 88.31670076970849}}}, "opening_hours": {"open_now": false}, "place_id": "ChIJQSy54Rt4AjoRBOhG4GLwvtk", "plus_code": {"global_code": "7MJCH8V9+86", "compound_code": "H8V9+86 Howrah, West Bengal, India"}, "vicinity": "32, Makardah Road, Tikiapara, Howrah", "scope": "GOOGLE", "business_status": "OPERATIONAL", "types": ["doctor", "health", "point_of_interest", "establishment"], "icon": "https://maps.gstatic.com/mapfiles/place_api/icons/v1/png_71/generic_business-71.png"}, {"rating": 4.3, "user_ratings_total": 6, "name": "Dr Indranil Choudhury", "reference": "ChIJ48Vw3x14AjoRYNKC7othH-M", "geometry": {"location": {"lat": 22.5933277, "lng": 88.3225428}, "viewport": {"northeast": {"lat": 22.5946382802915, "lng": 88.32388658029151}, "southwest": {"lat": 22.5919403197085, "lng": 88.32118861970851}}}, "place_id": "ChIJ48Vw3x14AjoRYNKC7othH-M", "plus_code": {"global_code": "7MJCH8VF+82", "compound_code": "H8VF+82 Howrah, West Bengal, India"}, "vicinity": "No.158/3, Belilious Road, Kadam Tala, Howrah", "scope": "GOOGLE", "business_status": "OPERATIONAL", "types": ["doctor", "health", "point_of_interest", "establishment"], "icon": "https://maps.gstatic.com/mapfiles/place_api/icons/v1/png_71/generic_business-71.png"}, {"name": "Howrah Diagnostic clinic", "reference": "ChIJVZR3XDV5AjoRqdHSfZMdj0o", "geometry": {"location": {"lat": 22.5928866, "lng": 88.31865959999999}, "viewport": {"northeast": {"lat": 22.5942426802915, "lng": 88.3200124802915}, "southwest": {"lat": 22.5915447197085, "lng": 88.31731451970848}}}, "place_id": "ChIJVZR3XDV5AjoRqdHSfZMdj0o", "plus_code": {"global_code": "7MJCH8V9+5F", "compound_code": "H8V9+5F Howrah, West Bengal, India"}, "vicinity": "Bantra, Ichapur, Howrah", "scope": "GOOGLE", "business_status": "OPERATIONAL", "types": ["doctor", "health", "point_of_interest", "establishment"], "icon": "https://maps.gstatic.com/mapfiles/place_api/icons/v1/png_71/generic_business-71.png"}, {"name": "Dr, Ram Chandra Sharma", "reference": "ChIJCT80Jxx5AjoRVU6cIDtgrfQ", "geometry": {"location": {"lat": 22.5927925, "lng": 88.32063370000002}, "viewport": {"northeast": {"lat": 22.5940780302915, "lng": 88.3220331302915}, "southwest": {"lat": 22.5913800697085, "lng": 88.3193351697085}}}, "place_id": "ChIJCT80Jxx5AjoRVU6cIDtgrfQ", "plus_code": {"global_code": "7MJCH8VC+47", "compound_code": "H8VC+47 Howrah, West Bengal, India"}, "vicinity": "166/2, Belilious Road, Tikiapara, Howrah", "photos": [{"photo_reference": "ATtYBwLQJsYr5tbCxAojqgobw320HANr8ocL3VIpGsZgkn-X0yf_V58lijoM-sPGYB1XUXPSvDCq-0A58_bpVo8nqbD8NUc1ziZMAyB34Mz69a57BH20qgW6Y1BKy7piwyqQrSAaIwzKSaKf1oGtBxW1JZY21dQSRAv6EGdqorP5BJ7l-glk", "width": 2448, "html_attributions": ["<a href=\"https://maps.google.com/maps/contrib/105963816036036441239\">Ramchandra Sharma</a>"], "height": 3264}], "scope": "GOOGLE", "business_status": "OPERATIONAL", "types": ["doctor", "health", "point_of_interest", "establishment"], "icon": "https://maps.gstatic.com/mapfiles/place_api/icons/v1/png_71/generic_business-71.png"}, {"name": "Dhara Healthcare (Homeopathy Clinic)", "reference": "ChIJJ_XH7Yx5AjoRqwjsNYNn9gw", "geometry": {"location": {"lat": 22.60731819999999, "lng": 88.31961559999999}, "viewport": {"northeast": {"lat": 22.6087204302915, "lng": 88.32079538029151}, "southwest": {"lat": 22.6060224697085, "lng": 88.3180974197085}}}, "opening_hours": {"open_now": false}, "place_id": "ChIJJ_XH7Yx5AjoRqwjsNYNn9gw", "plus_code": {"global_code": "7MJCJ849+WR", "compound_code": "J849+WR Howrah, West Bengal, India"}, "vicinity": "40/1, North Road, Belgachia, Liluah, Howrah", "scope": "GOOGLE", "business_status": "OPERATIONAL", "types": ["doctor", "health", "point_of_interest", "establishment"], "icon": "https://maps.gstatic.com/mapfiles/place_api/icons/v1/png_71/generic_business-71.png"}, {"name": "Homeo Clinic", "reference": "ChIJZczK1XB5AjoRhJOSk4VQcJs", "geometry": {"location": {"lat": 22.5926058, "lng": 88.31938009999999}, "viewport": {"northeast": {"lat": 22.5939863302915, "lng": 88.3207300802915}, "southwest": {"lat": 22.59128836970849, "lng": 88.31803211970849}}}, "place_id": "ChIJZczK1XB5AjoRhJOSk4VQcJs", "plus_code": {"global_code": "7MJCH8V9+2Q", "compound_code": "H8V9+2Q Howrah, West Bengal, India"}, "vicinity": "130, Makardah Road, Bantra, Ichapur, Howrah", "scope": "GOOGLE", "business_status": "OPERATIONAL", "types": ["doctor", "health", "point_of_interest", "establishment"], "icon": "https://maps.gstatic.com/mapfiles/place_api/icons/v1/png_71/generic_business-71.png"}, {"name": "Sampurna Imitation Boutique Centre", "reference": "ChIJnR_Qx_Z5AjoRzOUCWfhHKQ4", "geometry": {"location": {"lat": 22.5922532, "lng": 88.3166684}, "viewport": {"northeast": {"lat": 22.5936028802915, "lng": 88.3180138802915}, "southwest": {"lat": 22.5909049197085, "lng": 88.3153159197085}}}, "opening_hours": {"open_now": true}, "place_id": "ChIJnR_Qx_Z5AjoRzOUCWfhHKQ4", "plus_code": {"global_code": "7MJCH8R8+WM", "compound_code": "H8R8+WM Howrah, West Bengal, India"}, "vicinity": "3, Bhagaban Chatterjee Lane, Kadamtala, Howrah", "scope": "GOOGLE", "business_status": "OPERATIONAL", "types": ["doctor", "health", "point_of_interest", "establishment"], "icon": "https://maps.gstatic.com/mapfiles/place_api/icons/v1/png_71/generic_business-71.png"}, {"rating": 5, "user_ratings_total": 2, "name": "Bengal Clinic", "reference": "ChIJiaFSTgZ4AjoR1HmHaGWEY04", "geometry": {"location": {"lat": 22.607546, "lng": 88.3159194}, "viewport": {"northeast": {"lat": 22.6089014802915, "lng": 88.3172763802915}, "southwest": {"lat": 22.60620351970849, "lng": 88.3145784197085}}}, "opening_hours": {"open_now": true}, "place_id": "ChIJiaFSTgZ4AjoR1HmHaGWEY04", "plus_code": {"global_code": "7MJCJ858+29", "compound_code": "J858+29 Howrah, West Bengal, India"}, "vicinity": "43, Benaras Road, Belgachia, Howrah", "scope": "GOOGLE", "business_status": "OPERATIONAL", "types": ["doctor", "health", "point_of_interest", "establishment"], "icon": "https://maps.gstatic.com/mapfiles/place_api/icons/v1/png_71/generic_business-71.png"}, {"rating": 4.9, "user_ratings_total": 63, "name": "Dr.Mausumi Nandi", "reference": "ChIJl63qFKF5AjoRFcahMqlreZ0", "geometry": {"location": {"lat": 22.5905961, "lng": 88.3170707}, "viewport": {"northeast": {"lat": 22.59193958029151, "lng": 88.3184007302915}, "southwest": {"lat": 22.5892416197085, "lng": 88.31570276970848}}}, "opening_hours": {"open_now": false}, "place_id": "ChIJl63qFKF5AjoRFcahMqlreZ0", "plus_code": {"global_code": "7MJCH8R8+6R", "compound_code": "H8R8+6R Howrah, West Bengal, India"}, "vicinity": "28/1, Bhagaban Chatterjee Lane, Kadamtala, Bantra, Ichapur, Howrah", "scope": "GOOGLE", "business_status": "OPERATIONAL", "types": ["doctor", "health", "point_of_interest", "establishment"], "icon": "https://maps.gstatic.com/mapfiles/place_api/icons/v1/png_71/generic_business-71.png"}, {"rating": 4.9, "user_ratings_total": 134, "name": "Dr. Moumita Sahana BSc,BHMS(Cal)", "reference": "ChIJifCx1RB4AjoRfdsGs0AbsMA", "geometry": {"location": {"lat": 22.5935016, "lng": 88.3119004}, "viewport": {"northeast": {"lat": 22.5947081802915, "lng": 88.3131875802915}, "southwest": {"lat": 22.5920102197085, "lng": 88.31048961970849}}}, "opening_hours": {"open_now": true}, "place_id": "ChIJifCx1RB4AjoRfdsGs0AbsMA", "plus_code": {"global_code": "7MJCH8V6+CQ", "compound_code": "H8V6+CQ Howrah, West Bengal, India"}, "vicinity": "Ajanta Apartment, C-Gr18, opposite Sangha Mitra Club, Kamardanga Road, Ichapur, Howrah", "photos": [{"photo_reference": "ATtYBwKSxgTBRkq4gpz70Hmie6NPRqAweuPILxgiHEUpQ01O5ZnYsfTAcss6ODdg_7LXUAfBVtqQsSayCYNv-uzQXWCeeg0J2E0Ebri2BqrMXvU1TEgKNkC5j6UZqZpxOPI6CGC2DSS4tOi0i8UrZ2U3-rF6pbGDSpNioCEFbCj5Q8lq-ljP", "width": 1080, "html_attributions": ["<a href=\"https://maps.google.com/maps/contrib/116821383055218624693\">Dr. Moumita Sahana BSc,BHMS(Cal)</a>"], "height": 608}], "scope": "GOOGLE", "business_status": "OPERATIONAL", "types": ["drugstore", "pharmacy", "hospital", "doctor", "health", "point_of_interest", "store", "establishment"], "icon": "https://maps.gstatic.com/mapfiles/place_api/icons/v1/png_71/generic_business-71.png"}, {"rating": 5, "user_ratings_total": 3, "name": "Dr.Anirban Nandy Clinic Susasthya", "reference": "ChIJn4jy0C55AjoRYuQCgoCYz1c", "geometry": {"location": {"lat": 22.590096, "lng": 88.323881}, "viewport": {"northeast": {"lat": 22.5914434802915, "lng": 88.32522073029149}, "southwest": {"lat": 22.58874551970849, "lng": 88.32252276970848}}}, "place_id": "ChIJn4jy0C55AjoRYuQCgoCYz1c", "plus_code": {"global_code": "7MJCH8RF+2H", "compound_code": "H8RF+2H Howrah, West Bengal, India"}, "vicinity": "5, Kaliprasad Banerjee Lane, Howrah", "scope": "GOOGLE", "business_status": "OPERATIONAL", "types": ["doctor", "health", "point_of_interest", "establishment"], "icon": "https://maps.gstatic.com/mapfiles/place_api/icons/v1/png_71/generic_business-71.png"}, {"name": "Sparsh", "reference": "ChIJQRdSylJ3AjoRq61DTN5-V2c", "geometry": {"location": {"lat": 22.601696, "lng": 88.331333}, "viewport": {"northeast": {"lat": 22.6030500302915, "lng": 88.33260393029151}, "southwest": {"lat": 22.6003520697085, "lng": 88.32990596970849}}}, "opening_hours": {"open_now": true}, "place_id": "ChIJQRdSylJ3AjoRq61DTN5-V2c", "plus_code": {"global_code": "7MJCJ82J+MG", "compound_code": "J82J+MG Howrah, West Bengal, India"}, "vicinity": "82/2, Dasarath Ghosh Lane, Bamangachi, Salkia, Howrah", "photos": [{"photo_reference": "ATtYBwLCgoAsg1YXhbJfU082gG3381kZzLzJtgSRbXOuC35mK6XODTu6834blcSHvtZPumkxVRk6Cm133RTbqZnLdwdV9DLAh2t7iSETlJ4k1K66HEr4NfSZ7fvxrmq0phMK_iSZBiCvukvu75na4SdzSv-mubD3jPh52-WhqaXTaPqqcxs-", "width": 1920, "html_attributions": ["<a href=\"https://maps.google.com/maps/contrib/117564783392474503924\">Rinku Adhikary</a>"], "height": 1080}], "scope": "GOOGLE", "business_status": "OPERATIONAL", "types": ["doctor", "health", "point_of_interest", "establishment"], "icon": "https://maps.gstatic.com/mapfiles/place_api/icons/v1/png_71/generic_business-71.png"}, {"rating": 5, "user_ratings_total": 2, "name": "Ma Saradha Physiotherapy Center", "reference": "ChIJR3FiCl55AjoRI5tm3s-eq5g", "geometry": {"location": {"lat": 22.5928473, "lng": 88.3114205}, "viewport": {"northeast": {"lat": 22.5941516802915, "lng": 88.31276498029149}, "southwest": {"lat": 22.5914537197085, "lng": 88.31006701970848}}}, "opening_hours": {"open_now": false}, "place_id": "ChIJR3FiCl55AjoRI5tm3s-eq5g", "plus_code": {"global_code": "7MJCH8V6+4H", "compound_code": "H8V6+4H Howrah, West Bengal, India"}, "vicinity": "247, Ichapur Road, Howrah", "photos": [{"photo_reference": "ATtYBwIP1ue6SHXYe9eWPmel3tyP2mv3cSx7vC2PYxQ01mHr8bnURyWiddWilmgypAH6sb7wxMq5_INS1-P10vBx4mAjSP1_8uWkOO8jbRle0HkefSEJU_9iS6KF__71htZErLNZnAmPVdZ9YWELsWz9V1lpFqxxUxNFJF0rmYz5xAXzoSFR", "width": 3120, "html_attributions": ["<a href=\"https://maps.google.com/maps/contrib/116981328520264038434\">Tusar Boral</a>"], "height": 4160}], "scope": "GOOGLE", "business_status": "OPERATIONAL", "types": ["doctor", "health", "point_of_interest", "establishment"], "icon": "https://maps.gstatic.com/mapfiles/place_api/icons/v1/png_71/generic_business-71.png"}, {"name": "Dr Swapan Kr Hara", "reference": "ChIJmwsSzxZ4AjoR3tdAQShLMP8", "geometry": {"location": {"lat": 22.5925201, "lng": 88.31098349999999}, "viewport": {"northeast": {"lat": 22.5938695802915, "lng": 88.31231878029152}, "southwest": {"lat": 22.5911716197085, "lng": 88.30962081970851}}}, "place_id": "ChIJmwsSzxZ4AjoR3tdAQShLMP8", "plus_code": {"global_code": "7MJCH8V6+29", "compound_code": "H8V6+29 Howrah, West Bengal, India"}, "vicinity": "Ichapur, Howrah", "scope": "GOOGLE", "business_status": "OPERATIONAL", "types": ["doctor", "health", "point_of_interest", "establishment"], "icon": "https://maps.gstatic.com/mapfiles/place_api/icons/v1/png_71/generic_business-71.png"}, {"name": "Maa Sharda Medical", "reference": "ChIJx_FYfv53AjoRK8alct2q4IA", "geometry": {"location": {"lat": 22.6084264, "lng": 88.3285447}, "viewport": {"northeast": {"lat": 22.6097763302915, "lng": 88.3298865302915}, "southwest": {"lat": 22.6070783697085, "lng": 88.32718856970848}}}, "place_id": "ChIJx_FYfv53AjoRK8alct2q4IA", "plus_code": {"global_code": "7MJCJ85H+9C", "compound_code": "J85H+9C Howrah, West Bengal, India"}, "vicinity": "207, 2, C Road, Bamangachi, Salkia, Howrah", "scope": "GOOGLE", "business_status": "OPERATIONAL", "types": ["doctor", "health", "point_of_interest", "establishment"], "icon": "https://maps.gstatic.com/mapfiles/place_api/icons/v1/png_71/generic_business-71.png"}, {"name": "Tapas Maya industries", "reference": "ChIJc-4hzcF5AjoRNp2txcBau-8", "geometry": {"location": {"lat": 22.6075009, "lng": 88.3103704}, "viewport": {"northeast": {"lat": 22.60888403029151, "lng": 88.3117326802915}, "southwest": {"lat": 22.6061860697085, "lng": 88.30903471970848}}}, "place_id": "ChIJc-4hzcF5AjoRNp2txcBau-8", "plus_code": {"global_code": "7MJCJ856+24", "compound_code": "J856+24 Howrah, West Bengal, India"}, "vicinity": "Kashipur Temple Road, Kunjapara, Dasnagar, Howrah", "scope": "GOOGLE", "business_status": "OPERATIONAL", "types": ["doctor", "health", "point_of_interest", "establishment"], "icon": "https://maps.gstatic.com/mapfiles/place_api/icons/v1/png_71/generic_business-71.png"}, {"rating": 5, "user_ratings_total": 2, "name": "Mullick Eye Clinic", "reference": "ChIJOxBYQfR5AjoRHI7pwEMQxgE", "geometry": {"location": {"lat": 22.5989294, "lng": 88.30704399999999}, "viewport": {"northeast": {"lat": 22.6002830802915, "lng": 88.3083928302915}, "southwest": {"lat": 22.5975851197085, "lng": 88.30569486970849}}}, "place_id": "ChIJOxBYQfR5AjoRHI7pwEMQxgE", "plus_code": {"global_code": "7MJCH8X4+HR", "compound_code": "H8X4+HR Howrah, West Bengal, India"}, "vicinity": "Dasnagar, Howrah", "photos": [{"photo_reference": "ATtYBwIicPR76PiQIfzlqP2Box6F-Fl8lg1kEhH29LyJh4cDz5jTjtlg7IhQdz8_92s37k2kXmemUfxtMwEy_J657OZnoRNFFS3NW1qwaImNCYOVShIRAqTuPA1xuYuEsX1MKE-zvsoD0zpElon1hbD-tnk7f55YgM0YthnKv3VK0U5Kh3rV", "width": 1080, "html_attributions": ["<a href=\"https://maps.google.com/maps/contrib/104119213651638769331\">ajay shaw</a>"], "height": 1920}], "scope": "GOOGLE", "business_status": "OPERATIONAL", "types": ["doctor", "health", "point_of_interest", "establishment"], "icon": "https://maps.gstatic.com/mapfiles/place_api/icons/v1/png_71/generic_business-71.png"}, {"name": "Kashipur marthichaya", "reference": "ChIJBzMvc2Z5AjoRDe1TXtlSlyE", "geometry": {"location": {"lat": 22.6063165, "lng": 88.3089081}, "viewport": {"northeast": {"lat": 22.6076727802915, "lng": 88.3102163302915}, "southwest": {"lat": 22.6049748197085, "lng": 88.30751836970849}}}, "opening_hours": {"open_now": true}, "place_id": "ChIJBzMvc2Z5AjoRDe1TXtlSlyE", "plus_code": {"global_code": "7MJCJ845+GH", "compound_code": "J845+GH Howrah, West Bengal, India"}, "vicinity": "Unnamed Road, Natun Pally, Kunjapara, Netajigarh, Dasnagar, Howrah", "photos": [{"photo_reference": "ATtYBwK5RxZFCXiBmGBDWw8tPGu3l9nrGkSbUkp173NNmBwlzG76ulOx2ZU1tbebbBnvf4zG-hF0E_tged7_sMZkM-7vU8rxCaVHi9djfTWA1a5fRsK1r-0N7I8Ggz4gP8ikP4HjVpN6G8tjNfBFe2AeFQv104HnJGKRlPwDdRKP76_-uWdE", "width": 4128, "html_attributions": ["<a href=\"https://maps.google.com/maps/contrib/113887816626841361724\">Bholanath Sen</a>"], "height": 3096}], "scope": "GOOGLE", "business_status": "OPERATIONAL", "types": ["doctor", "health", "point_of_interest", "establishment"], "icon": "https://maps.gstatic.com/mapfiles/place_api/icons/v1/png_71/generic_business-71.png"}]}