{"status": "OK", "next_page_token": "ATtYBwKWAB_ppjvd5OtIRxd4igGOzmCMdJi3uP_9xQ9hFP2BFOC16F7NsVjT39Y9aA2VYa_Xcx4iaXSVUW1MRW62fLCxTQxEeMDvVHYl5G_xH8ElJCgdy_pPriJKTfNQUX2cmG7MGf-wfo1KL12fPymsDYav3OIuJEkD65krCGJxED_bfjw13ulapLvKzLHdoVLamrC0wqo4xT6xKl6OtGAsqxKTDIGo13CTQ1fm9DGUCywIpx5H-tLmxVoNDmsAQKQqHZm-PioJxfc8Z1xuhbzJ2uSJoA-CLv7aGIK59AOyPwjPBRN5O0cU6qsHirLOn0bVm0yzGX8TCLui6bUb9Z4l1wuOjdUJFpaq5ROCcvwpgBQS-puEPtMSlAn_dJ7PpdGRmEH0d79f7Gb3URYdAhNBNON08ZoQI-uhTGJZ5hoXNEVy-L0dk8s", "html_attributions": [], "results": [{"rating": 3.6, "user_ratings_total": 7, "name": "A.N. SKIN AND COSMETIC CLINIC", "reference": "ChIJzS4FQjNmUjoRdOpCKzHiJtU", "geometry": {"location": {"lat": 13.037118, "lng": 80.266746}, "viewport": {"northeast": {"lat": 13.0384537302915, "lng": 80.2680913802915}, "southwest": {"lat": 13.0357557697085, "lng": 80.26539341970849}}}, "opening_hours": {"open_now": false}, "place_id": "ChIJzS4FQjNmUjoRdOpCKzHiJtU", "plus_code": {"global_code": "7M5227P8+RM", "compound_code": "27P8+RM Chennai, Tamil Nadu, India"}, "vicinity": "Near Kamadhenu Theatre, Building No.4, Shop #25, TNHB Shopping Complex, Near Kamadhenu Theatre, Luz Church Road, Mylapore, Chennai", "scope": "GOOGLE", "business_status": "OPERATIONAL", "types": ["doctor", "health", "point_of_interest", "establishment"], "icon": "https://maps.gstatic.com/mapfiles/place_api/icons/v1/png_71/generic_business-71.png"}, {"rating": 4.4, "user_ratings_total": 26, "name": "Asthma And Allergy Resource Centre", "reference": "ChIJ423xiS1mUjoROiLkEbYqz90", "geometry": {"location": {"lat": 13.038283, "lng": 80.263854}, "viewport": {"northeast": {"lat": 13.0396289302915, "lng": 80.2652030302915}, "southwest": {"lat": 13.0369309697085, "lng": 80.2625050697085}}}, "opening_hours": {"open_now": false}, "place_id": "ChIJ423xiS1mUjoROiLkEbYqz90", "plus_code": {"global_code": "7M5227Q7+8G", "compound_code": "27Q7+8G Chennai, Tamil Nadu, India"}, "vicinity": "1st Floor, No: 25 Opp: Nani Palkhivala, Karpagambal Nagar, Mylapore, Chennai", "photos": [{"photo_reference": "ATtYBwJaBJ5bQEOAvZptvpxMbwsYMc5n_JQ9PC0_9UPzjCdA1LhibiCMVO6GScjR-xpA8pk7ajukq4beALKlgQcnk-3gPSIiNXzHJ5cDY2nW1TlY-H1jMsg1XEOrPv8YLQIOzWQnbDANIHHDARBQ4XpLYeI3JmhmZVTl_0mReHW8bSe-V3kg", "width": 400, "html_attributions": ["<a href=\"https://maps.google.com/maps/contrib/117949962665010791741\">Tamil Da</a>"], "height": 300}], "scope": "GOOGLE", "business_status": "OPERATIONAL", "types": ["doctor", "health", "point_of_interest", "establishment"], "icon": "https://maps.gstatic.com/mapfiles/place_api/icons/v1/png_71/generic_business-71.png"}, {"rating": 4.9, "user_ratings_total": 13, "name": "Premier Eye Care And Surgical Center", "reference": "ChIJezBN7i1mUjoRUVeF5VYKfY4", "geometry": {"location": {"lat": 13.0354644, "lng": 80.2625882}, "viewport": {"northeast": {"lat": 13.0368259802915, "lng": 80.26385793029151}, "southwest": {"lat": 13.0341280197085, "lng": 80.2611599697085}}}, "opening_hours": {"open_now": false}, "place_id": "ChIJezBN7i1mUjoRUVeF5VYKfY4", "plus_code": {"global_code": "7M5227P7+52", "compound_code": "27P7+52 Chennai, Tamil Nadu, India"}, "vicinity": "15, (29) Old Luz Avenue, Mylapore, Chennai", "photos": [{"photo_reference": "ATtYBwLHrPBCxwVS8OU6aGTELTawPZC0mQd35n3npKlveTubb6GSJwBIbPbe5biLX2mWmJ8lKBfPjAKhRTjeQXUHMHE3cU9_mdiXhvTiHTTfB8g_gAIX2jf3HI2vNBQ5zBrskfguv7KJjQXEOEmXQcS3B1dEeDKyPZU2ZCz49_6H1qb5Hli0", "width": 2678, "html_attributions": ["<a href=\"https://maps.google.com/maps/contrib/116612338195757363729\">Premier Eye Care And Surgical Center</a>"], "height": 1174}], "scope": "GOOGLE", "business_status": "OPERATIONAL", "types": ["doctor", "health", "point_of_interest", "establishment"], "icon": "https://maps.gstatic.com/mapfiles/place_api/icons/v1/png_71/generic_business-71.png"}, {"rating": 4.1, "user_ratings_total": 13, "permanently_closed": true, "name": "Anandan's Urology Clinic", "reference": "ChIJ_8G_VTVmUjoRfwum82IVCq8", "geometry": {"location": {"lat": 13.038405, "lng": 80.2566532}, "viewport": {"northeast": {"lat": 13.0397181302915, "lng": 80.2580507802915}, "southwest": {"lat": 13.0370201697085, "lng": 80.25535281970849}}}, "place_id": "ChIJ_8G_VTVmUjoRfwum82IVCq8", "plus_code": {"global_code": "7M5227Q4+9M", "compound_code": "27Q4+9M Chennai, Tamil Nadu, India"}, "vicinity": "Flat 3, opp. LifeStyle Home Center, No. 382, TT Krishnamachari Road, Alwarpet, Chennai", "photos": [{"photo_reference": "ATtYBwKtnXIs-3psmlsPoujA9DoBCXk6K40rOPHy-W00chterlh-m4Y7wZAa294lO6D_5jCMKnKuRl5kSJbkl-PusAFVpyKO5Fo19VDM3P0XkOltpgAYu3wb6Xbb8tAGqL0hSN0j5ScTAjY7YgrWbIaMeyLbDTKiEZAZm9R7BAIx94NTUgpE", "width": 500, "html_attributions": ["<a href=\"https://maps.google.com/maps/contrib/115826509609493001128\">Anandan&#39;s Urology Clinic</a>"], "height": 332}], "scope": "GOOGLE", "business_status": "CLOSED_TEMPORARILY", "types": ["doctor", "health", "point_of_interest", "establishment"], "icon": "https://maps.gstatic.com/mapfiles/place_api/icons/v1/png_71/generic_business-71.png"}, {"rating": 5, "user_ratings_total": 1, "name": "Liposuction Surgery Cost in Chennai", "reference": "ChIJ26oJwjNmUjoRlGijT3DM6vM", "geometry": {"location": {"lat": 13.0409019, "lng": 80.2614472}, "viewport": {"northeast": {"lat": 13.0422601802915, "lng": 80.2626161302915}, "southwest": {"lat": 13.0395622197085, "lng": 80.2599181697085}}}, "place_id": "ChIJ26oJwjNmUjoRlGijT3DM6vM", "plus_code": {"global_code": "7M5227R6+9H", "compound_code": "27R6+9H Chennai, Tamil Nadu, India"}, "vicinity": "No.41, Old, No.20, 1st Main Road, CIT Colony, Mylapore, Chennai", "scope": "GOOGLE", "business_status": "OPERATIONAL", "types": ["doctor", "health", "point_of_interest", "establishment"], "icon": "https://maps.gstatic.com/mapfiles/place_api/icons/v1/png_71/generic_business-71.png"}, {"rating": 4.4, "user_ratings_total": 9, "name": "Dr N R Rangaraj", "reference": "ChIJ_____yxmUjoRp0x0SX7gIyE", "geometry": {"location": {"lat": 13.0355662, "lng": 80.26259139999999}, "viewport": {"northeast": {"lat": 13.0369914802915, "lng": 80.2639452802915}, "southwest": {"lat": 13.0342935197085, "lng": 80.26124731970847}}}, "opening_hours": {"open_now": false}, "place_id": "ChIJ_____yxmUjoRp0x0SX7gIyE", "plus_code": {"global_code": "7M5227P7+62", "compound_code": "27P7+62 Chennai, Tamil Nadu, India"}, "vicinity": "15, Luz Avenue, Bhaskarapuram, Mylapore, Chennai", "photos": [{"photo_reference": "ATtYBwI-gCNxtOZJpGS1JdtFo-2-FpQFKyNqjNlNd_N-ENRdQKw1rVAywsuI4nLqanUikJImHVxyOkF9M2Jlobg7uDFov69jjdPj8GglLfIHSCb7bx0Pcu5ryPaTjXSVdtpttaJ_14RjDDnCDukFgSrbhOva7oZBC6ZmQpO6pZGEjvOursbL", "width": 1284, "html_attributions": ["<a href=\"https://maps.google.com/maps/contrib/117857018341314945202\">Dr N R Rangaraj</a>"], "height": 569}], "scope": "GOOGLE", "business_status": "OPERATIONAL", "types": ["doctor", "health", "point_of_interest", "establishment"], "icon": "https://maps.gstatic.com/mapfiles/place_api/icons/v1/png_71/generic_business-71.png"}, {"rating": 4.7, "user_ratings_total": 31, "name": "Saanvi Fertility Centre Urology and Stone Centre ( Dr.Vezhaventhan)", "reference": "ChIJsQPcBjBmUjoRR-z9Apuj83Q", "geometry": {"location": {"lat": 13.043765, "lng": 80.2639518}, "viewport": {"northeast": {"lat": 13.0451355302915, "lng": 80.2653027802915}, "southwest": {"lat": 13.0424375697085, "lng": 80.26260481970849}}}, "opening_hours": {"open_now": false}, "place_id": "ChIJsQPcBjBmUjoRR-z9Apuj83Q", "plus_code": {"global_code": "7M5227V7+GH", "compound_code": "27V7+GH Chennai, Tamil Nadu, India"}, "vicinity": "opposite to HDFC Bank, #5, PS Sivasamy Salai, Landmark:, Mylapore, Chennai", "photos": [{"photo_reference": "ATtYBwL_Z2eCFtXtGUOmo7n8lEGOLmbbUiP5joKfRPY7Hhqt9hqyXRGB492-yKwZ-I6XFWNIXq0PgHVS-zmKx80sBiBKCfunS31BPngKLkNJ7E2IZ07mJGeqSgVjGIgAM-2u8R2mbENRG2hbLkBUPRJPtO6XtZaJ9aiUKCJzsut62HhPteb_", "width": 1440, "html_attributions": ["<a href=\"https://maps.google.com/maps/contrib/111209039720774140363\">Saanvi Fertility Centre Urology and Stone Centre ( Dr.Vezhaventhan)</a>"], "height": 809}], "scope": "GOOGLE", "business_status": "OPERATIONAL", "types": ["doctor", "health", "point_of_interest", "establishment"], "icon": "https://maps.gstatic.com/mapfiles/place_api/icons/v1/png_71/generic_business-71.png"}, {"rating": 3, "user_ratings_total": 2, "name": "Dr Manjushree Naik", "reference": "ChIJ423xiS1mUjoRXCWKIfpQNpw", "geometry": {"location": {"lat": 13.0402397, "lng": 80.26561079999999}, "viewport": {"northeast": {"lat": 13.0416137802915, "lng": 80.26696678029151}, "southwest": {"lat": 13.0389158197085, "lng": 80.26426881970849}}}, "place_id": "ChIJ423xiS1mUjoRXCWKIfpQNpw", "plus_code": {"global_code": "7M5227R8+36", "compound_code": "27R8+36 Chennai, Tamil Nadu, India"}, "vicinity": "3, Shivswami Salai, Mylapore, Mylapore, Chennai", "scope": "GOOGLE", "business_status": "OPERATIONAL", "types": ["doctor", "health", "point_of_interest", "establishment"], "icon": "https://maps.gstatic.com/mapfiles/place_api/icons/v1/png_71/generic_business-71.png"}, {"name": "Energy and life audit", "reference": "ChIJ423xiS1mUjoRIIG8CRMoxoo", "geometry": {"location": {"lat": 13.036791, "lng": 80.26763}, "viewport": {"northeast": {"lat": 13.0381174302915, "lng": 80.2689651802915}, "southwest": {"lat": 13.0354194697085, "lng": 80.2662672197085}}}, "opening_hours": {"open_now": false}, "place_id": "ChIJ423xiS1mUjoRIIG8CRMoxoo", "vicinity": "13/5, Masilamani Colony, Palur Kanniyappa Street, Mylapore, Chennai", "photos": [{"photo_reference": "ATtYBwKPFW4G1_C7VM44Um1jrbEOd1SYKVsyLYvhycVtFmfWdfaf9Ug2UKtumZPrDAm9b_ePRuuqQdlHzKUmW86UKTpibk7usU9GcDlTXBnWkNkZhBL6BVRtJLkAl3XRyL4FCBpb500r7rpzeAJ0lVzsnjtnF5-Lldz8bHCuN8Asw0HislNF", "width": 1537, "html_attributions": ["<a href=\"https://maps.google.com/maps/contrib/112754784750290360065\">Energy and life audit</a>"], "height": 2049}], "scope": "GOOGLE", "business_status": "OPERATIONAL", "types": ["physiotherapist", "doctor", "health", "point_of_interest", "establishment"], "icon": "https://maps.gstatic.com/mapfiles/place_api/icons/v1/png_71/generic_business-71.png"}, {"rating": 3.4, "user_ratings_total": 5, "name": "Rajamanickam Dr M G", "reference": "ChIJT-CTDjNmUjoRCQVZksy_cDY", "geometry": {"location": {"lat": 13.0386673, "lng": 80.2617738}, "viewport": {"northeast": {"lat": 13.0400050302915, "lng": 80.2632707802915}, "southwest": {"lat": 13.0373070697085, "lng": 80.2605728197085}}}, "place_id": "ChIJT-CTDjNmUjoRCQVZksy_cDY", "plus_code": {"global_code": "7M5227Q6+FP", "compound_code": "27Q6+FP Chennai, Tamil Nadu, India"}, "vicinity": "49, St Isabel Hospital, Oliver Road, Oliver Road, Chennai", "scope": "GOOGLE", "business_status": "OPERATIONAL", "types": ["doctor", "health", "point_of_interest", "establishment"], "icon": "https://maps.gstatic.com/mapfiles/place_api/icons/v1/png_71/generic_business-71.png"}, {"rating": 2, "user_ratings_total": 1, "name": "Dr. Ramesh Chandrasekaran", "reference": "ChIJCQeGpzVmUjoRJpABaszM-qQ", "geometry": {"location": {"lat": 13.0389087, "lng": 80.256393}, "viewport": {"northeast": {"lat": 13.0403261802915, "lng": 80.2577522302915}, "southwest": {"lat": 13.0376282197085, "lng": 80.2550542697085}}}, "place_id": "ChIJCQeGpzVmUjoRJpABaszM-qQ", "plus_code": {"global_code": "7M5227Q4+HH", "compound_code": "27Q4+HH Chennai, Tamil Nadu, India"}, "vicinity": "Murrays Gate Road, Vannia Teynampet, Lubdhi Colony, Alwarpet, Chennai", "scope": "GOOGLE", "business_status": "OPERATIONAL", "types": ["doctor", "health", "point_of_interest", "establishment"], "icon": "https://maps.gstatic.com/mapfiles/place_api/icons/v1/png_71/generic_business-71.png"}, {"rating": 4.5, "user_ratings_total": 18, "name": "Dr A.S.Prasada Rao", "reference": "ChIJz5UQkzNmUjoRZk5tPYP6-lc", "geometry": {"location": {"lat": 13.0404142, "lng": 80.26111329999999}, "viewport": {"northeast": {"lat": 13.0417625802915, "lng": 80.2624567302915}, "southwest": {"lat": 13.0390646197085, "lng": 80.25975876970848}}}, "place_id": "ChIJz5UQkzNmUjoRZk5tPYP6-lc", "plus_code": {"global_code": "7M5227R6+5C", "compound_code": "27R6+5C Chennai, Tamil Nadu, India"}, "vicinity": "18/1 New 35, 1st Main Road, CIT Colony, Mylapore, Chennai", "photos": [{"photo_reference": "ATtYBwKgLrUEgJh37PIVpDTDlW4Y12VkeI9ng2l8NJMCUr5ae8tZP1ghbGEW_Spi2_dTWnXMNy8ofhT5ctCMVIkpED755rrOnSrbSVpKx7Ewu3FGjvJviJx4PogXyvqYl_TTgPqPeMxTfaaejSHxqDUcpTDTO_78g1HKm-Ql04i-cD0T9qoA", "width": 1080, "html_attributions": ["<a href=\"https://maps.google.com/maps/contrib/109557973988396551102\">Pasupathi Venkatesh</a>"], "height": 1920}], "scope": "GOOGLE", "business_status": "OPERATIONAL", "types": ["doctor", "health", "point_of_interest", "establishment"], "icon": "https://maps.gstatic.com/mapfiles/place_api/icons/v1/png_71/generic_business-71.png"}, {"rating": 4.9, "user_ratings_total": 111, "name": "Dr Maran M -Springfield Wellness Centre", "reference": "ChIJoaoFbEVmUjoRBHOiQWHPm-A", "geometry": {"location": {"lat": 13.040044, "lng": 80.258605}, "viewport": {"northeast": {"lat": 13.0413979802915, "lng": 80.2599543302915}, "southwest": {"lat": 13.0387000197085, "lng": 80.2572563697085}}}, "opening_hours": {"open_now": false}, "place_id": "ChIJoaoFbEVmUjoRBHOiQWHPm-A", "plus_code": {"global_code": "7M5227R5+2C", "compound_code": "27R5+2C Chennai, Tamil Nadu, India"}, "vicinity": "18, 6th Street, CIT Colony, Mylapore, Chennai", "photos": [{"photo_reference": "ATtYBwJq-w3-oWNgk_xBESV1lxUq43nIqAVaslovayINpdJZ-eX5ilAAVBcIVSrNQLvcJeykMNby9KIslCvFbXr1k2OstBnDyXjfCRyT65EmNrOy_uwIlv9iL82SxmdlTdgOFdEJd9xHTBPBsdozM_W5yct0bOtoKlaNfH_0CYBF8Ti9R-ci", "width": 1365, "html_attributions": ["<a href=\"https://maps.google.com/maps/contrib/100722930351088266226\">Dr Maran M -Springfield Wellness Centre</a>"], "height": 768}], "scope": "GOOGLE", "business_status": "OPERATIONAL", "types": ["hospital", "doctor", "health", "point_of_interest", "establishment"], "icon": "https://maps.gstatic.com/mapfiles/place_api/icons/v1/png_71/generic_business-71.png"}, {"rating": 4.8, "user_ratings_total": 508, "name": "Oliva Clinic Alwarpet: Laser Hair Removal, Acne Scar, Hair Loss, Skin Lightening, Weight Loss Treatment", "reference": "ChIJ9Z4ntDZmUjoRM60bQwCDLAM", "geometry": {"location": {"lat": 13.0426829, "lng": 80.25957540000002}, "viewport": {"northeast": {"lat": 13.0440970802915, "lng": 80.2608335802915}, "southwest": {"lat": 13.0413991197085, "lng": 80.2581356197085}}}, "opening_hours": {"open_now": false}, "place_id": "ChIJ9Z4ntDZmUjoRM60bQwCDLAM", "plus_code": {"global_code": "7M5227V5+3R", "compound_code": "27V5+3R Chennai, Tamil Nadu, India"}, "vicinity": "2nd Floor, Flat No\u201a\u00c4\u00f4s : 2A & 2B,KG Business center, No 65, TT Krishnamachari Road, Chennai", "photos": [{"photo_reference": "ATtYBwLyqcFJyW7z0CS09XusXtM4L1KmXKXRUk8Gkwoq6M7yfLeIOtJBysM1n-zbrquHDNbdEpyADCvHsYRpVVMjziyVV-sVuJUsShjIVrAi7gWxbpDRS9Hu8E86mm8N9vPa1B-sw6jEWL8r3O7-sYy-cwwONMh4Pv9RfELGx_EAMCKb3K7q", "width": 720, "html_attributions": ["<a href=\"https://maps.google.com/maps/contrib/111561012106347365831\">Oliva Clinic Alwarpet: Laser Hair Removal, Acne Scar, Hair Loss, Skin Lightening, Weight Loss Treatment</a>"], "height": 540}], "scope": "GOOGLE", "business_status": "OPERATIONAL", "types": ["beauty_salon", "hair_care", "doctor", "health", "point_of_interest", "establishment"], "icon": "https://maps.gstatic.com/mapfiles/place_api/icons/v1/png_71/generic_business-71.png"}, {"rating": 4, "user_ratings_total": 1, "name": "Minimally Invasive Neurosurgery", "reference": "ChIJUyI3ITNmUjoRaW8rvJVh9EM", "geometry": {"location": {"lat": 13.037375, "lng": 80.262553}, "viewport": {"northeast": {"lat": 13.0387287302915, "lng": 80.2639013302915}, "southwest": {"lat": 13.0360307697085, "lng": 80.2612033697085}}}, "opening_hours": {"open_now": false}, "place_id": "ChIJUyI3ITNmUjoRaW8rvJVh9EM", "plus_code": {"global_code": "7M5227P7+W2", "compound_code": "27P7+W2 Chennai, Tamil Nadu, India"}, "vicinity": "GF-4, Shanthi Towers, No.133, Luz Church Road, Mylapore, Chennai", "photos": [{"photo_reference": "ATtYBwKmd2jPfG_tHbqcBXYSA6sTqZ-MYUHo92eIBT5w_8WTt62OVhEgH_9hXc4zU-0yp46rr--gHLGnBCv72mDYRxpAOmD3Ghs9MypYgH1nqEnrPEZ71mc08SMdlmD1HGGokdgACkYMBDvapWMQOoblyyJQaxSEKfNj4ha2SkNhm0gsun2m", "width": 250, "html_attributions": ["<a href=\"https://maps.google.com/maps/contrib/113012642666291477115\">Minimally Invasive Neurosurgery</a>"], "height": 250}], "scope": "GOOGLE", "business_status": "OPERATIONAL", "types": ["doctor", "health", "point_of_interest", "establishment"], "icon": "https://maps.gstatic.com/mapfiles/place_api/icons/v1/png_71/generic_business-71.png"}, {"rating": 3, "user_ratings_total": 7, "name": "Behanced skin clinic", "reference": "ChIJpRUc3zVmUjoRt8hhmhOb4vM", "geometry": {"location": {"lat": 13.0415613, "lng": 80.2560637}, "viewport": {"northeast": {"lat": 13.0429166802915, "lng": 80.25737303029152}, "southwest": {"lat": 13.0402187197085, "lng": 80.25467506970851}}}, "place_id": "ChIJpRUc3zVmUjoRt8hhmhOb4vM", "plus_code": {"global_code": "7M5227R4+JC", "compound_code": "27R4+JC Chennai, Tamil Nadu, India"}, "vicinity": "3/2, 3/2, Teynampet, Chennai", "scope": "GOOGLE", "business_status": "OPERATIONAL", "types": ["doctor", "health", "point_of_interest", "establishment"], "icon": "https://maps.gstatic.com/mapfiles/place_api/icons/v1/png_71/generic_business-71.png"}, {"name": "Ayuwellness Clinic", "reference": "ChIJy-N7dDVmUjoRO9KLkwaFSJ4", "geometry": {"location": {"lat": 13.038419, "lng": 80.255664}, "viewport": {"northeast": {"lat": 13.0396606802915, "lng": 80.2569985302915}, "southwest": {"lat": 13.0369627197085, "lng": 80.25430056970849}}}, "opening_hours": {"open_now": false}, "place_id": "ChIJy-N7dDVmUjoRO9KLkwaFSJ4", "plus_code": {"global_code": "7M5227Q4+97", "compound_code": "27Q4+97 Chennai, Tamil Nadu, India"}, "vicinity": "103, 1st Floor, Eldams Square, 167 Eldams Road,, Opp C.P.Arts Centre, Alwarpet, Chennai", "photos": [{"photo_reference": "ATtYBwIEN6vT6AyPlEM08d1wqk0mSmcg-V6qJTk7mk3ZRLi7FnlWmWxUAOAN3dPOPLF-r1EwntzjsC_iDT1t-mYwq7EkokyJhHfR9WKdOKVMLilSPa4QIrXfUhNpo4m-nCqxXp18TwvF-x0IYIwWGYM_3jD6fQozuzgh8kX2aAVW6JHzVEuS", "width": 1296, "html_attributions": ["<a href=\"https://maps.google.com/maps/contrib/117590441454452287350\">Ayuwellness Clinic</a>"], "height": 1936}], "scope": "GOOGLE", "business_status": "OPERATIONAL", "types": ["doctor", "health", "point_of_interest", "establishment"], "icon": "https://maps.gstatic.com/mapfiles/place_api/icons/v1/png_71/generic_business-71.png"}, {"rating": 4.4, "user_ratings_total": 155, "name": "Behanced Luxe Dermatology", "reference": "ChIJjQTo3zVmUjoREJ5Ru9haJL0", "geometry": {"location": {"lat": 13.0416027, "lng": 80.2556211}, "viewport": {"northeast": {"lat": 13.0429519802915, "lng": 80.25696593029151}, "southwest": {"lat": 13.0402540197085, "lng": 80.2542679697085}}}, "opening_hours": {"open_now": false}, "place_id": "ChIJjQTo3zVmUjoREJ5Ru9haJL0", "plus_code": {"global_code": "7M5227R4+J6", "compound_code": "27R4+J6 Chennai, Tamil Nadu, India"}, "vicinity": "#12/2, 2nd floor, sriman srinivasan cross street, venus colony, alwarpet, Chennai", "photos": [{"photo_reference": "ATtYBwJzF41dQkbiKov6PJaMj9nTTUX_OXnGxT2NpL3D6br3EpFtLcBIt8NDtnANisgZrtzPuf2Cph2mPkjT0aUq1sq4YGMTTU8tk2ytxjgQaA8LAI8VUQBmNGa92e_a9cOlzz275dvMoaZX0bTEVRA2abX4iihxXl5ZhbuSxiZSyYS0lG6s", "width": 2048, "html_attributions": ["<a href=\"https://maps.google.com/maps/contrib/116841073983813610606\">Behanced Luxe Dermatology</a>"], "height": 1297}], "scope": "GOOGLE", "business_status": "OPERATIONAL", "types": ["doctor", "health", "point_of_interest", "establishment"], "icon": "https://maps.gstatic.com/mapfiles/place_api/icons/v1/png_71/generic_business-71.png"}, {"rating": 5, "user_ratings_total": 1, "name": "Metropolis Healthcare Ltd", "reference": "ChIJs56BSTVmUjoRUsF14OZzPmY", "geometry": {"location": {"lat": 13.036084, "lng": 80.255459}, "viewport": {"northeast": {"lat": 13.0376519802915, "lng": 80.2568479802915}, "southwest": {"lat": 13.0349540197085, "lng": 80.25415001970849}}}, "opening_hours": {"open_now": false}, "place_id": "ChIJs56BSTVmUjoRUsF14OZzPmY", "plus_code": {"global_code": "7M5227P4+C5", "compound_code": "27P4+C5 Chennai, Tamil Nadu, India"}, "vicinity": "New No 197, Old, No 88, TT Krishnamachari Road, Alwarpet, Chennai", "photos": [{"photo_reference": "ATtYBwLaqIi7zjJSqBXiIB8ME2Thew9ryb6x-W223tjJYKdTUoBPV0TFdT0UTuIaNcrDe6Y_Fb1uEuH6bTFTZQv3UmScwbsN9nu4cIz_Rh0kts6VS6b9nlj8aYbK3dGxES58SA39EfIx9RFnHrJPEDLiRhKQ4yXlt7eeRxm720fpa6SJiQeG", "width": 2592, "html_attributions": ["<a href=\"https://maps.google.com/maps/contrib/100392698277956142210\">lokesh j</a>"], "height": 1944}], "scope": "GOOGLE", "business_status": "OPERATIONAL", "types": ["doctor", "health", "point_of_interest", "establishment"], "icon": "https://maps.gstatic.com/mapfiles/place_api/icons/v1/png_71/generic_business-71.png"}, {"rating": 4.8, "user_ratings_total": 26, "name": "My Gynecologist, Dr Prema Rajendran", "reference": "ChIJbQddYy1mUjoRzhf0_snLvZM", "geometry": {"location": {"lat": 13.038454, "lng": 80.2659}, "viewport": {"northeast": {"lat": 13.0398063302915, "lng": 80.26721703029149}, "southwest": {"lat": 13.0371083697085, "lng": 80.26451906970848}}}, "opening_hours": {"open_now": false}, "place_id": "ChIJbQddYy1mUjoRzhf0_snLvZM", "plus_code": {"global_code": "7M5227Q8+99", "compound_code": "27Q8+99 Chennai, Tamil Nadu, India"}, "vicinity": "#5, Balaiya Avenue Road, Luz, Mylapore, Chennai", "photos": [{"photo_reference": "ATtYBwI96N-0FmPKtifeWx1exdx_m2PB11tkkOq1aiG4nWtKZGYAbsSfFd9trdxNdKXHij-u9jp-KvCxyy918Qb7yv0WNwGTMRKSyvVaD5xvGlg4Q7SrcX7xHalxlkTLQZSwpZ0iIialRBdU1vB11gkKgtfzQl5xjUzsHBylsMjsfRd3OV4s", "width": 5999, "html_attributions": ["<a href=\"https://maps.google.com/maps/contrib/101147248208100818938\">My Gynecologist, Dr Prema Rajendran</a>"], "height": 3999}], "scope": "GOOGLE", "business_status": "OPERATIONAL", "types": ["doctor", "health", "point_of_interest", "establishment"], "icon": "https://maps.gstatic.com/mapfiles/place_api/icons/v1/png_71/generic_business-71.png"}]}