{"status": "OK", "html_attributions": [], "results": [{"name": "Orange clinic", "reference": "ChIJHwCeoUVnUjoR-RKsfzU6-ac", "geometry": {"location": {"lat": 13.0441183, "lng": 80.2715357}, "viewport": {"northeast": {"lat": 13.0453726802915, "lng": 80.2729214302915}, "southwest": {"lat": 13.0426747197085, "lng": 80.2702234697085}}}, "place_id": "ChIJHwCeoUVnUjoR-RKsfzU6-ac", "plus_code": {"global_code": "7M5227VC+JJ", "compound_code": "27VC+JJ Chennai, Tamil Nadu, India"}, "vicinity": "68, Doctor Radha Krishnan Salai, Jagadambal Colony, Dwarka Colony, Mylapore, Chennai", "scope": "GOOGLE", "business_status": "OPERATIONAL", "types": ["doctor", "health", "point_of_interest", "establishment"], "icon": "https://maps.gstatic.com/mapfiles/place_api/icons/v1/png_71/generic_business-71.png"}, {"name": "Dwaraka", "reference": "ChIJUe1qBKNnUjoRWbT0v6p2k2Y", "geometry": {"location": {"lat": 13.0428041, "lng": 80.2709711}, "viewport": {"northeast": {"lat": 13.0441605302915, "lng": 80.2722327302915}, "southwest": {"lat": 13.0414625697085, "lng": 80.26953476970849}}}, "place_id": "ChIJUe1qBKNnUjoRWbT0v6p2k2Y", "plus_code": {"global_code": "7M5227VC+49", "compound_code": "27VC+49 Chennai, Tamil Nadu, India"}, "vicinity": "3 Second Street, Doctor Radha Krishnan Salai, Mylapore, Chennai", "scope": "GOOGLE", "business_status": "OPERATIONAL", "types": ["doctor", "health", "point_of_interest", "establishment"], "icon": "https://maps.gstatic.com/mapfiles/place_api/icons/v1/png_71/generic_business-71.png"}, {"rating": 5, "user_ratings_total": 1, "name": "Dr P Mohan Child Surgeon & Urologist", "reference": "ChIJFX6ji4RdUjoRxnxohX2M9EQ", "geometry": {"location": {"lat": 13.0474356, "lng": 80.2737767}, "viewport": {"northeast": {"lat": 13.0488037302915, "lng": 80.27512853029151}, "southwest": {"lat": 13.0461057697085, "lng": 80.27243056970849}}}, "place_id": "ChIJFX6ji4RdUjoRxnxohX2M9EQ", "plus_code": {"global_code": "7M5227WF+XG", "compound_code": "27WF+XG Chennai, Tamil Nadu, India"}, "vicinity": "New No 7, Old No 9, Lakshmi Puram III Street, Royapettah, Lakshmi Puram, Chennai", "scope": "GOOGLE", "business_status": "OPERATIONAL", "types": ["doctor", "health", "point_of_interest", "establishment"], "icon": "https://maps.gstatic.com/mapfiles/place_api/icons/v1/png_71/generic_business-71.png"}, {"rating": 5, "user_ratings_total": 1, "name": "Nalli Clinic", "reference": "ChIJVVVVVaBoUjoRY9iHul26ZpA", "geometry": {"location": {"lat": 13.0472275, "lng": 80.273322}, "viewport": {"northeast": {"lat": 13.0485366302915, "lng": 80.27466313029151}, "southwest": {"lat": 13.0458386697085, "lng": 80.2719651697085}}}, "opening_hours": {"open_now": false}, "place_id": "ChIJVVVVVaBoUjoRY9iHul26ZpA", "plus_code": {"global_code": "7M5227WF+V8", "compound_code": "27WF+V8 Chennai, Tamil Nadu, India"}, "vicinity": "Avvai Shanmugam Salai, Othavadi, Royapettah, Chennai", "scope": "GOOGLE", "business_status": "OPERATIONAL", "types": ["doctor", "health", "point_of_interest", "establishment"], "icon": "https://maps.gstatic.com/mapfiles/place_api/icons/v1/png_71/generic_business-71.png"}, {"rating": 4.9, "user_ratings_total": 12, "name": "Dr M Mahender", "reference": "ChIJAQAAwLRnUjoRrF5hRz_4jGk", "geometry": {"location": {"lat": 13.0347278, "lng": 80.2714036}, "viewport": {"northeast": {"lat": 13.0360670302915, "lng": 80.2727905802915}, "southwest": {"lat": 13.0333690697085, "lng": 80.27009261970849}}}, "place_id": "ChIJAQAAwLRnUjoRrF5hRz_4jGk", "plus_code": {"global_code": "7M5227MC+VH", "compound_code": "27MC+VH Chennai, Tamil Nadu, India"}, "vicinity": "Old 50, New 99, Kutchery Road, Mylapore, Chennai", "photos": [{"photo_reference": "ATtYBwIB8XbbG1p4xMxxr--rhvNk6OiE9xxKt3LXITxYgqOzyhHhT8mY2Sp3G-tj5ZkEI5CaQzS_5DpayM9y6sBQCWr3SdmDh8XG4cJPVlsoPNas3MvjLzOS76-A1qz0gh4rBiqeEaktW-_DWF_yCZ2XWGwl1s3YtnYkxNtXMxHqi-o1NGxu", "width": 4608, "html_attributions": ["<a href=\"https://maps.google.com/maps/contrib/101908381603069555356\">Sundar Narayanan</a>"], "height": 3456}], "scope": "GOOGLE", "business_status": "OPERATIONAL", "types": ["doctor", "health", "point_of_interest", "establishment"], "icon": "https://maps.gstatic.com/mapfiles/place_api/icons/v1/png_71/generic_business-71.png"}, {"rating": 4.1, "user_ratings_total": 9, "name": "Prabhu E N T Clinic", "reference": "ChIJ423xiS1mUjoRhDC9NkpD2WM", "geometry": {"location": {"lat": 13.0347176, "lng": 80.2713716}, "viewport": {"northeast": {"lat": 13.0361214302915, "lng": 80.2727358802915}, "southwest": {"lat": 13.0334234697085, "lng": 80.27003791970849}}}, "opening_hours": {"open_now": false}, "place_id": "ChIJ423xiS1mUjoRhDC9NkpD2WM", "plus_code": {"global_code": "7M5227MC+VG", "compound_code": "27MC+VG Chennai, Tamil Nadu, India"}, "vicinity": "No. 99, Kutchery Road, Mylapore, Chennai", "photos": [{"photo_reference": "ATtYBwILLKywkcQ5eUjqTvJWx-D33zpSm1v4uESo2nRe838pPhGbj1OlLW5F7GsC33vLQEVT56Zysz3pgKoDR6YKPzm-qSMAb62JDfTNkmOzIe_db9Ryjo1M_4td1qQKmBMEgc9sMS3EF_1jvPGTwIINVA5spRtCKcjRojqFCNnVGFZOaGCX", "width": 2448, "html_attributions": ["<a href=\"https://maps.google.com/maps/contrib/114724280271472850605\">Narayanan Hariharan</a>"], "height": 3264}], "scope": "GOOGLE", "business_status": "OPERATIONAL", "types": ["doctor", "health", "point_of_interest", "establishment"], "icon": "https://maps.gstatic.com/mapfiles/place_api/icons/v1/png_71/generic_business-71.png"}, {"rating": 5, "user_ratings_total": 15, "name": "Dr. Rukkayal Fathima", "reference": "ChIJY8AKajNmUjoR5OdMZSSWDAU", "geometry": {"location": {"lat": 13.0338539, "lng": 80.2712348}, "viewport": {"northeast": {"lat": 13.0356460802915, "lng": 80.27302178029151}, "southwest": {"lat": 13.0329481197085, "lng": 80.27032381970851}}}, "opening_hours": {"open_now": false}, "place_id": "ChIJY8AKajNmUjoR5OdMZSSWDAU", "plus_code": {"global_code": "7M5227MC+GF", "compound_code": "27MC+GF Chennai, Tamil Nadu, India"}, "vicinity": "163, Kutchery Road, Vinayaka Nagar Colony, Mylapore, Chennai", "photos": [{"photo_reference": "ATtYBwK3nvENtykiHht2PiEJE5qQ1rwr5yo4Skhj52bnIE0ontOgctdooarhHuIwN1sCpnmeW4ZaXWZ05DiwmVwtp5ql38_6GmRKMsVcO2Xb0o0eH9aXIsR1wDZoenK-O80XogejP6grmHbsp3-PPlBc5Zq3ysJt7wmnQgLrOzoBgiDcRvAf", "width": 3168, "html_attributions": ["<a href=\"https://maps.google.com/maps/contrib/114222025000347164460\">nagarajan pannerselvam</a>"], "height": 4224}], "scope": "GOOGLE", "business_status": "OPERATIONAL", "types": ["doctor", "health", "point_of_interest", "establishment"], "icon": "https://maps.gstatic.com/mapfiles/place_api/icons/v1/png_71/generic_business-71.png"}, {"rating": 4.7, "user_ratings_total": 20, "name": "Dr. S. Priya Bharathi - Dr. V. Suresh Kumar", "reference": "ChIJ66qzE9ZnUjoRqFvMbNEUDsc", "geometry": {"location": {"lat": 13.0302717, "lng": 80.2754983}, "viewport": {"northeast": {"lat": 13.0315911802915, "lng": 80.2768480302915}, "southwest": {"lat": 13.0288932197085, "lng": 80.27415006970848}}}, "opening_hours": {"open_now": false}, "place_id": "ChIJ66qzE9ZnUjoRqFvMbNEUDsc", "plus_code": {"global_code": "7M5227JG+45", "compound_code": "27JG+45 Chennai, Tamil Nadu, India"}, "vicinity": "10, Venkataswamy Street, Mylapore, Chennai", "photos": [{"photo_reference": "ATtYBwKcEvNRcxWkqKQEqACH1dAltQxKYlWEf1YIjZcnFHF-09LhUtOVPd83NO6CqHuuq5Qcu0_0Bzt5TPIEuAynGmONydQp7HnVJe9HONM8odJJXUZf4lKo9r2ak3IcXiiPF2A7yempgp-0Grzo2s5BummAEX4IYEiSqRTvp8XBje0yA_9u", "width": 4160, "html_attributions": ["<a href=\"https://maps.google.com/maps/contrib/107889856909616393105\">Devi Selvam</a>"], "height": 3120}], "scope": "GOOGLE", "business_status": "OPERATIONAL", "types": ["doctor", "health", "point_of_interest", "establishment"], "icon": "https://maps.gstatic.com/mapfiles/place_api/icons/v1/png_71/generic_business-71.png"}, {"rating": 5, "user_ratings_total": 1, "name": "Padmini Vasudevan (Dr)", "reference": "ChIJlYUJLy9mUjoRSXLm2mgEIx4", "geometry": {"location": {"lat": 13.0456424, "lng": 80.2705727}, "viewport": {"northeast": {"lat": 13.0469902802915, "lng": 80.27195048029151}, "southwest": {"lat": 13.0442923197085, "lng": 80.2692525197085}}}, "place_id": "ChIJlYUJLy9mUjoRSXLm2mgEIx4", "vicinity": "33, Jambulingam Street, Jambulingam Street, Chennai", "scope": "GOOGLE", "business_status": "OPERATIONAL", "types": ["doctor", "health", "point_of_interest", "establishment"], "icon": "https://maps.gstatic.com/mapfiles/place_api/icons/v1/png_71/generic_business-71.png"}, {"rating": 4.1, "user_ratings_total": 13, "name": "Dr U V Ramakrishnan", "reference": "ChIJ423xiS1mUjoRSpyWqZWnsZ0", "geometry": {"location": {"lat": 13.0301338, "lng": 80.2755549}, "viewport": {"northeast": {"lat": 13.0315218802915, "lng": 80.2769049802915}, "southwest": {"lat": 13.0288239197085, "lng": 80.2742070197085}}}, "place_id": "ChIJ423xiS1mUjoRSpyWqZWnsZ0", "plus_code": {"global_code": "7M5227JG+36", "compound_code": "27JG+36 Chennai, Tamil Nadu, India"}, "vicinity": "13, Venkataswamy Street, Kuil Thoppu, Mylapore, Chennai", "scope": "GOOGLE", "business_status": "OPERATIONAL", "types": ["doctor", "health", "point_of_interest", "establishment"], "icon": "https://maps.gstatic.com/mapfiles/place_api/icons/v1/png_71/generic_business-71.png"}, {"rating": 4.2, "user_ratings_total": 36, "name": "Dr Fazlur Rahman", "reference": "ChIJVVVVFZloUjoRoO6OAtLcUlg", "geometry": {"location": {"lat": 13.0288849, "lng": 80.277277}, "viewport": {"northeast": {"lat": 13.0302863802915, "lng": 80.27863508029151}, "southwest": {"lat": 13.0275884197085, "lng": 80.27593711970849}}}, "place_id": "ChIJVVVVFZloUjoRoO6OAtLcUlg", "plus_code": {"global_code": "7M5227HG+HW", "compound_code": "27HG+HW Chennai, Tamil Nadu, India"}, "vicinity": "17, Gustian beach road, Santhome, Pattinapakkam, Santhome, Mylapore, Chennai", "scope": "GOOGLE", "business_status": "OPERATIONAL", "types": ["doctor", "health", "point_of_interest", "establishment"], "icon": "https://maps.gstatic.com/mapfiles/place_api/icons/v1/png_71/generic_business-71.png"}, {"rating": 5, "user_ratings_total": 1, "name": "pulmonologist chest physician,Tuberculosis Specialist", "reference": "ChIJ3YMa2lxnUjoR8alRoLQ_cIM", "geometry": {"location": {"lat": 13.0299702, "lng": 80.2755433}, "viewport": {"northeast": {"lat": 13.0314398802915, "lng": 80.2768893302915}, "southwest": {"lat": 13.0287419197085, "lng": 80.27419136970849}}}, "place_id": "ChIJ3YMa2lxnUjoR8alRoLQ_cIM", "plus_code": {"global_code": "7M5227HG+X6", "compound_code": "27HG+X6 Chennai, Tamil Nadu, India"}, "vicinity": "3, Venkataswamy Street, Mylapore, Chennai", "scope": "GOOGLE", "business_status": "OPERATIONAL", "types": ["doctor", "health", "point_of_interest", "establishment"], "icon": "https://maps.gstatic.com/mapfiles/place_api/icons/v1/png_71/generic_business-71.png"}, {"name": "Shaik Hameed Dr", "reference": "ChIJdyvEkHhoUjoR-v8VZlYkDKI", "geometry": {"location": {"lat": 13.0293056, "lng": 80.2775395}, "viewport": {"northeast": {"lat": 13.0306324302915, "lng": 80.2789006302915}, "southwest": {"lat": 13.0279344697085, "lng": 80.2762026697085}}}, "place_id": "ChIJdyvEkHhoUjoR-v8VZlYkDKI", "vicinity": "Fatima Manzil, Arulanandam Street, Pattinapakkam, Santhome, Mylapore, Chennai", "scope": "GOOGLE", "business_status": "OPERATIONAL", "types": ["doctor", "health", "point_of_interest", "establishment"], "icon": "https://maps.gstatic.com/mapfiles/place_api/icons/v1/png_71/generic_business-71.png"}, {"rating": 4.1, "user_ratings_total": 37, "name": "Fathimah Eye Clinic", "reference": "ChIJkZB2lHhoUjoREvAqUccRa3Y", "geometry": {"location": {"lat": 13.0291467, "lng": 80.2776837}, "viewport": {"northeast": {"lat": 13.0305699302915, "lng": 80.2790443302915}, "southwest": {"lat": 13.0278719697085, "lng": 80.27634636970849}}}, "opening_hours": {"open_now": false}, "place_id": "ChIJkZB2lHhoUjoREvAqUccRa3Y", "plus_code": {"global_code": "7M5227HH+M3", "compound_code": "27HH+M3 Chennai, Tamil Nadu, India"}, "vicinity": "23, Arulanandam Street, Pattinapakkam, Santhome, Triplicane, Chennai", "photos": [{"photo_reference": "ATtYBwLEIZlqbbSAdz5T24D_xPRH2eYZLZGsxbQbNsAEujAD_BPBtRNtwTYuNmQ42oYliDby2IqYNLB1jmY9S3mlmWh_j0Sd0u082PT8VR-AadnbZmlXH_KlmAb6pS8AE4vlWSV4R5rzdXoovzH58YQz4izL-lm63SvigqitGdj6lrUaHIkn", "width": 650, "html_attributions": ["<a href=\"https://maps.google.com/maps/contrib/115083678853323744457\">Fathimah Eye Clinic</a>"], "height": 650}], "scope": "GOOGLE", "business_status": "OPERATIONAL", "types": ["doctor", "health", "point_of_interest", "establishment"], "icon": "https://maps.gstatic.com/mapfiles/place_api/icons/v1/png_71/generic_business-71.png"}, {"rating": 3.8, "user_ratings_total": 4, "name": "Midland Obesity Clinic", "reference": "ChIJzS4FQjNmUjoRkYKK06BssMY", "geometry": {"location": {"lat": 13.0360089, "lng": 80.269233}, "viewport": {"northeast": {"lat": 13.0373888302915, "lng": 80.2705998302915}, "southwest": {"lat": 13.0346908697085, "lng": 80.2679018697085}}}, "opening_hours": {"open_now": false}, "place_id": "ChIJzS4FQjNmUjoRkYKK06BssMY", "plus_code": {"global_code": "7M5227P9+CM", "compound_code": "27P9+CM Chennai, Tamil Nadu, India"}, "vicinity": "104, New, No. 227, Kutchery Road, Mylapore, Chennai", "scope": "GOOGLE", "business_status": "OPERATIONAL", "types": ["doctor", "health", "point_of_interest", "establishment"], "icon": "https://maps.gstatic.com/mapfiles/place_api/icons/v1/png_71/generic_business-71.png"}, {"rating": 1, "user_ratings_total": 1, "name": "Rajasekar Dr M K", "reference": "ChIJO2qsbDJmUjoR-Y4gLZzkXyg", "geometry": {"location": {"lat": 13.0393589, "lng": 80.2683582}, "viewport": {"northeast": {"lat": 13.0408316802915, "lng": 80.2697266302915}, "southwest": {"lat": 13.0381337197085, "lng": 80.2670286697085}}}, "place_id": "ChIJO2qsbDJmUjoR-Y4gLZzkXyg", "plus_code": {"global_code": "7M5227Q9+P8", "compound_code": "27Q9+P8 Chennai, Tamil Nadu, India"}, "vicinity": "12/1 New 17, Karpagambal Nagar, Mylapore, Karpagambal Nagar, Chennai", "scope": "GOOGLE", "business_status": "OPERATIONAL", "types": ["doctor", "health", "point_of_interest", "establishment"], "icon": "https://maps.gstatic.com/mapfiles/place_api/icons/v1/png_71/generic_business-71.png"}, {"name": "Rajapandian K (Dr)", "reference": "ChIJQ8SH9h9mUjoRP251qChjRSQ", "geometry": {"location": {"lat": 13.0299095, "lng": 80.2742426}, "viewport": {"northeast": {"lat": 13.0313339302915, "lng": 80.2755875302915}, "southwest": {"lat": 13.0286359697085, "lng": 80.2728895697085}}}, "place_id": "ChIJQ8SH9h9mUjoRP251qChjRSQ", "plus_code": {"global_code": "7M5227HF+XM", "compound_code": "27HF+XM Chennai, Tamil Nadu, India"}, "vicinity": "31, Abraham Street, Sankarapuram, Mylapore, Chennai", "scope": "GOOGLE", "business_status": "OPERATIONAL", "types": ["doctor", "health", "point_of_interest", "establishment"], "icon": "https://maps.gstatic.com/mapfiles/place_api/icons/v1/png_71/generic_business-71.png"}, {"name": "Dr K Govinda Rajan Clinic", "reference": "ChIJG0CwhJ1oUjoRdlQ-S8NCRZ8", "geometry": {"location": {"lat": 13.0514761, "lng": 80.2773915}, "viewport": {"northeast": {"lat": 13.0528091302915, "lng": 80.2787345802915}, "southwest": {"lat": 13.0501111697085, "lng": 80.27603661970849}}}, "place_id": "ChIJG0CwhJ1oUjoRdlQ-S8NCRZ8", "vicinity": "New 10, Old 21, Govind, Besant Road, Royapettah, Besant Road, Chennai", "scope": "GOOGLE", "business_status": "OPERATIONAL", "types": ["doctor", "health", "point_of_interest", "establishment"], "icon": "https://maps.gstatic.com/mapfiles/place_api/icons/v1/png_71/generic_business-71.png"}, {"name": "Dr. UVR", "reference": "ChIJX663AwZnUjoRPJQVysErg5w", "geometry": {"location": {"lat": 13.0294966, "lng": 80.2745195}, "viewport": {"northeast": {"lat": 13.0308455802915, "lng": 80.2758684802915}, "southwest": {"lat": 13.0281476197085, "lng": 80.2731705197085}}}, "place_id": "ChIJX663AwZnUjoRPJQVysErg5w", "plus_code": {"global_code": "7M5227HF+QR", "compound_code": "27HF+QR Chennai, Tamil Nadu, India"}, "vicinity": "116, Appu Street, Sankarapuram, Mylapore, Chennai", "scope": "GOOGLE", "business_status": "OPERATIONAL", "types": ["doctor", "health", "point_of_interest", "establishment"], "icon": "https://maps.gstatic.com/mapfiles/place_api/icons/v1/png_71/generic_business-71.png"}, {"name": "Physio Care Centre", "reference": "ChIJl6VbWC5mUjoRywIs5XLlP4M", "geometry": {"location": {"lat": 13.0441713, "lng": 80.268255}, "viewport": {"northeast": {"lat": 13.0455206302915, "lng": 80.26960028029151}, "southwest": {"lat": 13.0428226697085, "lng": 80.2669023197085}}}, "opening_hours": {"open_now": false}, "place_id": "ChIJl6VbWC5mUjoRywIs5XLlP4M", "plus_code": {"global_code": "7M5227V9+M8", "compound_code": "27V9+M8 Chennai, Tamil Nadu, India"}, "vicinity": "VM Street, Dwarka Colony, Mylapore, Chennai", "scope": "GOOGLE", "business_status": "OPERATIONAL", "types": ["doctor", "health", "point_of_interest", "establishment"], "icon": "https://maps.gstatic.com/mapfiles/place_api/icons/v1/png_71/generic_business-71.png"}]}