{"status": "OK", "html_attributions": [], "results": [{"rating": 3.9, "user_ratings_total": 363, "name": "Easyday Club", "reference": "ChIJu3a5ytIZDTkRYOHgmcAxRfw", "geometry": {"location": {"lat": 28.4669429, "lng": 77.0205089}, "viewport": {"northeast": {"lat": 28.4682713302915, "lng": 77.02190443029151}, "southwest": {"lat": 28.46557336970849, "lng": 77.0192064697085}}}, "opening_hours": {"open_now": true}, "place_id": "ChIJu3a5ytIZDTkRYOHgmcAxRfw", "plus_code": {"global_code": "7JWVF28C+Q6", "compound_code": "F28C+Q6 Gurugram, Haryana, India"}, "vicinity": "4/9, Rattan Garden, New Colony, Mod, Gurugram", "photos": [{"photo_reference": "CmRZAAAAUsfQgo6LyPVeZOQgP7RIfU1P-D_zgRkOp45sqFHjgi_nShLrNuy9J06LfNTFBiaWRnSBDKFyEkNhcaCPJWfN544CxyDBzCqjQbW-BawRksuS7wq4PzYpy8oQTn7INXbcEhDwRoiUR7QDLFKfIAxk2oChGhT-_OLL_1_e3uB3lYFQ7IDSqq11bg", "width": 2448, "html_attributions": ["<a href=\"https://maps.google.com/maps/contrib/112563735779712478708\">Bhupinder kamboj</a>"], "height": 3264}], "scope": "GOOGLE", "business_status": "OPERATIONAL", "types": ["grocery_or_supermarket", "department_store", "food", "point_of_interest", "store", "establishment"], "icon": "https://maps.gstatic.com/mapfiles/place_api/icons/v1/png_71/shopping-71.png"}, {"rating": 4.3, "user_ratings_total": 15, "name": "GOYAL FAMILY STORE", "reference": "ChIJh_uwLSgYDTkRrHh_z9sMXFk", "geometry": {"location": {"lat": 28.457047, "lng": 77.01096}, "viewport": {"northeast": {"lat": 28.4583592802915, "lng": 77.0123080802915}, "southwest": {"lat": 28.4556613197085, "lng": 77.00961011970848}}}, "opening_hours": {"open_now": true}, "place_id": "ChIJh_uwLSgYDTkRrHh_z9sMXFk", "plus_code": {"global_code": "7JWVF246+R9", "compound_code": "F246+R9 Gurugram, Haryana, India"}, "vicinity": "Gurugram Road, Baldev Nagar, Basai Village, Gurugram", "photos": [{"photo_reference": "CmRaAAAA6B1OYYKpqPfASjY4EsdM6BFQRDwKjB-Jg9arLw0Kt3CArcoK9T97GoHx5kVaXXlEN2ZCKr-R4MXZ60tStQZ-c2uwZ7E1EjL_2LLnab9YHg_QOJ87iiDcSxoMRnLnXjBKEhCi26XuSsn4p584tOJpcd8jGhQGTpV93SlwX4HikWIg1-36E280TQ", "width": 3096, "html_attributions": ["<a href=\"https://maps.google.com/maps/contrib/115167427274042955756\">GOYAL FAMILY STORE</a>"], "height": 4128}], "scope": "GOOGLE", "business_status": "OPERATIONAL", "types": ["department_store", "point_of_interest", "store", "establishment"], "icon": "https://maps.gstatic.com/mapfiles/place_api/icons/v1/png_71/shopping-71.png"}, {"rating": 5, "user_ratings_total": 2, "name": "DHINGRA TRADERS", "reference": "ChIJd_jDM4MZDTkRXHbKGnQtA80", "geometry": {"location": {"lat": 28.453828, "lng": 77.016018}, "viewport": {"northeast": {"lat": 28.4550999802915, "lng": 77.01735133029149}, "southwest": {"lat": 28.4524020197085, "lng": 77.01465336970848}}}, "opening_hours": {"open_now": true}, "place_id": "ChIJd_jDM4MZDTkRXHbKGnQtA80", "plus_code": {"global_code": "7JWVF238+GC", "compound_code": "F238+GC Gurugram, Haryana, India"}, "vicinity": "429, 20, Shakti Nagar Road, Gurugram", "photos": [{"photo_reference": "CmRaAAAA2GeUOEwsfcOsSlgdZ3JVqFx9NBmWkXSzrlMpT_yXUPLadbO6t786MGMVzQPisR1Zcp4-DWQK1HL5bqLymjrgRe4uSqfB0z69aTLuE9MFkoZ4IgaaZScIgooJ8QLs7g6mEhC8PkVTm9kfVLoIQONfNhBhGhRBZJctIJjy6vOgmJexiMuyUB-ngQ", "width": 3024, "html_attributions": ["<a href=\"https://maps.google.com/maps/contrib/115980491107450196528\">SHIVAM DHINGRA</a>"], "height": 4032}], "scope": "GOOGLE", "business_status": "OPERATIONAL", "types": ["department_store", "point_of_interest", "store", "establishment"], "icon": "https://maps.gstatic.com/mapfiles/place_api/icons/v1/png_71/shopping-71.png"}, {"name": "Love Sethi", "reference": "ChIJxRY1gH8XDTkR_gCoqPknVy8", "geometry": {"location": {"lat": 28.465736, "lng": 77.007588}, "viewport": {"northeast": {"lat": 28.4671159802915, "lng": 77.0090206802915}, "southwest": {"lat": 28.4644180197085, "lng": 77.00632271970849}}}, "place_id": "ChIJxRY1gH8XDTkR_gCoqPknVy8", "plus_code": {"global_code": "7JWVF285+72", "compound_code": "F285+72 Gurugram, Haryana, India"}, "vicinity": "Extn Market, Acharya Puri, Sector 7, Gurugram", "scope": "GOOGLE", "business_status": "OPERATIONAL", "types": ["department_store", "point_of_interest", "store", "establishment"], "icon": "https://maps.gstatic.com/mapfiles/place_api/icons/v1/png_71/shopping-71.png"}, {"name": "BHARAT BAKERY", "reference": "ChIJwUuAWjAZDTkRj2pd63y7li8", "geometry": {"location": {"lat": 28.4584518, "lng": 77.0171369}, "viewport": {"northeast": {"lat": 28.4598324302915, "lng": 77.0184056302915}, "southwest": {"lat": 28.4571344697085, "lng": 77.01570766970849}}}, "place_id": "ChIJwUuAWjAZDTkRj2pd63y7li8", "plus_code": {"global_code": "7JWVF258+9V", "compound_code": "F258+9V Gurugram, Haryana, India"}, "vicinity": "201, 25, Madanpuri Road, Gurugram", "scope": "GOOGLE", "business_status": "OPERATIONAL", "types": ["department_store", "point_of_interest", "store", "establishment"], "icon": "https://maps.gstatic.com/mapfiles/place_api/icons/v1/png_71/shopping-71.png"}, {"rating": 4.3, "user_ratings_total": 3, "name": "Ashok Provision Store", "reference": "ChIJVVVVVVUWDTkRCNyGcFJAbIM", "geometry": {"location": {"lat": 28.4482931, "lng": 77.0157263}, "viewport": {"northeast": {"lat": 28.4496659802915, "lng": 77.0170427302915}, "southwest": {"lat": 28.4469680197085, "lng": 77.01434476970849}}}, "place_id": "ChIJVVVVVVUWDTkRCNyGcFJAbIM", "plus_code": {"global_code": "7JWVC2X8+87", "compound_code": "C2X8+87 Gurugram, Haryana, India"}, "vicinity": "India", "scope": "GOOGLE", "business_status": "OPERATIONAL", "types": ["department_store", "point_of_interest", "store", "establishment"], "icon": "https://maps.gstatic.com/mapfiles/place_api/icons/v1/png_71/shopping-71.png"}, {"rating": 5, "user_ratings_total": 4, "name": "Wonder value store", "reference": "ChIJ244Q-28ZDTkRiQG_LkVoz_M", "geometry": {"location": {"lat": 28.45691, "lng": 77.01890879999999}, "viewport": {"northeast": {"lat": 28.4582275302915, "lng": 77.0202594802915}, "southwest": {"lat": 28.45552956970849, "lng": 77.0175615197085}}}, "place_id": "ChIJ244Q-28ZDTkRiQG_LkVoz_M", "plus_code": {"global_code": "7JWVF249+QH", "compound_code": "F249+QH Model Town, Sector 11, Gurugram, Haryana, India"}, "vicinity": "38n, Model Town, Hisar", "photos": [{"photo_reference": "CmRaAAAAqJAIkPUUDEQSZys_AzVSZlLKR9hmhrTJ3sDct6fX6FPsJV7e0-rm69qHJ1ne3D9Qh9_IiIq8yi0x0I-tFefrbzCAJMei9aEMCXcMId_B0OO5ohamJhskjfjvxESr2NFaEhBYO8havRVxCTjA1-59BhqcGhTjHLGeCJFlw-gpTLsiAxGifqICxQ", "width": 3000, "html_attributions": ["<a href=\"https://maps.google.com/maps/contrib/102703527995531138039\">Dr. Navneet Aggarwal</a>"], "height": 4000}], "scope": "GOOGLE", "business_status": "OPERATIONAL", "types": ["department_store", "point_of_interest", "store", "establishment"], "icon": "https://maps.gstatic.com/mapfiles/place_api/icons/v1/png_71/shopping-71.png"}, {"rating": 5, "user_ratings_total": 1, "name": "Stop & Stop Departmental Store", "reference": "ChIJxdB-PSwYDTkRdh69dKT87Lo", "geometry": {"location": {"lat": 28.4616782, "lng": 77.0176034}, "viewport": {"northeast": {"lat": 28.4630257302915, "lng": 77.0189558802915}, "southwest": {"lat": 28.4603277697085, "lng": 77.0162579197085}}}, "opening_hours": {"open_now": true}, "place_id": "ChIJxdB-PSwYDTkRdh69dKT87Lo", "vicinity": "Shop no. 425, Main Jyoti Park Road, Gali no. 7, Gurugram", "scope": "GOOGLE", "business_status": "OPERATIONAL", "types": ["department_store", "point_of_interest", "store", "establishment"], "icon": "https://maps.gstatic.com/mapfiles/place_api/icons/v1/png_71/shopping-71.png"}, {"name": "Sapra Departmental Store", "reference": "ChIJvSlMb9UZDTkRZuK8G7Nrspc", "geometry": {"location": {"lat": 28.4677237, "lng": 77.0111628}, "viewport": {"northeast": {"lat": 28.4690677302915, "lng": 77.0125169802915}, "southwest": {"lat": 28.4663697697085, "lng": 77.00981901970849}}}, "opening_hours": {"open_now": true}, "place_id": "ChIJvSlMb9UZDTkRZuK8G7Nrspc", "plus_code": {"global_code": "7JWVF296+3F", "compound_code": "F296+3F Gurugram, Haryana, India"}, "vicinity": "h no, 678, Sector 9, Gurugram", "scope": "GOOGLE", "business_status": "OPERATIONAL", "types": ["department_store", "point_of_interest", "store", "establishment"], "icon": "https://maps.gstatic.com/mapfiles/place_api/icons/v1/png_71/shopping-71.png"}, {"rating": 4.3, "user_ratings_total": 6, "name": "Savera Daily Needs", "reference": "ChIJjd3VWysYDTkR-Q-6X1C2H-k", "geometry": {"location": {"lat": 28.4654381, "lng": 77.015778}, "viewport": {"northeast": {"lat": 28.4666882302915, "lng": 77.01708878029152}, "southwest": {"lat": 28.4639902697085, "lng": 77.01439081970851}}}, "place_id": "ChIJjd3VWysYDTkR-Q-6X1C2H-k", "plus_code": {"global_code": "7JWVF288+58", "compound_code": "F288+58 Gurugram, Haryana, India"}, "vicinity": "196A, New Colony Road, New Colony, Sector 7, Gurugram", "scope": "GOOGLE", "business_status": "OPERATIONAL", "types": ["department_store", "point_of_interest", "store", "establishment"], "icon": "https://maps.gstatic.com/mapfiles/place_api/icons/v1/png_71/shopping-71.png"}, {"name": "Vindi General Store", "reference": "ChIJ4bg82tQZDTkRhcOZuyzc99M", "geometry": {"location": {"lat": 28.4669751, "lng": 77.0136334}, "viewport": {"northeast": {"lat": 28.4683162802915, "lng": 77.01505228029151}, "southwest": {"lat": 28.4656183197085, "lng": 77.0123543197085}}}, "place_id": "ChIJ4bg82tQZDTkRhcOZuyzc99M", "plus_code": {"global_code": "7JWVF287+QF", "compound_code": "F287+QF Gurugram, Haryana, India"}, "vicinity": "New Colony, Sector 7, Gurugram", "scope": "GOOGLE", "business_status": "OPERATIONAL", "types": ["department_store", "point_of_interest", "store", "establishment"], "icon": "https://maps.gstatic.com/mapfiles/place_api/icons/v1/png_71/shopping-71.png"}, {"rating": 3.3, "user_ratings_total": 3, "name": "Yash General Store", "reference": "ChIJ7RrF5y8YDTkRtv0-mV7fHW8", "geometry": {"location": {"lat": 28.4567177, "lng": 77.0212469}, "viewport": {"northeast": {"lat": 28.4581304302915, "lng": 77.02258983029151}, "southwest": {"lat": 28.4554324697085, "lng": 77.0198918697085}}}, "opening_hours": {"open_now": true}, "place_id": "ChIJ7RrF5y8YDTkRtv0-mV7fHW8", "plus_code": {"global_code": "7JWVF24C+MF", "compound_code": "F24C+MF Gurugram, Haryana, India"}, "vicinity": "10, Basai Road, Model Town, Sector 11, Gurugram", "photos": [{"photo_reference": "CmRaAAAAfVaBB7DeqVAMNUz0TrP7UL6Mgr7IxPmNyR0QgW7eYYkfVSDht6JZj-QRwytVhyfzwmfFLWfEhnMA5IjYooSexqaPxNXQodPNJ3wUWbKdOnudaDVpLHO6FShoFpWP3wsMEhBWAsTnLIu5_clV-jdiYsXyGhQj3QycFsbY-REHOqqxwN6QDCSxKw", "width": 3120, "html_attributions": ["<a href=\"https://maps.google.com/maps/contrib/103469464134517144393\">Manik Roy</a>"], "height": 4208}], "scope": "GOOGLE", "business_status": "OPERATIONAL", "types": ["department_store", "point_of_interest", "store", "establishment"], "icon": "https://maps.gstatic.com/mapfiles/place_api/icons/v1/png_71/shopping-71.png"}, {"rating": 3.7, "user_ratings_total": 3, "name": "SUPER 99", "reference": "ChIJ4b2hjOAZDTkRRrGoT_GJtmo", "geometry": {"location": {"lat": 28.4400152, "lng": 77.0067664}, "viewport": {"northeast": {"lat": 28.44136018029151, "lng": 77.00811618029151}, "southwest": {"lat": 28.4386622197085, "lng": 77.0054182197085}}}, "opening_hours": {"open_now": true}, "place_id": "ChIJ4b2hjOAZDTkRRrGoT_GJtmo", "plus_code": {"global_code": "7JWVC2R4+2P", "compound_code": "C2R4+2P Gurugram, Haryana, India"}, "vicinity": "Shop No \u2013 75, Huda, market of sector 10A, Gurugram", "photos": [{"photo_reference": "CmRaAAAAINFfR6ZFqENaeBSQ9H504d_QG7yrvSLYC9f0el8ykNRthX6eWYKohy4GRreK4Sj9EYzT-Ht5Hrsh1_p9B8avGJiD8pT-PwVvCwbQbvky8bnRR5U4fFWk8W4HRQNbPxhdEhBdHUf7kbyLRXNWLeaMGMRJGhQ_D-KSaErjfWA5Jv3PtbdvN-wKyA", "width": 1080, "html_attributions": ["<a href=\"https://maps.google.com/maps/contrib/113156918407748237936\">Nikhil Sahdev</a>"], "height": 1920}], "scope": "GOOGLE", "business_status": "OPERATIONAL", "types": ["store", "department_store", "shopping_mall", "supermarket", "grocery_or_supermarket", "furniture_store", "home_goods_store", "food", "point_of_interest", "establishment"], "icon": "https://maps.gstatic.com/mapfiles/place_api/icons/v1/png_71/shopping-71.png"}, {"rating": 5, "user_ratings_total": 1, "name": "Subhiksha Trading Services", "reference": "ChIJPdMRFzIYDTkRc8a7Qd-FarA", "geometry": {"location": {"lat": 28.4622579, "lng": 77.02318749999999}, "viewport": {"northeast": {"lat": 28.4635812302915, "lng": 77.02458098029149}, "southwest": {"lat": 28.4608832697085, "lng": 77.02188301970848}}}, "place_id": "ChIJPdMRFzIYDTkRc8a7Qd-FarA", "plus_code": {"global_code": "7JWVF26F+W7", "compound_code": "F26F+W7 Gurugram, Haryana, India"}, "vicinity": "Pratap Nagar, Sector 8, Gurugram", "scope": "GOOGLE", "business_status": "OPERATIONAL", "types": ["department_store", "point_of_interest", "store", "establishment"], "icon": "https://maps.gstatic.com/mapfiles/place_api/icons/v1/png_71/shopping-71.png"}, {"rating": 4.1, "user_ratings_total": 9, "name": "Laxmi Store", "reference": "ChIJ____29IZDTkRUFZJWoCZZGw", "geometry": {"location": {"lat": 28.467782, "lng": 77.0193754}, "viewport": {"northeast": {"lat": 28.4691265302915, "lng": 77.02073568029151}, "southwest": {"lat": 28.46642856970849, "lng": 77.0180377197085}}}, "opening_hours": {"open_now": true}, "place_id": "ChIJ____29IZDTkRUFZJWoCZZGw", "plus_code": {"global_code": "7JWVF299+4Q", "compound_code": "F299+4Q Gurugram, Haryana, India"}, "vicinity": "510/9, Dayal Market, Shivpuri Extension, Shivpuri Extension, Gurugram", "scope": "GOOGLE", "business_status": "OPERATIONAL", "types": ["department_store", "point_of_interest", "store", "establishment"], "icon": "https://maps.gstatic.com/mapfiles/place_api/icons/v1/png_71/shopping-71.png"}, {"name": "Jindal Departmental Store", "reference": "ChIJwfmTTS0YDTkRk14tKKbeMgg", "geometry": {"location": {"lat": 28.4673403, "lng": 77.02080959999999}, "viewport": {"northeast": {"lat": 28.4687012802915, "lng": 77.0221916802915}, "southwest": {"lat": 28.4660033197085, "lng": 77.01949371970849}}}, "place_id": "ChIJwfmTTS0YDTkRk14tKKbeMgg", "plus_code": {"global_code": "7JWVF28C+W8", "compound_code": "F28C+W8 Gurugram, Haryana, India"}, "vicinity": "Shop No 11 Sactor 7 Market Neer Jai, Cinema, Old Railway Road, Old Railway Road, Gurugram", "scope": "GOOGLE", "business_status": "OPERATIONAL", "types": ["department_store", "point_of_interest", "store", "establishment"], "icon": "https://maps.gstatic.com/mapfiles/place_api/icons/v1/png_71/shopping-71.png"}]}