{"status": "OK", "html_attributions": [], "results": [{"rating": 5, "user_ratings_total": 8, "name": "Guleria General Store. Guleria Kirana Store. \u0917\u0941\u0932\u0947\u0930\u093f\u092f\u093e \u0915\u093f\u0930\u093e\u0928\u093e \u0938\u094d\u091f\u094b\u0930", "reference": "ChIJ-3a-GTAeDTkR4HyQ_s61bTo", "geometry": {"location": {"lat": 28.492655, "lng": 77.182417}, "viewport": {"northeast": {"lat": 28.4940008302915, "lng": 77.18376618029151}, "southwest": {"lat": 28.4913028697085, "lng": 77.18106821970851}}}, "opening_hours": {"open_now": true}, "place_id": "ChIJ-3a-GTAeDTkR4HyQ_s61bTo", "plus_code": {"global_code": "7JWVF5VJ+3X", "compound_code": "F5VJ+3X New Delhi, Delhi, India"}, "vicinity": "b-67, chhattarpur extention, new delhi. 110074, New Delhi", "photos": [{"photo_reference": "CmRaAAAAqdK3mnXlLFQUlQgaXFMqud36ZuxG4E_bApxRfScrZXR30ApL1JSSIllVPYjgB6jUc5ed_SHqyIzTEjKk7BDfSPdPAVuXNhb2y-WIh0DFh3qsEZm8fT2H8Dw5g09oPsEeEhAz_M_uNGXwYw2woLtZVM_cGhRLAn2ukWIEfAwfER8OU4Xwgqf8Hw", "width": 1280, "html_attributions": ["<a href=\"https://maps.google.com/maps/contrib/100509708993749801666\">Guleria General Store. Guleria Kirana Store. \u0917\u0941\u0932\u0947\u0930\u093f\u092f\u093e \u0915\u093f\u0930\u093e\u0928\u093e \u0938\u094d\u091f\u094b\u0930</a>"], "height": 960}], "scope": "GOOGLE", "business_status": "OPERATIONAL", "types": ["department_store", "point_of_interest", "store", "establishment"], "icon": "https://maps.gstatic.com/mapfiles/place_api/icons/v1/png_71/shopping-71.png"}, {"name": "Ankit General Store", "reference": "ChIJCcrNHV0fDTkRFY99tz7WUBM", "geometry": {"location": {"lat": 28.495836, "lng": 77.18052899999999}, "viewport": {"northeast": {"lat": 28.4971848302915, "lng": 77.18188803029149}, "southwest": {"lat": 28.4944868697085, "lng": 77.17919006970848}}}, "opening_hours": {"open_now": true}, "place_id": "ChIJCcrNHV0fDTkRFY99tz7WUBM", "plus_code": {"global_code": "7JWVF5WJ+86", "compound_code": "F5WJ+86 New Delhi, Delhi, India"}, "vicinity": "Near , Aatta Chakki, F-36, Chhatarpur Extension, Chhatarpur, New Delhi", "photos": [{"photo_reference": "CmRaAAAAil2sjGPqOafHW0PnqgMDPhzJu8GJg7RnyQ2FUiSKBQH6U-TkGB1MFvrCh3MWVcUT8IWABnPjcRQc_afM5jlJLnf2TjZkKezZLCVwwJ1jwuypz1E5vuFF5Jhtz6AlHbkaEhD1m4yFWVpHiJjKk-5ZkPg1GhS1jQi4se3LpCH2aOP8YVSDZScouA", "width": 640, "html_attributions": ["<a href=\"https://maps.google.com/maps/contrib/100927974732636306214\">Ankit General Store</a>"], "height": 359}], "scope": "GOOGLE", "business_status": "OPERATIONAL", "types": ["department_store", "point_of_interest", "store", "establishment"], "icon": "https://maps.gstatic.com/mapfiles/place_api/icons/v1/png_71/shopping-71.png"}, {"rating": 4.3, "user_ratings_total": 3, "name": "Sharma Store", "reference": "ChIJ6TFcISUeDTkRmHvtz7Y7Z5Q", "geometry": {"location": {"lat": 28.49653229999999, "lng": 77.18417939999999}, "viewport": {"northeast": {"lat": 28.4978539802915, "lng": 77.1855200302915}, "southwest": {"lat": 28.4951560197085, "lng": 77.1828220697085}}}, "opening_hours": {"open_now": true}, "place_id": "ChIJ6TFcISUeDTkRmHvtz7Y7Z5Q", "plus_code": {"global_code": "7JWVF5WM+JM", "compound_code": "F5WM+JM New Delhi, Delhi, India"}, "vicinity": "12, Chhatarpur Road, Chhatarpur Village, Block A1, Chhatarpur, New Delhi", "photos": [{"photo_reference": "CmRaAAAAFu9-w0O70TsOn2jTMrZ405QTLj_SBAASoWJSX40oMCjSUDkJp0r5wms6Hmbz585T3yN1_Vu7W5TY0Pgzw4TqDveahIyFfBx_GeNXPUEMTOoDnOh8YIt29Ye4GJ2P6GZWEhCVlY2e3ibJICCuIz3afligGhQ7V4IlrEMa8C124wd8qopGisZHPA", "width": 4032, "html_attributions": ["<a href=\"https://maps.google.com/maps/contrib/117628627572356719655\">akash singh</a>"], "height": 3024}], "scope": "GOOGLE", "business_status": "OPERATIONAL", "types": ["department_store", "point_of_interest", "store", "establishment"], "icon": "https://maps.gstatic.com/mapfiles/place_api/icons/v1/png_71/shopping-71.png"}, {"rating": 3.9, "user_ratings_total": 58, "name": "SEAHAWKS (FRANCHISE OF KB'S FAIRPRICE)", "reference": "ChIJz_I-kiYeDTkReKAt3zz5Ghg", "geometry": {"location": {"lat": 28.4984211, "lng": 77.1913306}, "viewport": {"northeast": {"lat": 28.4998330802915, "lng": 77.19267578029151}, "southwest": {"lat": 28.4971351197085, "lng": 77.1899778197085}}}, "opening_hours": {"open_now": true}, "place_id": "ChIJz_I-kiYeDTkReKAt3zz5Ghg", "plus_code": {"global_code": "7JWVF5XR+9G", "compound_code": "F5XR+9G New Delhi, Delhi, India"}, "vicinity": "B-107A, Maidan Garhi Road, Maidan Garhi, Extension, New Delhi", "photos": [{"photo_reference": "CmRaAAAAMd06iOxUPqAIwppmrLBtpRiqqXRk0Si784S8g-Yef52dtRMDoFecqF2cIJKCz7gBfnA9UNxyzIn_450avxCNFQ7tWtvD6QXmrc4D-BeLJkrBXUvdhptYH2xNSXix7cETEhBi83WTTm7t77MPAvWpWYXcGhR2vgAoRf8lkAW0I2M2bxQ7SZ5B-w", "width": 4160, "html_attributions": ["<a href=\"https://maps.google.com/maps/contrib/115612306456634151494\">Vandana Mishra</a>"], "height": 2340}], "scope": "GOOGLE", "business_status": "OPERATIONAL", "types": ["grocery_or_supermarket", "department_store", "food", "point_of_interest", "store", "establishment"], "icon": "https://maps.gstatic.com/mapfiles/place_api/icons/v1/png_71/shopping-71.png"}, {"rating": 4.5, "user_ratings_total": 21, "name": "patanjali Store Sai Agency\u2019s", "reference": "ChIJg_vgNCMeDTkR5wJ8AmDXlok", "geometry": {"location": {"lat": 28.5012611, "lng": 77.1831239}, "viewport": {"northeast": {"lat": 28.50261448029151, "lng": 77.1844801302915}, "southwest": {"lat": 28.4999165197085, "lng": 77.18178216970848}}}, "opening_hours": {"open_now": true}, "place_id": "ChIJg_vgNCMeDTkR5wJ8AmDXlok", "plus_code": {"global_code": "7JWVG52M+G6", "compound_code": "G52M+G6 New Delhi, Delhi, India"}, "vicinity": "Chhaterpur Temple Road, Dr Ambedkar Colony, Chhatarpur, New Delhi", "photos": [{"photo_reference": "CmRaAAAAkQLfrRZnVrSyiFm-PIr5M_OooB1Ruok6dNZyIYJEDxIne54aVeOIrnjYQbjlpZqTbHXH-_ys0Nr_-s95qY9LNqDP0jNVnSjfg8Z12srcrdjTEMEl9RSpaxBhNn4-D4_pEhD0BuZBqt1rvBFxsKKglG7zGhROrUX_AI0Yy68WyE3q9NHtC4ub9w", "width": 3024, "html_attributions": ["<a href=\"https://maps.google.com/maps/contrib/106967819100613358165\">patanjali Store Sai Agency\u2019s</a>"], "height": 4032}], "scope": "GOOGLE", "business_status": "OPERATIONAL", "types": ["department_store", "point_of_interest", "store", "establishment"], "icon": "https://maps.gstatic.com/mapfiles/place_api/icons/v1/png_71/shopping-71.png"}, {"name": "Stone Store", "reference": "ChIJAcS9b2wfDTkRzUoVWIMzP1g", "geometry": {"location": {"lat": 28.4811313, "lng": 77.16474769999999}, "viewport": {"northeast": {"lat": 28.4822363302915, "lng": 77.16631378029149}, "southwest": {"lat": 28.47953836970849, "lng": 77.16361581970848}}}, "place_id": "ChIJAcS9b2wfDTkRzUoVWIMzP1g", "plus_code": {"global_code": "7JWVF5J7+FV", "compound_code": "F5J7+FV New Delhi, Delhi, India"}, "vicinity": "Chhatarpur Farms, DLF Farms, New Delhi", "scope": "GOOGLE", "business_status": "OPERATIONAL", "types": ["department_store", "point_of_interest", "store", "establishment"], "icon": "https://maps.gstatic.com/mapfiles/place_api/icons/v1/png_71/shopping-71.png"}, {"rating": 5, "user_ratings_total": 2, "name": "Mini Mart", "reference": "ChIJxwWtvfcfDTkR427HCYhppOA", "geometry": {"location": {"lat": 28.4709176, "lng": 77.18067959999999}, "viewport": {"northeast": {"lat": 28.4722712302915, "lng": 77.18170918029149}, "southwest": {"lat": 28.4695732697085, "lng": 77.17901121970849}}}, "opening_hours": {"open_now": true}, "place_id": "ChIJxwWtvfcfDTkR427HCYhppOA", "plus_code": {"global_code": "7JWVF5CJ+97", "compound_code": "F5CJ+97 New Delhi, Delhi, India"}, "vicinity": "Shop No. 1, Aggarwal Residency, 2nd Avenue, Chandan Hola, New Delhi", "photos": [{"photo_reference": "CmRaAAAAx6fzzgQLwM1hDipZNYmPJ-wEjmXP_R0RZafVW_SXUOFvRZo88ZDgVlWizsY317I3zMr0bb_g2RxwyR90DA5242xpz1vqzDnYy5eHNgGu_JjJGKBRRQDQPeS42vMCHXi8EhBGGt09I65rFlVrIGOpp8VeGhR5rTVfDONQwOx4I7lQSQKFtlhT9Q", "width": 768, "html_attributions": ["<a href=\"https://maps.google.com/maps/contrib/113766999907890539291\">Mini Mart</a>"], "height": 1024}], "scope": "GOOGLE", "business_status": "OPERATIONAL", "types": ["department_store", "point_of_interest", "store", "establishment"], "icon": "https://maps.gstatic.com/mapfiles/place_api/icons/v1/png_71/shopping-71.png"}]}