{"status": "OK", "next_page_token": "ATtYBwLfaapnQL0elTohOehoYyjV3_TvKLjhdEsOxqyBWd1ytEDP_M7JRcUFAGEzLrHkyZgnNl0XdCU8AP6pNV7_iGHzOEJGP4-8dyYGwuVEijp09P7Aby3cqX1Tes_AFi-Jhp09ehtWvYM9wyTKMa3SCJA0p7kqRPD2JaVFZpRoBKI40NsuKQCt-hPODgcb34O5Qdg5ENyYNa9oVCzHxoxxxzEyyCkmk7IFZFK3kSZ1hdaAtxt4cvaWDBI06m03yodHdttMzMBQmFgbvVj2CYSOTRrZCNV0Nho9ch59CA5tkgn0fdJomekbUXH1d_MpfaGrIojb6oNzFuRkZakowytzFlB-mLBVOCQTWL_ozzkIXOoIX1SobhVLHVPIEfKbzMf-WdVNqaq56C5z_BW-g-J2MMRXDSoTnlq7iFindkVrIRmsEVNQ", "html_attributions": [], "results": [{"rating": 4.1, "user_ratings_total": 14, "name": "Dena Bank", "reference": "ChIJdy_nwoKZyzsRwP-6jvUZGdU", "geometry": {"location": {"lat": 17.4195331, "lng": 78.5186155}, "viewport": {"northeast": {"lat": 17.4208307302915, "lng": 78.51996078029151}, "southwest": {"lat": 17.4181327697085, "lng": 78.51726281970849}}}, "place_id": "ChIJdy_nwoKZyzsRwP-6jvUZGdU", "plus_code": {"global_code": "7J9WCG99+RC", "compound_code": "CG99+RC Secunderabad, Telangana, India"}, "vicinity": "12-10-636/1, Jamia Osmania, Warasiguda Road, Indira Nagar, Warasiguda, Secunderabad", "photos": [{"photo_reference": "ATtYBwI4x2x0j0fKCZJtpyX5qV9jm8ij1oYXmAa1R0LhyitK5temKOWFsmuo0kKSU4boGNgc-pkrcrf5eZqxe21A4vBman9SzpoCmn89cAmsmdz-IYqX6KkMNVspyVRuZxzxDghmvG63iNQ-gmsHHxztGoF5MUW-Uup8d-R7nrOcNu768y4", "width": 1920, "html_attributions": ["<a href=\"https://maps.google.com/maps/contrib/100291082348534981220\">Prakash Kachhawa</a>"], "height": 1080}], "scope": "GOOGLE", "business_status": "OPERATIONAL", "types": ["atm", "bank", "finance", "point_of_interest", "establishment"], "icon": "https://maps.gstatic.com/mapfiles/place_api/icons/v1/png_71/bank-71.png"}, {"rating": 2.5, "user_ratings_total": 14, "name": "Andhra Bank", "reference": "ChIJLVizvoiZyzsRCaYBh0_RrXs", "geometry": {"location": {"lat": 17.4250596, "lng": 78.507942}, "viewport": {"northeast": {"lat": 17.4263648302915, "lng": 78.5092291802915}, "southwest": {"lat": 17.42366686970849, "lng": 78.50653121970849}}}, "opening_hours": {"open_now": false}, "place_id": "ChIJLVizvoiZyzsRCaYBh0_RrXs", "plus_code": {"global_code": "7J9WCGG5+25", "compound_code": "CGG5+25 Secunderabad, Telangana, India"}, "vicinity": "Padma Apartments Mylargadda, Banjara apartment, Chilkalguda - Mylargadda Road, Swatantra Colony, Secunderabad", "photos": [{"photo_reference": "ATtYBwI88Vqlwtj1SFJrI4lmpIpfvhW1ObdcHemVLgWDDZVmbd7UEyb4j8SSPQXkt89G5EDPd9jZ67z0wzeyKK4XaQXlo0Efl0KkOSLxzwD9SIyK9m4A7pvvyVHjKGZso49AjoC_wW-ehfPMg5CWmvjZ83rNgu04LLblVerNB8HHiYPm5LZV", "width": 4160, "html_attributions": ["<a href=\"https://maps.google.com/maps/contrib/115749795117602407052\">B vinay kumar</a>"], "height": 2340}], "scope": "GOOGLE", "business_status": "OPERATIONAL", "types": ["atm", "bank", "finance", "point_of_interest", "establishment"], "icon": "https://maps.gstatic.com/mapfiles/place_api/icons/v1/png_71/bank-71.png"}, {"rating": 3.3, "user_ratings_total": 32, "name": "State Bank of India - Mylargadda Branch", "reference": "ChIJr3y0uYOZyzsRHxracOBYaWA", "geometry": {"location": {"lat": 17.4223397, "lng": 78.51693329999999}, "viewport": {"northeast": {"lat": 17.4236898802915, "lng": 78.51828163029151}, "southwest": {"lat": 17.4209919197085, "lng": 78.5155836697085}}}, "opening_hours": {"open_now": false}, "place_id": "ChIJr3y0uYOZyzsRHxracOBYaWA", "plus_code": {"global_code": "7J9WCGC8+WQ", "compound_code": "CGC8+WQ Hyderabad, Telangana, India"}, "vicinity": "12-10-416/A Rajgobind Apartments, Namalagundu Warasiguda, Secunderabad, Hyderabad", "photos": [{"photo_reference": "ATtYBwLDSGaWh-qJiv8zHrj-0zut58bIqx5ei1hGwEMQsAyZ3fGoxwqqHYZeETR04EeeTjeiOULGD5rygOvoXNjObnqDXnqf-AsgU-hGS0IjDIpJUKY2vdR35l_KIsJi3x5eC4-_plaIdPkL-_vCOanb6SmAKEQ6aVkwyLVe3BSGYOHdU9SN", "width": 666, "html_attributions": ["<a href=\"https://maps.google.com/maps/contrib/113643112480855700460\">P V S</a>"], "height": 888}], "scope": "GOOGLE", "business_status": "OPERATIONAL", "types": ["bank", "atm", "finance", "point_of_interest", "establishment"], "icon": "https://maps.gstatic.com/mapfiles/place_api/icons/v1/png_71/bank-71.png"}, {"rating": 2.7, "user_ratings_total": 3, "name": "Telangana State Cooperative Apex Bank", "reference": "ChIJizHTvoOZyzsRdYHmV7NMVug", "geometry": {"location": {"lat": 17.422292, "lng": 78.51676789999999}, "viewport": {"northeast": {"lat": 17.4236602802915, "lng": 78.51816703029151}, "southwest": {"lat": 17.42096231970849, "lng": 78.5154690697085}}}, "opening_hours": {"open_now": false}, "place_id": "ChIJizHTvoOZyzsRdYHmV7NMVug", "plus_code": {"global_code": "7J9WCGC8+WP", "compound_code": "CGC8+WP Secunderabad, Telangana, India"}, "vicinity": "1st floor Sridevi Nursing Home Road, Baban Basthi, Padmarao Nagar, Secunderabad", "photos": [{"photo_reference": "ATtYBwI0910qW0HaxUdyX6odE7ZwH2P6LdJm5giu3tTvH14VBX-8lSCNarhDjb33nNWl7AMwVlWD6xdY6I7RxNhfJdITI-Tshm4_78Zv-fHXvxysQLlwdFSbXOujPCcTjHf1lT3alpP_2yyOKNR1mvACs4C3A-W8NLOicm-9efT-j27qbiGA", "width": 5760, "html_attributions": ["<a href=\"https://maps.google.com/maps/contrib/109511906612887294068\">A.V.Narayana</a>"], "height": 4312}], "scope": "GOOGLE", "business_status": "OPERATIONAL", "types": ["bank", "finance", "point_of_interest", "establishment"], "icon": "https://maps.gstatic.com/mapfiles/place_api/icons/v1/png_71/bank-71.png"}, {"rating": 4.5, "user_ratings_total": 2, "name": "ICICI BANK ATM", "reference": "ChIJLYlMXsCSyzsR0V_F5-nKTY8", "geometry": {"location": {"lat": 17.41591799999999, "lng": 78.50989100000001}, "viewport": {"northeast": {"lat": 17.4171753802915, "lng": 78.51123013029151}, "southwest": {"lat": 17.41447741970849, "lng": 78.50853216970849}}}, "opening_hours": {"open_now": true}, "place_id": "ChIJLYlMXsCSyzsR0V_F5-nKTY8", "plus_code": {"global_code": "7J9WCG85+9X", "compound_code": "CG85+9X Hyderabad, Telangana, India"}, "vicinity": "Beside Sharada book Depot, Parsigutta, Hyderabad", "photos": [{"photo_reference": "ATtYBwLe9iamKDJSAN-s59gSVnePbQQb49tWjyDopbf6WvP3UfCFLYBhMoFSzz5hS8l7pnLvG9yhMrat0YLb1MO-2mhmiUT0rl2QST0UMPlZwSGfY7G_OflVI_mkyQVhHvwPPLZJPLr99OAo8JOb_F4H6sgItILP4mAYVZbWoZBtn0G8dndu", "width": 1024, "html_attributions": ["<a href=\"https://maps.google.com/maps/contrib/113081488103602417747\">ICICI BANK ATM</a>"], "height": 768}], "scope": "GOOGLE", "business_status": "OPERATIONAL", "types": ["atm", "bank", "finance", "point_of_interest", "establishment"], "icon": "https://maps.gstatic.com/mapfiles/place_api/icons/v1/png_71/atm-71.png"}, {"rating": 3.6, "user_ratings_total": 12, "name": "Telanagana Grameena Bank", "reference": "ChIJ2QWmGo-ZyzsRLj_lGtP1tco", "geometry": {"location": {"lat": 17.4214228, "lng": 78.5059186}, "viewport": {"northeast": {"lat": 17.4228231802915, "lng": 78.50727768029151}, "southwest": {"lat": 17.4201252197085, "lng": 78.5045797197085}}}, "opening_hours": {"open_now": false}, "place_id": "ChIJ2QWmGo-ZyzsRLj_lGtP1tco", "plus_code": {"global_code": "7J9WCGC4+H9", "compound_code": "CGC4+H9 Hyderabad, Telangana, India"}, "vicinity": "CRPF Road, Abhinav Colony, Walker Town, Padmarao Nagar, Hyderabad", "photos": [{"photo_reference": "ATtYBwJifMF_kb3iv6fEk3IiarqJ_rlJVfaxKafEFNCQu4d12LGTb0gX8EoDmtwCUAycOlmQ5ECMoH6J0YFpvXnHZocV2boXpqLNM50XEBU1nTR-mjrrElB2t-poOJGPVBBCxVFDMuoPOi3hcnOs2JpW3d7yEgTpxjk5n7wa7ttRp4zx8YQ6", "width": 1814, "html_attributions": ["<a href=\"https://maps.google.com/maps/contrib/109807564030599482141\">Naresh Avari</a>"], "height": 2006}], "scope": "GOOGLE", "business_status": "OPERATIONAL", "types": ["bank", "finance", "point_of_interest", "establishment"], "icon": "https://maps.gstatic.com/mapfiles/place_api/icons/v1/png_71/bank-71.png"}, {"rating": 4, "user_ratings_total": 1, "name": "Axis Bank ATM", "reference": "ChIJ6zTZUoWZyzsR5vjz-PI3qps", "geometry": {"location": {"lat": 17.4157123, "lng": 78.5101014}, "viewport": {"northeast": {"lat": 17.4170604302915, "lng": 78.51148338029151}, "southwest": {"lat": 17.4143624697085, "lng": 78.5087854197085}}}, "opening_hours": {"open_now": true}, "place_id": "ChIJ6zTZUoWZyzsR5vjz-PI3qps", "plus_code": {"global_code": "7J9WCG86+72", "compound_code": "CG86+72 Hyderabad, Telangana, India"}, "vicinity": "Shop No 1/6, 13/A/4, Parsigutta Main Road, Musheerabad, Padmarao Nagar, Hyderabad", "scope": "GOOGLE", "business_status": "OPERATIONAL", "types": ["atm", "bank", "finance", "point_of_interest", "establishment"], "icon": "https://maps.gstatic.com/mapfiles/place_api/icons/v1/png_71/atm-71.png"}, {"rating": 3.2, "user_ratings_total": 10, "name": "Indian Overseas Bank", "reference": "ChIJR_qVyYiZyzsR6KTI5MmDaJ0", "geometry": {"location": {"lat": 17.4238853, "lng": 78.507759}, "viewport": {"northeast": {"lat": 17.42524438029151, "lng": 78.5091630802915}, "southwest": {"lat": 17.4225464197085, "lng": 78.5064651197085}}}, "opening_hours": {"open_now": false}, "place_id": "ChIJR_qVyYiZyzsR6KTI5MmDaJ0", "plus_code": {"global_code": "7J9WCGF5+H4", "compound_code": "CGF5+H4 Secunderabad, Telangana, India"}, "vicinity": "6 -1 -119/E , SRI KANCHI KAMAKOTI SANKAR OPP. TO S.P. COLLEGE, Skandagiri, Padmarao Nagar, Secunderabad", "photos": [{"photo_reference": "ATtYBwLf6pISTMZ2Ca9DAVLdKcbtizxlmHvs2WCSEuW1NHzQP7EO4lWdMSyjicCHoZ3t7AR970ua7cli4_YinpxHHpux4pJjamQp43TnQbGM4BZwEG7yvi41eW3b18RsuZYB82ggjJHmyVGVR-AerK3FTqrb8RyhsvhEFoityR86qcG7KD48", "width": 4160, "html_attributions": ["<a href=\"https://maps.google.com/maps/contrib/115749795117602407052\">B vinay kumar</a>"], "height": 2340}], "scope": "GOOGLE", "business_status": "OPERATIONAL", "types": ["atm", "bank", "finance", "point_of_interest", "establishment"], "icon": "https://maps.gstatic.com/mapfiles/place_api/icons/v1/png_71/bank-71.png"}, {"rating": 3.3, "user_ratings_total": 3, "name": "Sbi Kiosk Bank Gantlakunta", "reference": "ChIJeQU6pZuZyzsRGDQY9yP2Wwk", "geometry": {"location": {"lat": 17.4143165, "lng": 78.5129524}, "viewport": {"northeast": {"lat": 17.4156951302915, "lng": 78.5142986302915}, "southwest": {"lat": 17.4129971697085, "lng": 78.5116006697085}}}, "opening_hours": {"open_now": false}, "place_id": "ChIJeQU6pZuZyzsRGDQY9yP2Wwk", "plus_code": {"global_code": "7J9WCG77+P5", "compound_code": "CG77+P5 Hyderabad, Telangana, India"}, "vicinity": "gantlakunta,kodakandla Republic of", "photos": [{"photo_reference": "ATtYBwLm7RhIf10k0mhnbNMHFqjEbjpv8alQjEdhNEYyKjJ4M8DJlCBU2NiQTE2_Mm_7qJkF4RnVjY6p-derS1Zcj7kkaKToQDXSc1t-lryiWR5I_zmhdDOWsNFrlUNstJqsgRBBHZ_pzd9kJQ-OugQCSWRaR81o-fJTQR57fo46ywCWgLKg", "width": 3264, "html_attributions": ["<a href=\"https://maps.google.com/maps/contrib/108610742034912404974\">srkt 96</a>"], "height": 2448}], "scope": "GOOGLE", "business_status": "OPERATIONAL", "types": ["bank", "finance", "point_of_interest", "establishment"], "icon": "https://maps.gstatic.com/mapfiles/place_api/icons/v1/png_71/bank-71.png"}, {"rating": 3.9, "user_ratings_total": 26, "name": "HDFC Bank", "reference": "ChIJO-Ru_IiZyzsRFFyAFzuIIrI", "geometry": {"location": {"lat": 17.4133023, "lng": 78.5111965}, "viewport": {"northeast": {"lat": 17.4146835802915, "lng": 78.5125062302915}, "southwest": {"lat": 17.4119856197085, "lng": 78.5098082697085}}}, "opening_hours": {"open_now": false}, "place_id": "ChIJO-Ru_IiZyzsRFFyAFzuIIrI", "plus_code": {"global_code": "7J9WCG76+8F", "compound_code": "CG76+8F Hyderabad, Telangana, India"}, "vicinity": "opposite MCH Park, No 6/1/284/A, Ground Floor, opposite MCH Park, Chaitanyapuri Main Road, Hyderabad", "photos": [{"photo_reference": "ATtYBwJL45OM9BtRy8tM0FJSFxfRCBVRakUXgQJjbXbfy4O8pIaJp2FkkCkRirdls8daB8GJfOuimwSIRClB0_8NmtI6-DGNoWwz8TBOH2eMQPWSa2_ktEylmZeyOhu-DBfFIKfb-9EQAwgfOZcPkc8yBO3iwf2ihTpQdH7rV7Y4DzTNcxaV", "width": 3264, "html_attributions": ["<a href=\"https://maps.google.com/maps/contrib/108134348366550270810\">Nihal Nalla</a>"], "height": 2448}], "scope": "GOOGLE", "business_status": "OPERATIONAL", "types": ["bank", "finance", "point_of_interest", "establishment"], "icon": "https://maps.gstatic.com/mapfiles/place_api/icons/v1/png_71/bank-71.png"}, {"name": "Axis Bank ATM", "reference": "ChIJVTYjepGZyzsRfgqxyFnwO2k", "geometry": {"location": {"lat": 17.414082, "lng": 78.504212}, "viewport": {"northeast": {"lat": 17.4153237802915, "lng": 78.5055431302915}, "southwest": {"lat": 17.4126258197085, "lng": 78.5028451697085}}}, "opening_hours": {"open_now": true}, "place_id": "ChIJVTYjepGZyzsRfgqxyFnwO2k", "plus_code": {"global_code": "7J9WCG73+JM", "compound_code": "CG73+JM Hyderabad, Telangana, India"}, "vicinity": "near Pioneer Management College, No 171045/1 Ram Nagar, near Pioneer Management College", "scope": "GOOGLE", "business_status": "OPERATIONAL", "types": ["atm", "bank", "finance", "point_of_interest", "establishment"], "icon": "https://maps.gstatic.com/mapfiles/place_api/icons/v1/png_71/atm-71.png"}, {"name": "Axis Bank ATM", "reference": "ChIJg6V2agevJzoRSnzNQnRa4qU", "geometry": {"location": {"lat": 17.4127557, "lng": 78.50562359999999}, "viewport": {"northeast": {"lat": 17.4141389802915, "lng": 78.50692578029151}, "southwest": {"lat": 17.4114410197085, "lng": 78.50422781970849}}}, "opening_hours": {"open_now": true}, "place_id": "ChIJg6V2agevJzoRSnzNQnRa4qU", "plus_code": {"global_code": "7J9WCG74+46", "compound_code": "CG74+46 Hyderabad, Telangana, India"}, "vicinity": "No 1/7/631A Ram Nagar Opposite St Pius High School, Hyderabad", "scope": "GOOGLE", "business_status": "OPERATIONAL", "types": ["atm", "bank", "finance", "point_of_interest", "establishment"], "icon": "https://maps.gstatic.com/mapfiles/place_api/icons/v1/png_71/atm-71.png"}, {"rating": 5, "user_ratings_total": 1, "name": "Axis Bank ATM", "reference": "ChIJQfVqzWGXyzsR4sbF4Ua_SkU", "geometry": {"location": {"lat": 17.4250356, "lng": 78.5018207}, "viewport": {"northeast": {"lat": 17.4263848302915, "lng": 78.5031481802915}, "southwest": {"lat": 17.4236868697085, "lng": 78.5004502197085}}}, "opening_hours": {"open_now": true}, "place_id": "ChIJQfVqzWGXyzsR4sbF4Ua_SkU", "plus_code": {"global_code": "7J9WCGG2+2P", "compound_code": "CGG2+2P Hyderabad, Telangana, India"}, "vicinity": "opposite New Gandhi Hospital, No 6410, opposite New Gandhi Hospital, Musheerabad, Hyderabad", "scope": "GOOGLE", "business_status": "OPERATIONAL", "types": ["atm", "bank", "finance", "point_of_interest", "establishment"], "icon": "https://maps.gstatic.com/mapfiles/place_api/icons/v1/png_71/atm-71.png"}, {"rating": 1, "user_ratings_total": 1, "name": "Axis Bank ATM", "reference": "ChIJzaHLoiqYyzsRAv1u0elZnsc", "geometry": {"location": {"lat": 17.4232429, "lng": 78.5183363}, "viewport": {"northeast": {"lat": 17.4246503802915, "lng": 78.51969323029151}, "southwest": {"lat": 17.4219524197085, "lng": 78.51699526970849}}}, "opening_hours": {"open_now": true}, "place_id": "ChIJzaHLoiqYyzsRAv1u0elZnsc", "plus_code": {"global_code": "7J9WCGF9+78", "compound_code": "CGF9+78 Hyderabad, Telangana, India"}, "vicinity": "No 1210590/126, Warasiguda, Hyderabad", "scope": "GOOGLE", "business_status": "OPERATIONAL", "types": ["atm", "bank", "finance", "point_of_interest", "establishment"], "icon": "https://maps.gstatic.com/mapfiles/place_api/icons/v1/png_71/atm-71.png"}, {"rating": 3.8, "user_ratings_total": 5, "name": "Central Bank Of India", "reference": "ChIJp1kl-oCZyzsR2hn7V2SGtHQ", "geometry": {"location": {"lat": 17.4295276, "lng": 78.51451759999999}, "viewport": {"northeast": {"lat": 17.4308734802915, "lng": 78.5158124302915}, "southwest": {"lat": 17.4281755197085, "lng": 78.51311446970848}}}, "opening_hours": {"open_now": false}, "place_id": "ChIJp1kl-oCZyzsR2hn7V2SGtHQ", "plus_code": {"global_code": "7J9WCGH7+RR", "compound_code": "CGH7+RR Secunderabad, Telangana, India"}, "vicinity": "near Gandhi Statue, 367/368 Ground Floor, chilkalguda, near Gandhi Statue, Secunderabad", "scope": "GOOGLE", "business_status": "OPERATIONAL", "types": ["bank", "atm", "finance", "point_of_interest", "establishment"], "icon": "https://maps.gstatic.com/mapfiles/place_api/icons/v1/png_71/bank-71.png"}, {"rating": 3, "user_ratings_total": 8, "name": "Andhra Bank", "reference": "ChIJ6_9ULpiZyzsRwthJ4MUhG8Q", "geometry": {"location": {"lat": 17.4104631, "lng": 78.5067691}, "viewport": {"northeast": {"lat": 17.4118358802915, "lng": 78.5080477302915}, "southwest": {"lat": 17.40913791970849, "lng": 78.50534976970849}}}, "opening_hours": {"open_now": true}, "place_id": "ChIJ6_9ULpiZyzsRwthJ4MUhG8Q", "plus_code": {"global_code": "7J9WCG64+5P", "compound_code": "CG64+5P Hyderabad, Telangana, India"}, "vicinity": "Musheerabad, Azamabad, Ram Nagar, Hyderabad", "scope": "GOOGLE", "business_status": "OPERATIONAL", "types": ["bank", "finance", "point_of_interest", "establishment"], "icon": "https://maps.gstatic.com/mapfiles/place_api/icons/v1/png_71/bank-71.png"}, {"rating": 3, "user_ratings_total": 10, "name": "Punjab National Bank ATM", "reference": "ChIJv1tNTOuZyzsR2CrcrjWDCh4", "geometry": {"location": {"lat": 17.417912, "lng": 78.4995872}, "viewport": {"northeast": {"lat": 17.4192703302915, "lng": 78.50090878029151}, "southwest": {"lat": 17.4165723697085, "lng": 78.4982108197085}}}, "opening_hours": {"open_now": true}, "place_id": "ChIJv1tNTOuZyzsR2CrcrjWDCh4", "plus_code": {"global_code": "7J9WCF9X+5R", "compound_code": "CF9X+5R Hyderabad, Telangana, India"}, "vicinity": "Musheerabad Main Road, Musheerabad, Jawahar Nagar, Hyderabad", "photos": [{"photo_reference": "ATtYBwLBwhlvUuBLBbHeL0D6GwzMERhZDVpzWp1MPsHuq7goRQlVfJyEoITw-bhtXDKAxh18KLP5OOmpaO5xC-JErTYfS3K9QJh_a5xAwtDHzg4hFrypXbTTHAyJj3Sxrrjt4XJd3u9j4sizQ4WuhF9oHTNQbBnvR4tmlmzquPRk7psC3okn", "width": 4272, "html_attributions": ["<a href=\"https://maps.google.com/maps/contrib/113790534047133947053\">prasad Botta</a>"], "height": 2848}], "scope": "GOOGLE", "business_status": "OPERATIONAL", "types": ["bank", "atm", "finance", "point_of_interest", "establishment"], "icon": "https://maps.gstatic.com/mapfiles/place_api/icons/v1/png_71/bank-71.png"}, {"rating": 3.9, "user_ratings_total": 24, "name": "Bank Of Baroda", "reference": "ChIJw0Enq4CZyzsRmSqwNoeUKeE", "geometry": {"location": {"lat": 17.429406, "lng": 78.5150839}, "viewport": {"northeast": {"lat": 17.4307534302915, "lng": 78.51623448029152}, "southwest": {"lat": 17.4280554697085, "lng": 78.5135365197085}}}, "opening_hours": {"open_now": false}, "place_id": "ChIJw0Enq4CZyzsRmSqwNoeUKeE", "plus_code": {"global_code": "7J9WCGH8+Q2", "compound_code": "CGH8+Q2 Secunderabad, Telangana, India"}, "vicinity": "Ganesh Temple Lane, Chilkalguda, Padmarao Nagar, Secunderabad", "photos": [{"photo_reference": "ATtYBwJS8I2DzjmUyvvB5zwJaF7ha5N4ww0WjLJXlDM6_xT4Vtw2HVt2AK1UrHax-i--Ib2hv1Azkgwlcu79o5-WU-I8k61hPTEFOjHWfDgMnqoDNofzZd-y6YBUyR5jsB_NsZxyHF64HXfm_IfO1u3uIn55upx7WXnMqj-nqeFTQA3l13bJ", "width": 512, "html_attributions": ["<a href=\"https://maps.google.com/maps/contrib/107553477216402119032\">Bank Of Baroda</a>"], "height": 288}], "scope": "GOOGLE", "business_status": "OPERATIONAL", "types": ["bank", "finance", "point_of_interest", "establishment"], "icon": "https://maps.gstatic.com/mapfiles/place_api/icons/v1/png_71/bank-71.png"}, {"rating": 4, "user_ratings_total": 1, "name": "Axis Bank ATM", "reference": "ChIJj79TAoGZyzsRlmCP17KHmcE", "geometry": {"location": {"lat": 17.426897, "lng": 78.5173952}, "viewport": {"northeast": {"lat": 17.4282672802915, "lng": 78.5186947802915}, "southwest": {"lat": 17.4255693197085, "lng": 78.51599681970849}}}, "opening_hours": {"open_now": true}, "place_id": "ChIJj79TAoGZyzsRlmCP17KHmcE", "plus_code": {"global_code": "7J9WCGG8+QX", "compound_code": "CGG8+QX Hyderabad, Telangana, India"}, "vicinity": "No 1, H No 1210395, Seethaphalmandi, Hyderabad", "scope": "GOOGLE", "business_status": "OPERATIONAL", "types": ["atm", "bank", "finance", "point_of_interest", "establishment"], "icon": "https://maps.gstatic.com/mapfiles/place_api/icons/v1/png_71/atm-71.png"}, {"rating": 5, "user_ratings_total": 1, "name": "Axis Bank ATM", "reference": "ChIJnYGjSAevJzoRhdkGTNbtYaM", "geometry": {"location": {"lat": 17.4096031, "lng": 78.5095681}, "viewport": {"northeast": {"lat": 17.4109363302915, "lng": 78.5109362802915}, "southwest": {"lat": 17.4082383697085, "lng": 78.50823831970848}}}, "opening_hours": {"open_now": true}, "place_id": "ChIJnYGjSAevJzoRhdkGTNbtYaM", "plus_code": {"global_code": "7J9WCG55+RR", "compound_code": "CG55+RR Hyderabad, Telangana, India"}, "vicinity": "House No 19, 61, Dilsukhnagar, Hyderabad", "scope": "GOOGLE", "business_status": "OPERATIONAL", "types": ["atm", "bank", "finance", "point_of_interest", "establishment"], "icon": "https://maps.gstatic.com/mapfiles/place_api/icons/v1/png_71/atm-71.png"}]}