{"status": "OK", "html_attributions": [], "results": [{"rating": 5, "user_ratings_total": 2, "name": "Humbel furniture", "reference": "ChIJQefU73XP5zsR7gGRrO4zrz8", "geometry": {"location": {"lat": 19.0210507, "lng": 72.8739811}, "viewport": {"northeast": {"lat": 19.0222625802915, "lng": 72.87529303029152}, "southwest": {"lat": 19.0195646197085, "lng": 72.8725950697085}}}, "opening_hours": {"open_now": true}, "place_id": "ChIJQefU73XP5zsR7gGRrO4zrz8", "plus_code": {"global_code": "7JFJ2VCF+CH", "compound_code": "2VCF+CH Mumbai, Maharashtra, India"}, "vicinity": "Shanti Nagar Road, Wadala East, Sangam Nagar, Mumbai", "photos": [{"photo_reference": "CmRaAAAAPn_iXFPqOomzi8WzMCKHF199mo-BvLx5rVkjB49xvai6GBzkpRapsbQmooJcYfpdI-I373c-1D5v1F_X5eJ8ffXc-b4keekNFASEUcTFYImo-i5ff2LxfF0xJe3xcWr3EhB8Q7Nh64vVVB9x6yp_UIrKGhSkurRWPTO-h5DhwIe34Q1Qy9kGuQ", "width": 3120, "html_attributions": ["<a href=\"https://maps.google.com/maps/contrib/104703895584771228114\">Humbel furniture</a>"], "height": 4160}], "scope": "GOOGLE", "business_status": "OPERATIONAL", "types": ["supermarket", "grocery_or_supermarket", "food", "point_of_interest", "store", "establishment"], "icon": "https://maps.gstatic.com/mapfiles/place_api/icons/v1/png_71/shopping-71.png"}, {"rating": 4.7, "user_ratings_total": 7, "name": "Juki machine shop", "reference": "ChIJ21pPjTfP5zsR5HoqiUzHPHI", "geometry": {"location": {"lat": 19.024413, "lng": 72.87340689999999}, "viewport": {"northeast": {"lat": 19.0257311302915, "lng": 72.8747673302915}, "southwest": {"lat": 19.0230331697085, "lng": 72.8720693697085}}}, "opening_hours": {"open_now": true}, "place_id": "ChIJ21pPjTfP5zsR5HoqiUzHPHI", "plus_code": {"global_code": "7JFJ2VFF+Q9", "compound_code": "2VFF+Q9 Mumbai, Maharashtra, India"}, "vicinity": "police station, Wadala - Chembur Road, Sangam Nagar, Antop Hill, Mumbai", "photos": [{"photo_reference": "CmRaAAAAxPr9zvcnCXjGxFbDuWtDAH92Z18qkr8CTK8iivXbzJVbd-2aNEKOAh9xqs1JK30vsF3o4kmk4AeGw2n21b4PLvDgSmqAxXb38XVAb-8YRePNoh8Pfn6bcfBACD8n8kOTEhA36aYkazwLcCB43YQ2RU95GhRlVxYU--rxEg9sWEagn_loQG92mg", "width": 600, "html_attributions": ["<a href=\"https://maps.google.com/maps/contrib/114734131928900024489\">Too Much Smart</a>"], "height": 411}], "scope": "GOOGLE", "business_status": "OPERATIONAL", "types": ["supermarket", "grocery_or_supermarket", "food", "point_of_interest", "store", "establishment"], "icon": "https://maps.gstatic.com/mapfiles/place_api/icons/v1/png_71/generic_business-71.png"}, {"name": "Champion The Multi Store", "reference": "ChIJnZST-2HP5zsRh-GfsGUBenk", "geometry": {"location": {"lat": 19.0282347, "lng": 72.8785587}, "viewport": {"northeast": {"lat": 19.0295726302915, "lng": 72.8799420302915}, "southwest": {"lat": 19.02687466970849, "lng": 72.8772440697085}}}, "place_id": "ChIJnZST-2HP5zsRh-GfsGUBenk", "plus_code": {"global_code": "7JFJ2VHH+7C", "compound_code": "2VHH+7C Mumbai, Maharashtra, India"}, "vicinity": "Shop No 1, Zeon, Ground Floor, Bhakti Park, Wadala, Mumbai", "photos": [{"photo_reference": "CmRaAAAAb9GtCDaUoz1ogDp3Q3Mu2MBqcVTYgVtWYisgUWpufmhASXlq_25cNnX7Io87dXumZ6pwfjdP-FRuhGvSgjbz7fhftHZbPRx3RoW8QR6KloTLIHkggXTeb5n3iotE7j0sEhCchhnzfBPSHc8psUJN557KGhRR2h5MqiJCocPlzNpd7Oc1KhG9Eg", "width": 1280, "html_attributions": ["<a href=\"https://maps.google.com/maps/contrib/112869813692301837343\">Kanji Bambhaniya</a>"], "height": 958}], "scope": "GOOGLE", "business_status": "OPERATIONAL", "types": ["supermarket", "grocery_or_supermarket", "food", "point_of_interest", "store", "establishment"], "icon": "https://maps.gstatic.com/mapfiles/place_api/icons/v1/png_71/shopping-71.png"}, {"rating": 3, "user_ratings_total": 2, "name": "YADAV Kirana Shop", "reference": "ChIJq6qqvj7P5zsRbnBCLHA0tE4", "geometry": {"location": {"lat": 19.0200864, "lng": 72.8703788}, "viewport": {"northeast": {"lat": 19.0216227302915, "lng": 72.8712411802915}, "southwest": {"lat": 19.0189247697085, "lng": 72.8685432197085}}}, "place_id": "ChIJq6qqvj7P5zsRbnBCLHA0tE4", "plus_code": {"global_code": "7JFJ2VCC+25", "compound_code": "2VCC+25 Mumbai, Maharashtra, India"}, "vicinity": "Wadala East, Deen Bandhu Nagar, Mumbai", "photos": [{"photo_reference": "CmRaAAAAD9-h0ODUiyTwUZ8yonjsviubapSyxC2WYzIZ74OGYx3-ndS8TYSBBIPET53CGSr0yHTTWpwIHqvKmR8F8QICsowuJFolOquIBmOdIIOtvqOcBkI6oIkOs3-oRqxrSiFHEhAxeXqAubXaOOLhAANKasdeGhTdibkUUHdXa7IIeLKzEMZ9vsbTMg", "width": 960, "html_attributions": ["<a href=\"https://maps.google.com/maps/contrib/101715158799240746813\">Vishal Yadav</a>"], "height": 1280}], "scope": "GOOGLE", "business_status": "OPERATIONAL", "types": ["supermarket", "grocery_or_supermarket", "food", "point_of_interest", "store", "establishment"], "icon": "https://maps.gstatic.com/mapfiles/place_api/icons/v1/png_71/shopping-71.png"}, {"rating": 4.3, "user_ratings_total": 4, "name": "Shivpoojan Store \u0936\u093f\u0935\u092a\u0942\u091c\u0928", "reference": "ChIJOdhaQDnP5zsRvif3vChnHwE", "geometry": {"location": {"lat": 19.0224859, "lng": 72.8706206}, "viewport": {"northeast": {"lat": 19.0238476802915, "lng": 72.8719248802915}, "southwest": {"lat": 19.0211497197085, "lng": 72.8692269197085}}}, "opening_hours": {"open_now": true}, "place_id": "ChIJOdhaQDnP5zsRvif3vChnHwE", "plus_code": {"global_code": "7JFJ2VCC+X6", "compound_code": "2VCC+X6 Mumbai, Maharashtra, India"}, "vicinity": "3086, Salt Pan Road, Wadala East, Sangam Nagar, Mumbai", "scope": "GOOGLE", "business_status": "OPERATIONAL", "types": ["supermarket", "grocery_or_supermarket", "food", "point_of_interest", "store", "establishment"], "icon": "https://maps.gstatic.com/mapfiles/place_api/icons/v1/png_71/shopping-71.png"}, {"name": "Kashyap Paan Bhandaar", "reference": "ChIJvZn8pD7P5zsRQTQw0EMCF5o", "geometry": {"location": {"lat": 19.0201809, "lng": 72.8698746}, "viewport": {"northeast": {"lat": 19.0216699802915, "lng": 72.87098908029151}, "southwest": {"lat": 19.0189720197085, "lng": 72.8682911197085}}}, "place_id": "ChIJvZn8pD7P5zsRQTQw0EMCF5o", "plus_code": {"global_code": "7JFJ2VC9+3W", "compound_code": "2VC9+3W Mumbai, Maharashtra, India"}, "vicinity": "A/WING, Vidyalankar College Road, Lloyds Estate, Kalaram Nagar, Dosti Acres, Antop Hill, Mumbai", "scope": "GOOGLE", "business_status": "OPERATIONAL", "types": ["supermarket", "grocery_or_supermarket", "food", "point_of_interest", "store", "establishment"], "icon": "https://maps.gstatic.com/mapfiles/place_api/icons/v1/png_71/shopping-71.png"}, {"name": "Praful General Store", "reference": "ChIJZ7Hzx8vP5zsRi-wT6fQtS5E", "geometry": {"location": {"lat": 19.0204646, "lng": 72.86944249999999}, "viewport": {"northeast": {"lat": 19.0218138802915, "lng": 72.8707900802915}, "southwest": {"lat": 19.0191159197085, "lng": 72.86809211970849}}}, "place_id": "ChIJZ7Hzx8vP5zsRi-wT6fQtS5E", "plus_code": {"global_code": "7JFJ2VC9+5Q", "compound_code": "2VC9+5Q Mumbai, Maharashtra, India"}, "vicinity": "Unnamed Road, Kalaram Nagar, Antop Hill Warehousing Complex, Antop Hill, Mumbai", "photos": [{"photo_reference": "CmRaAAAASkcmGQiVjSNioik1Aqfew_fDx4mP_RwghOceZ8bJgUDeALz90NNZVK6UD8ZNjCwxJfHd8L8cE3_e1GQj0FuCu81MguCgTUfB4YvNPhkBBt2CgZH8VH8-BMaA5h0Yy7ShEhCIdlO5_uAQk3N1QomqeyJsGhR-FTcsxvn1aD2Oye6oqpx-GDcBlA", "width": 2000, "html_attributions": ["<a href=\"https://maps.google.com/maps/contrib/101295720436935283250\">Praful Sorap</a>"], "height": 4000}], "scope": "GOOGLE", "business_status": "OPERATIONAL", "types": ["supermarket", "grocery_or_supermarket", "food", "point_of_interest", "store", "establishment"], "icon": "https://maps.gstatic.com/mapfiles/place_api/icons/v1/png_71/shopping-71.png"}, {"rating": 5, "user_ratings_total": 2, "name": "Khan traders & kirana stores", "reference": "ChIJm6Hut0bP5zsRv7YYfLO8dwg", "geometry": {"location": {"lat": 19.0285412, "lng": 72.87346219999999}, "viewport": {"northeast": {"lat": 19.0297096302915, "lng": 72.87468793029151}, "southwest": {"lat": 19.0270116697085, "lng": 72.87198996970851}}}, "place_id": "ChIJm6Hut0bP5zsRv7YYfLO8dwg", "plus_code": {"global_code": "7JFJ2VHF+C9", "compound_code": "2VHF+C9 Mumbai, Maharashtra, India"}, "vicinity": "911, Salt Pan Road, Bharatiya Kamala Nagar, Antop Hill, Mumbai", "photos": [{"photo_reference": "CmRaAAAAYRI6El0QquzifkGzdYaywsbJIKeyjkSubLX97zkK4gTO0JMpJW02r89ONUWX-QGt8A9IjwZmUUA0vREjg3wp8azY_1GZqNRBO6w3KbKUarDStwDCTMlqFLjo-QlqKB6iEhCBHdPIp2UEWrrIYmtYbW-aGhRq-FFyUGFST8dBi6DGCJE-kfqYRQ", "width": 4608, "html_attributions": ["<a href=\"https://maps.google.com/maps/contrib/104313671613602957682\">Alam khan</a>"], "height": 2240}], "scope": "GOOGLE", "business_status": "OPERATIONAL", "types": ["supermarket", "grocery_or_supermarket", "food", "point_of_interest", "store", "establishment"], "icon": "https://maps.gstatic.com/mapfiles/place_api/icons/v1/png_71/shopping-71.png"}, {"name": "Jay ladav dada study centre", "reference": "ChIJI1-AD8zP5zsR7qtFFq4MiwI", "geometry": {"location": {"lat": 19.0181221, "lng": 72.868809}, "viewport": {"northeast": {"lat": 19.0194758802915, "lng": 72.8701405802915}, "southwest": {"lat": 19.0167779197085, "lng": 72.8674426197085}}}, "place_id": "ChIJI1-AD8zP5zsR7qtFFq4MiwI", "plus_code": {"global_code": "7JFJ2V99+6G", "compound_code": "2V99+6G Mumbai, Maharashtra, India"}, "vicinity": "Ganesh nayer, Wadala East, Mumbai", "photos": [{"photo_reference": "CmRaAAAAGKs5jgkTZISYyONfvlFF0KE5abhckF0wROsyOQmRztM61hqZUzkYlko1ho5myyxdcJsRYIWngwdkxn-bzS18YULnqCV4lYwc1_hXKSLhYqih8kHibTrecPIxRYPE99YiEhBkyypNuooDKZEwxZSawbyyGhQqd7fsTBtHMRg4C9l-LINzGdCVyw", "width": 720, "html_attributions": ["<a href=\"https://maps.google.com/maps/contrib/111619874188499055965\">Manish Bhai</a>"], "height": 1280}], "scope": "GOOGLE", "business_status": "OPERATIONAL", "types": ["supermarket", "grocery_or_supermarket", "food", "point_of_interest", "store", "establishment"], "icon": "https://maps.gstatic.com/mapfiles/place_api/icons/v1/png_71/shopping-71.png"}, {"rating": 4, "user_ratings_total": 7, "name": "Foodkart", "reference": "ChIJ03wDKEnP5zsRLw6PAFU0Hss", "geometry": {"location": {"lat": 19.030735, "lng": 72.880388}, "viewport": {"northeast": {"lat": 19.0320983802915, "lng": 72.8816919802915}, "southwest": {"lat": 19.02940041970849, "lng": 72.8789940197085}}}, "opening_hours": {"open_now": true}, "place_id": "ChIJ03wDKEnP5zsRLw6PAFU0Hss", "plus_code": {"global_code": "7JFJ2VJJ+75", "compound_code": "2VJJ+75 Mumbai, Maharashtra, India"}, "vicinity": "Shop no 9, Saffire Building, complex, Wadala East, Bhakti Park, Chembur, Mumbai", "photos": [{"photo_reference": "CmRaAAAAA2AOWqih0KZL4iECFP39W5GZiT6jMcUJOAN7Uu5BjrzIh7RvlrD4xKW_m9pNYtcZ3lL5hSU-Sd3C331forDC7PsdI2usOSZ56Ft1fgqPXYAkoyeAgOcBvMHwJdHYwVD1EhBYrhO2W5vTKQqjdcYZtHtVGhR6YApoH6PCKGJypxPvJusN10PSyw", "width": 4096, "html_attributions": ["<a href=\"https://maps.google.com/maps/contrib/101326502647283084272\">nitin patel</a>"], "height": 2304}], "scope": "GOOGLE", "business_status": "OPERATIONAL", "types": ["supermarket", "grocery_or_supermarket", "food", "point_of_interest", "store", "establishment"], "icon": "https://maps.gstatic.com/mapfiles/place_api/icons/v1/png_71/shopping-71.png"}, {"rating": 5, "user_ratings_total": 1, "name": "Mayuresh Enterprise", "reference": "ChIJPyq1DJTP5zsRkoOzNGFHYEQ", "geometry": {"location": {"lat": 19.0178594, "lng": 72.86824760000002}, "viewport": {"northeast": {"lat": 19.0192651302915, "lng": 72.8696104302915}, "southwest": {"lat": 19.0165671697085, "lng": 72.86691246970848}}}, "place_id": "ChIJPyq1DJTP5zsRkoOzNGFHYEQ", "plus_code": {"global_code": "7JFJ2V99+47", "compound_code": "2V99+47 Mumbai, Maharashtra, India"}, "vicinity": "Ganesh Nagar, R J Gaikwad Wadala East, Mumbai", "photos": [{"photo_reference": "CmRaAAAAaXlpLC8Zw4U6GuTQcDBSaU-2oRdr7e32eGXWnrJWbVrnQg-5GNMP3OxQ_0IMNJDIcI0zFX3ZJlGhDyCHCFdkMKDW2XbJ9FMJ8Oa2vlwp-ihZpIzztsoIfwH9jmYuon7oEhCDOwVkMFj7Ugm7vL4yl4L5GhQV-MVc0w3FVt8shXaEDaK51E8y9Q", "width": 1920, "html_attributions": ["<a href=\"https://maps.google.com/maps/contrib/104886412015602858960\">AbhiShek KeShri</a>"], "height": 1080}], "scope": "GOOGLE", "business_status": "OPERATIONAL", "types": ["supermarket", "grocery_or_supermarket", "food", "point_of_interest", "store", "establishment"], "icon": "https://maps.gstatic.com/mapfiles/place_api/icons/v1/png_71/shopping-71.png"}]}