{"status": "OK", "html_attributions": [], "results": [{"rating": 3, "user_ratings_total": 1, "name": "amarvagroup", "reference": "ChIJXSe754_O5zsRuyTbV-KUDYo", "geometry": {"location": {"lat": 18.9983336, "lng": 72.81769340000001}, "viewport": {"northeast": {"lat": 18.9996544802915, "lng": 72.81898728029151}, "southwest": {"lat": 18.9969565197085, "lng": 72.8162893197085}}}, "opening_hours": {"open_now": true}, "place_id": "ChIJXSe754_O5zsRuyTbV-KUDYo", "plus_code": {"global_code": "7JCJXRX9+83", "compound_code": "XRX9+83 Mumbai, Maharashtra, India"}, "vicinity": "7a,701,shanti niketan CHS,, Gandhinagar, Dr.E.Moses road,worli,, Mumbai", "scope": "GOOGLE", "business_status": "OPERATIONAL", "types": ["supermarket", "grocery_or_supermarket", "food", "point_of_interest", "store", "establishment"], "icon": "https://maps.gstatic.com/mapfiles/place_api/icons/v1/png_71/shopping-71.png"}, {"rating": 4.1, "user_ratings_total": 314, "name": "Sahakari Bhandar", "reference": "ChIJzZdLULvO5zsRmQezzjPW1oY", "geometry": {"location": {"lat": 18.9938655, "lng": 72.8139771}, "viewport": {"northeast": {"lat": 18.9952578802915, "lng": 72.8152942302915}, "southwest": {"lat": 18.9925599197085, "lng": 72.8125962697085}}}, "opening_hours": {"open_now": true}, "place_id": "ChIJzZdLULvO5zsRmQezzjPW1oY", "plus_code": {"global_code": "7JCJXRV7+GH", "compound_code": "XRV7+GH Mumbai, Maharashtra, India"}, "vicinity": "Sea Face Cons. Co-op Society Ltd., Khan Abdul, Gafarkhan Road, Worli BMC Colony, Narayan Pujari Nagar, Worli, Mumbai", "photos": [{"photo_reference": "CmRaAAAA1R6QiBd7l6dR6kO3Zhj4uhAK4QQA2TO-8FtNgMG5_LF_vzsfs-Y2m0fAIcRNEzSoYVuMMmH0GAOGPdUPCoRiu8LzO174YsQh947GWYnChGYZyTq3EbDGLtFIr4RfBMGlEhAyQkr4lRjUwAme312Nq4vyGhTHuzSZ2z5Htd24ASUqw8_bIVjS2Q", "width": 4640, "html_attributions": ["<a href=\"https://maps.google.com/maps/contrib/101035360546848221980\">Dr Dhawal Wadaskar</a>"], "height": 3480}], "scope": "GOOGLE", "business_status": "OPERATIONAL", "types": ["supermarket", "grocery_or_supermarket", "food", "point_of_interest", "store", "establishment"], "icon": "https://maps.gstatic.com/mapfiles/place_api/icons/v1/png_71/shopping-71.png"}, {"name": "Tirumala Super Bazar", "reference": "ChIJByp7CZHO5zsRbmP-nZRAzYI", "geometry": {"location": {"lat": 19.0022219, "lng": 72.82011179999999}, "viewport": {"northeast": {"lat": 19.0034840802915, "lng": 72.8216334302915}, "southwest": {"lat": 19.00078611970849, "lng": 72.81893546970849}}}, "place_id": "ChIJByp7CZHO5zsRbmP-nZRAzYI", "plus_code": {"global_code": "7JFJ2R2C+V2", "compound_code": "2R2C+V2 Mumbai, Maharashtra, India"}, "vicinity": "Bhagoji Waghmare Marg, Ambedkar Nagar Colony, BDD Chawls Worli, Worli, Mumbai", "scope": "GOOGLE", "business_status": "OPERATIONAL", "types": ["supermarket", "grocery_or_supermarket", "food", "point_of_interest", "store", "establishment"], "icon": "https://maps.gstatic.com/mapfiles/place_api/icons/v1/png_71/shopping-71.png"}, {"name": "sudhanshu kesarwani stores", "reference": "ChIJQ9S_8szP5zsRb1-dNQpHZYc", "geometry": {"location": {"lat": 19.0025994, "lng": 72.81953589999999}, "viewport": {"northeast": {"lat": 19.0039333802915, "lng": 72.8209141802915}, "southwest": {"lat": 19.00123541970849, "lng": 72.81821621970849}}}, "place_id": "ChIJQ9S_8szP5zsRb1-dNQpHZYc", "plus_code": {"global_code": "7JFJ2R39+2R", "compound_code": "2R39+2R Mumbai, Maharashtra, India"}, "vicinity": "no 14, siddhi vinayak dr, G M Bhosle Marg, Worli Naka, BDD Chawls Worli, Worli, Mumbai", "scope": "GOOGLE", "business_status": "OPERATIONAL", "types": ["supermarket", "grocery_or_supermarket", "food", "point_of_interest", "store", "establishment"], "icon": "https://maps.gstatic.com/mapfiles/place_api/icons/v1/png_71/shopping-71.png"}, {"rating": 3.8, "user_ratings_total": 22, "name": "Om The Super Shopee", "reference": "ChIJ8QEmZ5rO5zsRyi3T2glKdc4", "geometry": {"location": {"lat": 19.0016428, "lng": 72.8145902}, "viewport": {"northeast": {"lat": 19.0030831302915, "lng": 72.81602363029151}, "southwest": {"lat": 19.0003851697085, "lng": 72.8133256697085}}}, "opening_hours": {"open_now": true}, "place_id": "ChIJ8QEmZ5rO5zsRyi3T2glKdc4", "plus_code": {"global_code": "7JFJ2R27+MR", "compound_code": "2R27+MR Mumbai, Maharashtra, India"}, "vicinity": "Anand Ashram Building, 107/6, Doctor RG Thadani Marg, Worli Sea Face, Mumbai", "scope": "GOOGLE", "business_status": "OPERATIONAL", "types": ["supermarket", "grocery_or_supermarket", "food", "point_of_interest", "store", "establishment"], "icon": "https://maps.gstatic.com/mapfiles/place_api/icons/v1/png_71/shopping-71.png"}, {"rating": 4.8, "user_ratings_total": 4, "name": "Natural food basket", "reference": "ChIJ7aEEJ4vP5zsRpVFb96MmACw", "geometry": {"location": {"lat": 19.0022703, "lng": 72.8140707}, "viewport": {"northeast": {"lat": 19.0036588302915, "lng": 72.81546603029152}, "southwest": {"lat": 19.0009608697085, "lng": 72.8127680697085}}}, "opening_hours": {"open_now": true}, "place_id": "ChIJ7aEEJ4vP5zsRpVFb96MmACw", "plus_code": {"global_code": "7JFJ2R27+WJ", "compound_code": "2R27+WJ Mumbai, Maharashtra, India"}, "vicinity": "B Wing, BDD Chawls Worli, Worli, Mumbai", "photos": [{"photo_reference": "CmRaAAAA5AWJqvnnoHPp2qV2OXXXXfcdifOjvVF4lqqYC03NFLfeqa1ABlAJjrilm_9QIjHzVke4SzW3tW_iIKBuvZkLS9KdPLkc_klciDY-nvtoBUZ7LEWo7kyuAffKQSt8Ci7CEhC7tV3dg7ttpambcIA_53KOGhQdUHDI7tuXd0CqTD_hT_NfK1tu1A", "width": 1080, "html_attributions": ["<a href=\"https://maps.google.com/maps/contrib/114366728875705762038\">Vinod Gothi</a>"], "height": 1920}], "scope": "GOOGLE", "business_status": "OPERATIONAL", "types": ["supermarket", "grocery_or_supermarket", "food", "point_of_interest", "store", "establishment"], "icon": "https://maps.gstatic.com/mapfiles/place_api/icons/v1/png_71/shopping-71.png"}, {"name": "Century Mill Ration Shop", "reference": "ChIJYZgxRmPP5zsRV1lb7kihEiI", "geometry": {"location": {"lat": 19.0062596, "lng": 72.8222467}, "viewport": {"northeast": {"lat": 19.0075770302915, "lng": 72.8235968302915}, "southwest": {"lat": 19.0048790697085, "lng": 72.82089886970849}}}, "opening_hours": {"open_now": true}, "place_id": "ChIJYZgxRmPP5zsRV1lb7kihEiI", "plus_code": {"global_code": "7JFJ2R4C+GV", "compound_code": "2R4C+GV Mumbai, Maharashtra, India"}, "vicinity": "20-A-38, Pandurang Budhkar Marg, Century Colony, Worli, Mumbai", "photos": [{"photo_reference": "CmRaAAAAkAHtjJ9OJm_zkTG9kt1_vT9Z35RUelmCLCzobK59NX3kRKmzv7NXl9MZjMZNPV9zzFCMzNULnaQXjAR2WZwSOCuZw7WFFFbNkdiVA2r2XJt3Nqu8lHzZMs0VFP7FhjjkEhCndhbK4Ry2Ca6WIvnYis4pGhSAIN7TZLWHv47xSiBCJ3dMGMVKjQ", "width": 1080, "html_attributions": ["<a href=\"https://maps.google.com/maps/contrib/108824493335125183539\">Vaibhav Mahadik</a>"], "height": 1920}], "scope": "GOOGLE", "business_status": "OPERATIONAL", "types": ["supermarket", "grocery_or_supermarket", "food", "point_of_interest", "store", "establishment"], "icon": "https://maps.gstatic.com/mapfiles/place_api/icons/v1/png_71/shopping-71.png"}, {"rating": 5, "user_ratings_total": 2, "name": "Tilak Nagar Ration Shop", "reference": "ChIJQ7gXT5TO5zsRwri91cpDrt0", "geometry": {"location": {"lat": 19.0075391, "lng": 72.82395129999999}, "viewport": {"northeast": {"lat": 19.0088761302915, "lng": 72.8254130302915}, "southwest": {"lat": 19.0061781697085, "lng": 72.8227150697085}}}, "opening_hours": {"open_now": true}, "place_id": "ChIJQ7gXT5TO5zsRwri91cpDrt0", "plus_code": {"global_code": "7JFJ2R5F+2H", "compound_code": "2R5F+2H Mumbai, Maharashtra, India"}, "vicinity": "Century Mills, Lower Parel, Mumbai", "scope": "GOOGLE", "business_status": "OPERATIONAL", "types": ["supermarket", "grocery_or_supermarket", "food", "point_of_interest", "store", "establishment"], "icon": "https://maps.gstatic.com/mapfiles/place_api/icons/v1/png_71/shopping-71.png"}, {"name": "Sai Siddi Cold Drink", "reference": "ChIJPRo02PLO5zsRzVBqYytkA4U", "geometry": {"location": {"lat": 18.9972534, "lng": 72.82872689999999}, "viewport": {"northeast": {"lat": 18.9982553802915, "lng": 72.83021368029151}, "southwest": {"lat": 18.9955574197085, "lng": 72.82751571970849}}}, "place_id": "ChIJPRo02PLO5zsRzVBqYytkA4U", "plus_code": {"global_code": "7JCJXRWH+WF", "compound_code": "XRWH+WF Mumbai, Maharashtra, India"}, "vicinity": "Municipal Stall No. 14,15 Opp. Peninsula Business Park, G.K.Marg, Lower Parel West, Mumbai", "scope": "GOOGLE", "business_status": "OPERATIONAL", "types": ["supermarket", "grocery_or_supermarket", "food", "point_of_interest", "store", "establishment"], "icon": "https://maps.gstatic.com/mapfiles/place_api/icons/v1/png_71/shopping-71.png"}, {"rating": 1, "user_ratings_total": 1, "name": "Shree Vajeshwari General store", "reference": "ChIJAzLaB4nP5zsREhPND-CCcf0", "geometry": {"location": {"lat": 18.9916088, "lng": 72.8175572}, "viewport": {"northeast": {"lat": 18.9929917802915, "lng": 72.8188817302915}, "southwest": {"lat": 18.9902938197085, "lng": 72.81618376970849}}}, "opening_hours": {"open_now": false}, "place_id": "ChIJAzLaB4nP5zsREhPND-CCcf0", "plus_code": {"global_code": "7JCJXRR9+J2", "compound_code": "XRR9+J2 Mumbai, Maharashtra, India"}, "vicinity": "35 -4/8 A, Mata Ramabai Ambedkar Nagar, Doctor E Moses Road, Worli, Mumbai", "scope": "GOOGLE", "business_status": "OPERATIONAL", "types": ["supermarket", "grocery_or_supermarket", "food", "point_of_interest", "store", "establishment"], "icon": "https://maps.gstatic.com/mapfiles/place_api/icons/v1/png_71/shopping-71.png"}, {"rating": 1, "user_ratings_total": 1, "name": "Surya store", "reference": "ChIJm7IPMyzP5zsRbpgjLuu3K24", "geometry": {"location": {"lat": 18.9934277, "lng": 72.81316489999999}, "viewport": {"northeast": {"lat": 18.9949157302915, "lng": 72.8144193802915}, "southwest": {"lat": 18.9922177697085, "lng": 72.81172141970849}}}, "place_id": "ChIJm7IPMyzP5zsRbpgjLuu3K24", "plus_code": {"global_code": "7JCJXRV7+97", "compound_code": "XRV7+97 Mumbai, Maharashtra, India"}, "vicinity": "Shiv Sagar Estate, Worli, Mumbai", "scope": "GOOGLE", "business_status": "OPERATIONAL", "types": ["supermarket", "grocery_or_supermarket", "food", "point_of_interest", "store", "establishment"], "icon": "https://maps.gstatic.com/mapfiles/place_api/icons/v1/png_71/shopping-71.png"}, {"name": "LoveLocal Shop - Ashapura Super Market", "reference": "ChIJhxCyNbrP5zsR-UhPFFh64cQ", "geometry": {"location": {"lat": 18.9979319, "lng": 72.8300871}, "viewport": {"northeast": {"lat": 18.9993021802915, "lng": 72.83143653029151}, "southwest": {"lat": 18.9966042197085, "lng": 72.82873856970849}}}, "place_id": "ChIJhxCyNbrP5zsR-UhPFFh64cQ", "plus_code": {"global_code": "7JCJXRXJ+52", "compound_code": "XRXJ+52 Mumbai, Maharashtra, India"}, "vicinity": "59, Ganpat Rao Kadam Marg, Nagin Nagar Chawl, Dhuru Wadi, Lower Parel, Mumbai", "scope": "GOOGLE", "business_status": "OPERATIONAL", "types": ["supermarket", "grocery_or_supermarket", "food", "point_of_interest", "store", "establishment"], "icon": "https://maps.gstatic.com/mapfiles/place_api/icons/v1/png_71/shopping-71.png"}, {"rating": 4.2, "user_ratings_total": 537, "name": "Big Bazaar", "reference": "ChIJs6YVLKrP5zsRUuiFyzFzm8Y", "geometry": {"location": {"lat": 18.9910888, "lng": 72.814549}, "viewport": {"northeast": {"lat": 18.9925171302915, "lng": 72.81568148029152}, "southwest": {"lat": 18.9898191697085, "lng": 72.8129835197085}}}, "opening_hours": {"open_now": true}, "place_id": "ChIJs6YVLKrP5zsRUuiFyzFzm8Y", "plus_code": {"global_code": "7JCJXRR7+CR", "compound_code": "XRR7+CR Mumbai, Maharashtra, India"}, "vicinity": "Atria - the millennium mall, second floor, Doctor Annie Besant Road, Worli, Mumbai", "photos": [{"photo_reference": "CmRaAAAASkY77CyWdJ1kQBDhk64kJaRzoXY_fGFuhCXXVJtUqCXMGePMIhowuu_gIsKg-4W0PYbttCAAmDBy0kRx528W4tUcCayDeueQlUUcQVyGu3IhTKifZjKRAQNRyRh9iFDsEhDsDHtdpqm2xQjer4t-moLaGhQPP8L4JtDLhrbRuTlD9ixB1ELOFA", "width": 640, "html_attributions": ["<a href=\"https://maps.google.com/maps/contrib/102022329105262680434\">Priya Verma</a>"], "height": 361}], "scope": "GOOGLE", "business_status": "OPERATIONAL", "types": ["supermarket", "grocery_or_supermarket", "food", "point_of_interest", "store", "establishment"], "icon": "https://maps.gstatic.com/mapfiles/place_api/icons/v1/png_71/shopping-71.png"}, {"rating": 4.1, "user_ratings_total": 12, "name": "Mhada Worli CHSL", "reference": "ChIJSSoUOKrP5zsRCl1xSyh3oKo", "geometry": {"location": {"lat": 19.0099288, "lng": 72.8252149}, "viewport": {"northeast": {"lat": 19.0114418802915, "lng": 72.8265501302915}, "southwest": {"lat": 19.0087439197085, "lng": 72.82385216970849}}}, "opening_hours": {"open_now": true}, "place_id": "ChIJSSoUOKrP5zsRCl1xSyh3oKo", "plus_code": {"global_code": "7JFJ2R5G+X3", "compound_code": "2R5G+X3 Mumbai, Maharashtra, India"}, "vicinity": "Century Mills, Lower Parel, Mumbai", "photos": [{"photo_reference": "CmRaAAAAvm71snU7oYAXZq1NdsKrBldBMOPcSmYtArWBS3UYNMMK6fz5mrpPCVEiu6AceR4c0Mrk3XBPU8RZEybUvzKCwDnzv-e_qQI7tS4xqHzTTPy-MSOJRRNFQe7ldpwT4nHnEhC1K5Xdg3Pzm5TJjTYXm95UGhRkBEowVUKl2joyoL4oJnpj1qTzsA", "width": 3456, "html_attributions": ["<a href=\"https://maps.google.com/maps/contrib/100256734660441661032\">Anant Kulkarni</a>"], "height": 4608}], "scope": "GOOGLE", "business_status": "OPERATIONAL", "types": ["supermarket", "grocery_or_supermarket", "food", "point_of_interest", "store", "establishment"], "icon": "https://maps.gstatic.com/mapfiles/place_api/icons/v1/png_71/shopping-71.png"}, {"rating": 4.5, "user_ratings_total": 2, "name": "Singh General Store", "reference": "ChIJZWeg9IbO5zsRSIuIzwiMqI8", "geometry": {"location": {"lat": 18.9911872, "lng": 72.81277949999999}, "viewport": {"northeast": {"lat": 18.9920921302915, "lng": 72.8141736802915}, "southwest": {"lat": 18.9893941697085, "lng": 72.81147571970848}}}, "opening_hours": {"open_now": true}, "place_id": "ChIJZWeg9IbO5zsRSIuIzwiMqI8", "plus_code": {"global_code": "7JCJXRR7+F4", "compound_code": "XRR7+F4 Mumbai, Maharashtra, India"}, "vicinity": "Markandeshwar Nagar, Shiv Sagar Estate, Worli, Mumbai", "photos": [{"photo_reference": "CmRaAAAAQUKjtVkbmg4Mxj3BlzSkA21ZkpxlMUeA49-c2eP8o00LjEdaNoHXTKR6LWLOcdjcalk0c8ZqUSTzk7fBX9UWvz-VrRfY0s4m-MSA-hi1EhQXJGIncTdrmh3ktwhkk0VAEhCU8EnIy3ZrVPgxiPsCHOW_GhQrC9VOWpdrWF9mMLnktJv7GVHZDQ", "width": 3120, "html_attributions": ["<a href=\"https://maps.google.com/maps/contrib/117020297948893540570\">Ganga gates</a>"], "height": 4160}], "scope": "GOOGLE", "business_status": "OPERATIONAL", "types": ["supermarket", "grocery_or_supermarket", "food", "point_of_interest", "store", "establishment"], "icon": "https://maps.gstatic.com/mapfiles/place_api/icons/v1/png_71/shopping-71.png"}, {"rating": 3, "user_ratings_total": 1, "name": "Super roll", "reference": "ChIJMdAhvn7P5zsRTxT_ar87qLE", "geometry": {"location": {"lat": 19.0111608, "lng": 72.8240051}, "viewport": {"northeast": {"lat": 19.0125203802915, "lng": 72.8252401802915}, "southwest": {"lat": 19.0098224197085, "lng": 72.8225422197085}}}, "place_id": "ChIJMdAhvn7P5zsRTxT_ar87qLE", "plus_code": {"global_code": "7JFJ2R6F+FJ", "compound_code": "2R6F+FJ Mumbai, Maharashtra, India"}, "vicinity": "Prabhadevi, Mumbai", "photos": [{"photo_reference": "CmRaAAAAu1P4mJG3qYcmG8ABEmJyUskzDSTQC0Y7swrg58DzN87ASWiOFYIFynOoescR2WE3V1_z0D7BF-kwERI1CpYTaNqyE-dMDDJ8DEkUf56bxxE100KSqQeD6oQr2mTdetx4EhDxDl9ghhAaHyPEhW4lyvq_GhQrPfbpZIvi5XALc3xicWAxZYlPbw", "width": 3000, "html_attributions": ["<a href=\"https://maps.google.com/maps/contrib/110451460608214245913\">Srikanth Suddala</a>"], "height": 4000}], "scope": "GOOGLE", "business_status": "OPERATIONAL", "types": ["supermarket", "grocery_or_supermarket", "food", "point_of_interest", "store", "establishment"], "icon": "https://maps.gstatic.com/mapfiles/place_api/icons/v1/png_71/shopping-71.png"}, {"rating": 5, "user_ratings_total": 3, "name": "JAY MAHARASHTRA MASALE - ANIL", "reference": "ChIJPdxXZPTO5zsRCz9ooXM5-1E", "geometry": {"location": {"lat": 18.9935744, "lng": 72.83138380000001}, "viewport": {"northeast": {"lat": 18.9949221302915, "lng": 72.8327110302915}, "southwest": {"lat": 18.9922241697085, "lng": 72.8300130697085}}}, "opening_hours": {"open_now": false}, "place_id": "ChIJPdxXZPTO5zsRCz9ooXM5-1E", "plus_code": {"global_code": "7JCJXRVJ+CH", "compound_code": "XRVJ+CH Mumbai, Maharashtra, India"}, "vicinity": "3-266, NM Joshi Marg, Masjid, Lower Parel East, BDD Chawl, Lower Parel, Mumbai", "photos": [{"photo_reference": "CmRaAAAAC7me6pDkgHF9MMHoA2j9vKBfDyJfnCeVD-ojsfotKnxJmZR1c9WoGgJWEvoo049g07xlZ_atxcNv8PpWmOOuEn5ZAGFdxUu3gp4nN2TKU8xdgEeyoGde9XCt6D-ZFTBWEhBKatVXbSTU82lret6Kw5HWGhQUV-yUsgnhjaRrvDi48I8mKJiEJw", "width": 4608, "html_attributions": ["<a href=\"https://maps.google.com/maps/contrib/101492148691751689539\">JAY MAHARASHTRA MASALE - ANIL</a>"], "height": 2176}], "scope": "GOOGLE", "business_status": "OPERATIONAL", "types": ["supermarket", "grocery_or_supermarket", "food", "point_of_interest", "store", "establishment"], "icon": "https://maps.gstatic.com/mapfiles/place_api/icons/v1/png_71/shopping-71.png"}]}