{"status": "OK", "next_page_token": "CqQCHQEAAEHjS6DoccFzuXgAwgkebU6gOKZKsCbtL3FAGrzJgF2BqMsBDGwIwcuyDKFbs_vhgt2fFhEi9FSc9JPSPjgGyYA2fcLvPBF1BbteeWKAeVKItLP2qHyz04--mk7IEq53fkf4oHbh1GrSCMyRM6kgHZK0gAPo7zsdd-VT7FocgiT0BE5h2as3ae40C7lWblHjn_NnBlQmmq948PdoHeR7r3C82rHp6uLMUIBjNyEdXKcGRo40QyPDMdueugqpmp_shZ87_g5v3KY-oGC4cnyL_M6CFqpSXQMYm41LZVQT89IfiE5-Zpj3emF1N4v_8rSry-iBoIpaLHmZbYjTZJv_LtFakvcCZIJLaWwirn-O2du-xgwT86cUaL_8LrS1SSuuvRIQXYIWffPLSHzFY8Y_m3q2fhoUak4n6-JXrhbxlFIKtuh9yzkzA54", "html_attributions": [], "results": [{"rating": 3.9, "user_ratings_total": 257, "name": "Big Bazaar", "reference": "ChIJ8VOgVDy25zsR5B70ADLBtyw", "geometry": {"location": {"lat": 19.1413216, "lng": 72.83095159999999}, "viewport": {"northeast": {"lat": 19.1426704802915, "lng": 72.8325574302915}, "southwest": {"lat": 19.1399725197085, "lng": 72.8298594697085}}}, "opening_hours": {"open_now": true}, "place_id": "ChIJ8VOgVDy25zsR5B70ADLBtyw", "plus_code": {"global_code": "7JFJ4RRJ+G9", "compound_code": "4RRJ+G9 Mumbai, Maharashtra, India"}, "vicinity": "Infinity Mall, Andheri West, Mumbai", "photos": [{"photo_reference": "CmRaAAAAJpD2b-RIT8i2-xR8VW3av961ubNPkJ3LP_qTPhDdv56Gq2IN6RapQ-KqQstRY2w6UMu9rDpSzzbP0kxzl73FIQvLDuDiv19DUNutx9dYlOHHveuO019ikjxbBMsdvDlFEhCerlJcTeRqc1ixOVQMfrmCGhTp25d8jJX_whH8JFwuya1HzIClNw", "width": 3024, "html_attributions": ["<a href=\"https://maps.google.com/maps/contrib/105869183362739400126\">Siddhesh R</a>"], "height": 4032}], "scope": "GOOGLE", "business_status": "OPERATIONAL", "types": ["supermarket", "grocery_or_supermarket", "food", "point_of_interest", "store", "establishment"], "icon": "https://maps.gstatic.com/mapfiles/place_api/icons/v1/png_71/shopping-71.png"}, {"rating": 4, "user_ratings_total": 616, "name": "FB-MUMBAI- ANDHERI (WEST)-LOKHANDWALA-INFINITY MALL", "reference": "ChIJQwH7VDy25zsR5eU8l2gXJBY", "geometry": {"location": {"lat": 19.141297, "lng": 72.83088769999999}, "viewport": {"northeast": {"lat": 19.1426631302915, "lng": 72.83252523029151}, "southwest": {"lat": 19.1399651697085, "lng": 72.82982726970849}}}, "opening_hours": {"open_now": true}, "place_id": "ChIJQwH7VDy25zsR5eU8l2gXJBY", "plus_code": {"global_code": "7JFJ4RRJ+G9", "compound_code": "4RRJ+G9 Mumbai, Maharashtra, India"}, "vicinity": "Infinity Mall, New Link Road, Andheri West, Mumbai", "photos": [{"photo_reference": "CmRZAAAAOZfQcMWVBYVCwsqrPwiTbhatRq4ltKVCiJ_c04r4fh4WWVgL9-DNcVRVkn916QDVJYmPBeKCQJjuMbYZHHgm5mYt25Zh0KxFPbOFo0pHg5971IXJBbQywhsOgd5NuqOTEhCqIzOIGip0UrqM8CcrgaT1GhRlpRsZRXfL03KFfAeahsB0oveFuQ", "width": 3024, "html_attributions": ["<a href=\"https://maps.google.com/maps/contrib/117346640770645175874\">Ravi Seth</a>"], "height": 4032}], "scope": "GOOGLE", "business_status": "OPERATIONAL", "types": ["supermarket", "atm", "grocery_or_supermarket", "finance", "food", "point_of_interest", "store", "establishment"], "icon": "https://maps.gstatic.com/mapfiles/place_api/icons/v1/png_71/shopping-71.png"}, {"rating": 4.2, "user_ratings_total": 1687, "name": "Nature\u2019s Basket", "reference": "ChIJm435tT-25zsR3j9owj118pE", "geometry": {"location": {"lat": 19.1452965, "lng": 72.8292761}, "viewport": {"northeast": {"lat": 19.1466412302915, "lng": 72.83067878029149}, "southwest": {"lat": 19.1439432697085, "lng": 72.82798081970849}}}, "opening_hours": {"open_now": true}, "place_id": "ChIJm435tT-25zsR3j9owj118pE", "plus_code": {"global_code": "7JFJ4RWH+4P", "compound_code": "4RWH+4P Mumbai, Maharashtra, India"}, "vicinity": "next to Marks and Spencers, Shop no. 1, Ground Floor,Samartha Aishwarya CHS Off, next to Marks and Spencers, KL Walawalkar Marg, Oshiwara, Andheri West, Mumbai", "photos": [{"photo_reference": "CmRaAAAAEx-GIBrYOSJU9k49p2NaLdAVBZVKE-rdqSOZX8bGvDo84uMf4i4458MxS-7sBsklc0mNNpkffQdCFDs2IvmDn3s3B_9DfnSktUD36zqMHjgwDBBGPlgQoZ5JTpCUfpv7EhAfR3ltw2G1p8Zg_wsRoOQZGhRpCJF6CxBosj9m7Jk4S-ld8tq8QQ", "width": 4608, "html_attributions": ["<a href=\"https://maps.google.com/maps/contrib/102902703542783352185\">Rahul Kapani</a>"], "height": 3456}], "scope": "GOOGLE", "business_status": "OPERATIONAL", "types": ["grocery_or_supermarket", "supermarket", "food", "point_of_interest", "store", "establishment"], "icon": "https://maps.gstatic.com/mapfiles/place_api/icons/v1/png_71/shopping-71.png"}, {"rating": 3.4, "user_ratings_total": 25, "name": "Modern Stores", "reference": "ChIJVVVF-xe25zsRMhllZwAlRMs", "geometry": {"location": {"lat": 19.1384954, "lng": 72.8275463}, "viewport": {"northeast": {"lat": 19.1398960302915, "lng": 72.82888733029151}, "southwest": {"lat": 19.1371980697085, "lng": 72.8261893697085}}}, "opening_hours": {"open_now": true}, "place_id": "ChIJVVVF-xe25zsRMhllZwAlRMs", "plus_code": {"global_code": "7JFJ4RQH+92", "compound_code": "4RQH+92 Mumbai, Maharashtra, India"}, "vicinity": "Shop No. 8, Bldg no.23 Wembley CHS, Shastri Nagar Lane 2, Andheri West, Mumbai", "photos": [{"photo_reference": "CmRaAAAA7KF9kTnVfzfjtFVKSrqL2MKjqmpRdGwR8TEfS_xLbX1_LHxUUjZIkKT8k75HdIN-Pk0D2n0Yd5QiblugTmTY_HoiF1nG1S2vbBnF9TqNb5SCp3m81No8dCTxnoH6jqXlEhAT9_BB4M8jmm6ZPR4R_cO5GhQ8xOI2orqh213fg4pO8Lpz57hXBA", "width": 1836, "html_attributions": ["<a href=\"https://maps.google.com/maps/contrib/117671013600502274856\">Maidul Shaikh</a>"], "height": 3264}], "scope": "GOOGLE", "business_status": "OPERATIONAL", "types": ["grocery_or_supermarket", "supermarket", "food", "point_of_interest", "store", "establishment"], "icon": "https://maps.gstatic.com/mapfiles/place_api/icons/v1/png_71/shopping-71.png"}, {"name": "Lucky Super Market", "reference": "ChIJFW1pahi25zsRcwLde370djc", "geometry": {"location": {"lat": 19.1362471, "lng": 72.8271613}, "viewport": {"northeast": {"lat": 19.1375481802915, "lng": 72.82851553029151}, "southwest": {"lat": 19.1348502197085, "lng": 72.82581756970849}}}, "opening_hours": {"open_now": true}, "place_id": "ChIJFW1pahi25zsRcwLde370djc", "plus_code": {"global_code": "7JFJ4RPG+FV", "compound_code": "4RPG+FV Mumbai, Maharashtra, India"}, "vicinity": "Legend Shop No.02 , Plot No.95 , Near ,New Lokhandwala , Bridge ,Oshiwara, Andheri West, Mumbai", "scope": "GOOGLE", "business_status": "OPERATIONAL", "types": ["supermarket", "grocery_or_supermarket", "food", "point_of_interest", "store", "establishment"], "icon": "https://maps.gstatic.com/mapfiles/place_api/icons/v1/png_71/shopping-71.png"}, {"rating": 4, "user_ratings_total": 6, "name": "Sana General Stores", "reference": "ChIJW-ragzq25zsReiL80f12iPw", "geometry": {"location": {"lat": 19.1413915, "lng": 72.8394754}, "viewport": {"northeast": {"lat": 19.1427400302915, "lng": 72.84085863029149}, "southwest": {"lat": 19.1400420697085, "lng": 72.83816066970849}}}, "opening_hours": {"open_now": true}, "place_id": "ChIJW-ragzq25zsReiL80f12iPw", "plus_code": {"global_code": "7JFJ4RRQ+HQ", "compound_code": "4RRQ+HQ Mumbai, Maharashtra, India"}, "vicinity": "101, FDC Road, Gautam Nagar, Jogeshwari, Mumbai", "photos": [{"photo_reference": "CmRaAAAA_wUpFLtrwFryFZpnrUS6jMqx3E2d3EsCPLtRL_PEMqZfnvD3xFeBjtgaht03CJMUjmZpW3Tb1kgrSojw96uJiYi8CKV_c_xZCHNtsp-lvjGSZi8S5axif37cPuna9FtHEhBDwiGxxMt_wMtqbSI4UyYBGhSBxI3ZnWDEUaOoUrG3tXA6qlk2rw", "width": 2560, "html_attributions": ["<a href=\"https://maps.google.com/maps/contrib/109806880902958773862\">rizwan khatri</a>"], "height": 1440}], "scope": "GOOGLE", "business_status": "OPERATIONAL", "types": ["supermarket", "grocery_or_supermarket", "food", "point_of_interest", "store", "establishment"], "icon": "https://maps.gstatic.com/mapfiles/place_api/icons/v1/png_71/shopping-71.png"}, {"rating": 4.3, "user_ratings_total": 34, "name": "Sahara Super Market & Dairy", "reference": "ChIJ7afdhjC25zsR7Zhrllz4h4E", "geometry": {"location": {"lat": 19.142086, "lng": 72.8401873}, "viewport": {"northeast": {"lat": 19.1433640802915, "lng": 72.8415244802915}, "southwest": {"lat": 19.1406661197085, "lng": 72.83882651970849}}}, "opening_hours": {"open_now": true}, "place_id": "ChIJ7afdhjC25zsR7Zhrllz4h4E", "plus_code": {"global_code": "7JFJ4RRR+R3", "compound_code": "4RRR+R3 Mumbai, Maharashtra, India"}, "vicinity": "Shop No.3&4, Meadow Park Apartments, Aqsa Masjid Road, Jogeshwari, Mumbai", "photos": [{"photo_reference": "CmRaAAAAE08bhaao8xFJAROGQpyqyVgsYGXQiIln4Ti4lkyWMdONwLv4gLkndGqeJ3oOxe6nzkg7wOpY4p3kw9jbxFATyC3EAPfiihNPFC_Oid2uEH_28m5k1fB5AZJ6CDm_ZZ5wEhAGlQsDPfJSibrOfLqH3lLYGhSIYcLyAYoDALwZ7I2LTP1iWEN3EQ", "width": 4032, "html_attributions": ["<a href=\"https://maps.google.com/maps/contrib/108096328954570957363\">Mohammed Shahid</a>"], "height": 2268}], "scope": "GOOGLE", "business_status": "OPERATIONAL", "types": ["supermarket", "grocery_or_supermarket", "food", "point_of_interest", "store", "establishment"], "icon": "https://maps.gstatic.com/mapfiles/place_api/icons/v1/png_71/shopping-71.png"}, {"rating": 5, "user_ratings_total": 1, "name": "Ganesh kirana shop", "reference": "ChIJtQ_0ZTq25zsRn-Oj_6rmR7A", "geometry": {"location": {"lat": 19.1424106, "lng": 72.8386646}, "viewport": {"northeast": {"lat": 19.1437754802915, "lng": 72.83990613029151}, "southwest": {"lat": 19.1410775197085, "lng": 72.83720816970849}}}, "opening_hours": {"open_now": true}, "place_id": "ChIJtQ_0ZTq25zsRn-Oj_6rmR7A", "plus_code": {"global_code": "7JFJ4RRQ+XF", "compound_code": "4RRQ+XF Mumbai, Maharashtra, India"}, "vicinity": "Lotus Cooperative, vikas Nagar,, Bhau Tatoba Toraskar Marg, Mhada Colony, Jogeshwari, Mumbai", "photos": [{"photo_reference": "CmRaAAAA1ptzyXbulx6TPCoVCze44mISCNivRBJ-IyyF8Yhma8DCC-IpV2duVnJvQkMWZM5fOQbrYhucd0KusrAvFcL0ZT7OeP-lXvLtp4EJBtu3FmSgXrenyNSc04PkXJTzGSddEhCPKb-TYB6J0C5TtpZqFf0CGhQ3Mbm191Dpm_A9rhMt9kBfT5paKg", "width": 3000, "html_attributions": ["<a href=\"https://maps.google.com/maps/contrib/102297539691206749293\">hari thatera</a>"], "height": 4000}], "scope": "GOOGLE", "business_status": "OPERATIONAL", "types": ["supermarket", "grocery_or_supermarket", "food", "point_of_interest", "store", "establishment"], "icon": "https://maps.gstatic.com/mapfiles/place_api/icons/v1/png_71/shopping-71.png"}, {"rating": 3.9, "user_ratings_total": 68, "name": "Aksar Super Market", "reference": "ChIJN41tLTfI5zsRjehVFlkizqc", "geometry": {"location": {"lat": 19.138623, "lng": 72.83735999999999}, "viewport": {"northeast": {"lat": 19.1399706302915, "lng": 72.8386143802915}, "southwest": {"lat": 19.1372726697085, "lng": 72.8359164197085}}}, "opening_hours": {"open_now": true}, "place_id": "ChIJN41tLTfI5zsRjehVFlkizqc", "plus_code": {"global_code": "7JFJ4RQP+CW", "compound_code": "4RQP+CW Mumbai, Maharashtra, India"}, "vicinity": "Shop Number 6, Panorama Tower, near County Club, Veera Desai Road, Vira, Andheri West, Mumbai", "photos": [{"photo_reference": "CmRaAAAA70rerNE3UN3IIzC-p61D7BcWVRArg0jPUPNUOrz3HzRgIVZVKS0qByJDrJ4P0bBai52kUU_HUqRR6bb8VX5jtXLx_8p4Y1qESZEf96hETk-jCqE68P8fhmt_AY5fArfoEhBKLF_L-3roRxemyA5Dp2FKGhRaA4MrbXrwVtyq2Eu3JGH3WbOtQQ", "width": 3120, "html_attributions": ["<a href=\"https://maps.google.com/maps/contrib/115700158079311816345\">Aksar Super Market</a>"], "height": 4160}], "scope": "GOOGLE", "business_status": "OPERATIONAL", "types": ["supermarket", "grocery_or_supermarket", "food", "point_of_interest", "store", "establishment"], "icon": "https://maps.gstatic.com/mapfiles/place_api/icons/v1/png_71/shopping-71.png"}, {"name": "Santosh grocery Shop", "reference": "ChIJXx0nNzu25zsRYJiQ_C6zx3U", "geometry": {"location": {"lat": 19.1390942, "lng": 72.83560890000001}, "viewport": {"northeast": {"lat": 19.1404394802915, "lng": 72.8370362802915}, "southwest": {"lat": 19.1377415197085, "lng": 72.8343383197085}}}, "opening_hours": {"open_now": true}, "place_id": "ChIJXx0nNzu25zsRYJiQ_C6zx3U", "plus_code": {"global_code": "7JFJ4RQP+J6", "compound_code": "4RQP+J6 Mumbai, Maharashtra, India"}, "vicinity": "Veera Desai Industrial Estate, Andheri West, Mumbai", "scope": "GOOGLE", "business_status": "OPERATIONAL", "types": ["supermarket", "grocery_or_supermarket", "food", "point_of_interest", "store", "establishment"], "icon": "https://maps.gstatic.com/mapfiles/place_api/icons/v1/png_71/shopping-71.png"}, {"name": "Lalit dairy milk", "reference": "ChIJ-ZFLrJ635zsR6Lmqme2qzsY", "geometry": {"location": {"lat": 19.1438971, "lng": 72.8427707}, "viewport": {"northeast": {"lat": 19.1452665302915, "lng": 72.8441210302915}, "southwest": {"lat": 19.1425685697085, "lng": 72.8414230697085}}}, "place_id": "ChIJ-ZFLrJ635zsR6Lmqme2qzsY", "plus_code": {"global_code": "7JFJ4RVV+H4", "compound_code": "4RVV+H4 Mumbai, Maharashtra, India"}, "vicinity": "Lalit Darey, Jogeshwari, Mumbai", "scope": "GOOGLE", "business_status": "OPERATIONAL", "types": ["supermarket", "grocery_or_supermarket", "food", "point_of_interest", "store", "establishment"], "icon": "https://maps.gstatic.com/mapfiles/place_api/icons/v1/png_71/shopping-71.png"}, {"rating": 3.8, "user_ratings_total": 416, "name": "Crescent Royale", "reference": "ChIJcR8RQzu25zsRxjCcYrrFC-U", "geometry": {"location": {"lat": 19.1401434, "lng": 72.8348516}, "viewport": {"northeast": {"lat": 19.1414925302915, "lng": 72.8362005802915}, "southwest": {"lat": 19.1387945697085, "lng": 72.83350261970848}}}, "opening_hours": {"open_now": true}, "place_id": "ChIJcR8RQzu25zsRxjCcYrrFC-U", "plus_code": {"global_code": "7JFJ4RRM+3W", "compound_code": "4RRM+3W Mumbai, Maharashtra, India"}, "vicinity": "B-65, Veer Desai Rd, Veera Desai Industrial Estate, Andheri West, Mumbai", "photos": [{"photo_reference": "CmRaAAAAVmLCmGsAfbsn1Nalldi_gH7W_qzSFkeZ9C7t43wE2UAUzKkqBq1wLvbpbkR-zdeiHdyK0g9etQHyhKuat00rpVVWC8mTFBHc9HHlZyL6G7fEYWm1GfA1fL3WqD5iPUJOEhBh0pCK0hUlaFbUnsYTdtqgGhTom0z6QRZgtvTqXMiN0S6ufxgilw", "width": 3024, "html_attributions": ["<a href=\"https://maps.google.com/maps/contrib/101670562391012654594\">Aarti Gupta</a>"], "height": 4032}], "scope": "GOOGLE", "business_status": "OPERATIONAL", "types": ["supermarket", "grocery_or_supermarket", "food", "point_of_interest", "store", "establishment"], "icon": "https://maps.gstatic.com/mapfiles/place_api/icons/v1/png_71/shopping-71.png"}, {"name": "SCENTERS", "reference": "ChIJf2cSDy625zsRK_I8oHMNuMM", "geometry": {"location": {"lat": 19.1386339, "lng": 72.8451379}, "viewport": {"northeast": {"lat": 19.1399601302915, "lng": 72.8464638302915}, "southwest": {"lat": 19.1372621697085, "lng": 72.84376586970849}}}, "place_id": "ChIJf2cSDy625zsRK_I8oHMNuMM", "vicinity": "A-1503 Anmol, Off, SV Road, Goregaon West, Mumbai", "photos": [{"photo_reference": "CmRaAAAArLTIHyhQt_kezrQTWUVBKko5mfbTF_kgO_BnLueolH_KA1J-lzV3UxUDaiNPBz53vCKZh_UV3TTqw45AW3WVptzpebO5KO_uz_43VVcp0mT-P8LpJ_mTdpyPd-5stUnIEhCjyvRHrjhNqINzVvCg0R1pGhT_v1QdaaMXqksAbM7SYMjAB0_5FQ", "width": 2116, "html_attributions": ["<a href=\"https://maps.google.com/maps/contrib/111817314413742596518\">SCENTERS</a>"], "height": 2115}], "scope": "GOOGLE", "business_status": "OPERATIONAL", "types": ["supermarket", "grocery_or_supermarket", "food", "point_of_interest", "store", "establishment"], "icon": "https://maps.gstatic.com/mapfiles/place_api/icons/v1/png_71/shopping-71.png"}, {"name": "OMPRAKASH BABULAL GUPTA SHOP", "reference": "ChIJE2xnsMC35zsRD3Yxpz4oPDE", "geometry": {"location": {"lat": 19.1424619, "lng": 72.8350272}, "viewport": {"northeast": {"lat": 19.1438423302915, "lng": 72.8363749302915}, "southwest": {"lat": 19.1411443697085, "lng": 72.83367696970848}}}, "place_id": "ChIJE2xnsMC35zsRD3Yxpz4oPDE", "plus_code": {"global_code": "7JFJ4RRP+X2", "compound_code": "4RRP+X2 Mumbai, Maharashtra, India"}, "vicinity": "7, New Shakti Nagar Road, Adarsh Nagar, Jogeshwari, Mumbai", "scope": "GOOGLE", "business_status": "OPERATIONAL", "types": ["supermarket", "grocery_or_supermarket", "food", "point_of_interest", "store", "establishment"], "icon": "https://maps.gstatic.com/mapfiles/place_api/icons/v1/png_71/shopping-71.png"}, {"rating": 5, "user_ratings_total": 1, "name": "Singh & Sons Soap Depo", "reference": "ChIJ93QEKje25zsRz-8ETlqUyG0", "geometry": {"location": {"lat": 19.1453022, "lng": 72.8426563}, "viewport": {"northeast": {"lat": 19.1466452802915, "lng": 72.84405723029151}, "southwest": {"lat": 19.1439473197085, "lng": 72.84135926970849}}}, "opening_hours": {"open_now": true}, "place_id": "ChIJ93QEKje25zsRz-8ETlqUyG0", "plus_code": {"global_code": "7JFJ4RWV+43", "compound_code": "4RWV+43 Mumbai, Maharashtra, India"}, "vicinity": "2, SV Road, Navneeth Colony, Andheri West, Mumbai", "scope": "GOOGLE", "business_status": "OPERATIONAL", "types": ["supermarket", "grocery_or_supermarket", "food", "point_of_interest", "store", "establishment"], "icon": "https://maps.gstatic.com/mapfiles/place_api/icons/v1/png_71/shopping-71.png"}, {"rating": 5, "user_ratings_total": 1, "name": "Patel Kirana and General Store", "reference": "ChIJ1fjgZ-a35zsRxR1EypEQgWM", "geometry": {"location": {"lat": 19.1348341, "lng": 72.8430123}, "viewport": {"northeast": {"lat": 19.1361725302915, "lng": 72.84474023029149}, "southwest": {"lat": 19.13347456970849, "lng": 72.84204226970849}}}, "place_id": "ChIJ1fjgZ-a35zsRxR1EypEQgWM", "plus_code": {"global_code": "7JFJ4RMV+W6", "compound_code": "4RMV+W6 Mumbai, Maharashtra, India"}, "vicinity": "Patilwadi, Jogeshwari, Mumbai", "scope": "GOOGLE", "business_status": "OPERATIONAL", "types": ["supermarket", "grocery_or_supermarket", "food", "point_of_interest", "store", "establishment"], "icon": "https://maps.gstatic.com/mapfiles/place_api/icons/v1/png_71/shopping-71.png"}, {"rating": 5, "user_ratings_total": 1, "name": "Vidya pan bidi shop", "reference": "ChIJ46ltnjm25zsREIth4x9EBZg", "geometry": {"location": {"lat": 19.145549, "lng": 72.83688149999999}, "viewport": {"northeast": {"lat": 19.1469006802915, "lng": 72.8382525802915}, "southwest": {"lat": 19.1442027197085, "lng": 72.83555461970849}}}, "place_id": "ChIJ46ltnjm25zsREIth4x9EBZg", "plus_code": {"global_code": "7JFJ4RWP+6Q", "compound_code": "4RWP+6Q Mumbai, Maharashtra, India"}, "vicinity": "24-A/101, Behram Baug, Jogeshwari, Mumbai", "scope": "GOOGLE", "business_status": "OPERATIONAL", "types": ["supermarket", "grocery_or_supermarket", "food", "point_of_interest", "store", "establishment"], "icon": "https://maps.gstatic.com/mapfiles/place_api/icons/v1/png_71/shopping-71.png"}, {"rating": 4.8, "user_ratings_total": 239, "name": "Copain Save Mart", "reference": "ChIJeYTzK1235zsRwE2vZS2sPvc", "price_level": 2, "geometry": {"location": {"lat": 19.1360108, "lng": 72.84598559999999}, "viewport": {"northeast": {"lat": 19.1372371802915, "lng": 72.84726633029149}, "southwest": {"lat": 19.1345392197085, "lng": 72.84456836970848}}}, "opening_hours": {"open_now": true}, "place_id": "ChIJeYTzK1235zsRwE2vZS2sPvc", "plus_code": {"global_code": "7JFJ4RPW+C9", "compound_code": "4RPW+C9 Mumbai, Maharashtra, India"}, "vicinity": "Shop No. 1, Ground Floor, Reyhaan Terrace II Bandivali Hill Road, Sahakar Road, Jogeshwari, Mumbai", "photos": [{"photo_reference": "CmRaAAAAlhE5iMGKb9XLNVaQeurC7K3Flg1qUPg1u5-aluJCNOBB9zuPzEDyvzCOa0CdbdOl1J1JQ9sJqkSyg4qg-voLXiuCACYnhjS_2B2Mq-A0Rfo8GiQDCXBB3w-A9P3NSOXLEhA3a6jidjgG_U8xvSaup3RjGhTN4193ss4gBTKzS7tOLtJqc_Sbvg", "width": 4608, "html_attributions": ["<a href=\"https://maps.google.com/maps/contrib/105298506769581864601\">034 Sayyed Sameer</a>"], "height": 3456}], "scope": "GOOGLE", "business_status": "OPERATIONAL", "types": ["bakery", "supermarket", "grocery_or_supermarket", "food", "point_of_interest", "store", "establishment"], "icon": "https://maps.gstatic.com/mapfiles/place_api/icons/v1/png_71/restaurant-71.png"}, {"rating": 5, "user_ratings_total": 1, "name": "Apan Desh Pan Shop", "reference": "ChIJndnh2XK35zsRadsfX4FihPg", "geometry": {"location": {"lat": 19.1345738, "lng": 72.8353637}, "viewport": {"northeast": {"lat": 19.1357904302915, "lng": 72.83670198029151}, "southwest": {"lat": 19.13309246970849, "lng": 72.8340040197085}}}, "place_id": "ChIJndnh2XK35zsRadsfX4FihPg", "plus_code": {"global_code": "7JFJ4RMP+R4", "compound_code": "4RMP+R4 Mumbai, Maharashtra, India"}, "vicinity": "7-B, Industrial Area, Andheri West, Mumbai", "scope": "GOOGLE", "business_status": "OPERATIONAL", "types": ["supermarket", "grocery_or_supermarket", "food", "point_of_interest", "store", "establishment"], "icon": "https://maps.gstatic.com/mapfiles/place_api/icons/v1/png_71/shopping-71.png"}, {"rating": 3.6, "user_ratings_total": 5, "name": "Prasad General Store", "reference": "ChIJm1zdACa25zsRWSvKfTwCXTI", "geometry": {"location": {"lat": 19.1330249, "lng": 72.8394524}, "viewport": {"northeast": {"lat": 19.1343473302915, "lng": 72.8408098302915}, "southwest": {"lat": 19.1316493697085, "lng": 72.83811186970848}}}, "opening_hours": {"open_now": true}, "place_id": "ChIJm1zdACa25zsRWSvKfTwCXTI", "plus_code": {"global_code": "7JFJ4RMQ+6Q", "compound_code": "4RMQ+6Q Mumbai, Maharashtra, India"}, "vicinity": "shop no 3, b wing, sai shraddha soc., opp mvm high school,, Andheri West, Mumbai", "scope": "GOOGLE", "business_status": "OPERATIONAL", "types": ["supermarket", "grocery_or_supermarket", "food", "point_of_interest", "store", "establishment"], "icon": "https://maps.gstatic.com/mapfiles/place_api/icons/v1/png_71/shopping-71.png"}]}