{"status": "OK", "next_page_token": "ATtYBwLsxaWXshN9aBqZhHIDIrFW520uYGM4YFZYuEhbRlJDQVfhAmf8EsApIqxWJBr6J0-kPOnhG0-WZ-zhPNhBV1m0zz2ghXLt_Ku8-k79EgmjMgiLWeBAwgdfpKNBE4RSgFJRfw-qDtgB6QATFA3Nnk058JTTaOlQZa7i3S1ezlE9F2b6_rf4wGrvZxuH9p3d2JsCg7bEHsPYR4XG7FIfuj__Hud2rrQgbm7rL3jqMxnf4EaGs67F2EPei1LLKTGEh79SPEPoaUucqwSq91YPaKWeJNa_hI-cfN1EtkkpOKU2QwO7TWarhSEbSIUFLxjLMtVVNagUzqeaCB8PqD1Wk-gK8ZqQwGy6ulyD-5AFoZCnt_VRr6NL_pDOR4LzldkLXL5OxjMkfYo_2nPJsnhJ9pg1ITHZfUyyGFwXGXLfUBhu6R6aV6oGsrgnRLdTQnW8", "html_attributions": [], "results": [{"rating": 4, "user_ratings_total": 2, "name": "M.N. Store", "reference": "ChIJZTkfTFxnUjoRXsx1M4rNyJs", "geometry": {"location": {"lat": 12.9961672, "lng": 80.20676840000002}, "viewport": {"northeast": {"lat": 12.9975637302915, "lng": 80.20812558029151}, "southwest": {"lat": 12.9948657697085, "lng": 80.20542761970849}}}, "opening_hours": {"open_now": true}, "place_id": "ChIJZTkfTFxnUjoRXsx1M4rNyJs", "plus_code": {"global_code": "7M42X6W4+FP", "compound_code": "X6W4+FP Chennai, Tamil Nadu, India"}, "vicinity": "17, 1st Main Road, Officers Colony, Adambakkam, Chennai", "photos": [{"photo_reference": "ATtYBwIOz9Lnu5yBskWV5e5xfDWHVLkMZ74smUo8yEoOdUTYsz1FqmTR0xDTS193Z-FOJnICRjaZ7kwpGHwmgtl3Co4-CJjguKTO0pv8YY_X6WUUAWxUmu584lUmI3QMwvlw3LZprb6pnRWf-r3lHnnQm86okvwRuqj6aAinAqRAiIhUDL2y", "width": 4160, "html_attributions": ["<a href=\"https://maps.google.com/maps/contrib/116258599228510812319\">Balagei Nagarajan</a>"], "height": 3120}], "scope": "GOOGLE", "business_status": "OPERATIONAL", "types": ["department_store", "point_of_interest", "store", "establishment"], "icon": "https://maps.gstatic.com/mapfiles/place_api/icons/v1/png_71/shopping-71.png"}, {"name": "N.S. Store", "reference": "ChIJ95pDTl1nUjoRCZmFqjP6Tbc", "geometry": {"location": {"lat": 12.9996235, "lng": 80.209007}, "viewport": {"northeast": {"lat": 13.0009623302915, "lng": 80.2103536802915}, "southwest": {"lat": 12.9982643697085, "lng": 80.2076557197085}}}, "opening_hours": {"open_now": false}, "place_id": "ChIJ95pDTl1nUjoRCZmFqjP6Tbc", "plus_code": {"global_code": "7M42X6X5+RJ", "compound_code": "X6X5+RJ Chennai, Tamil Nadu, India"}, "vicinity": "5, New Street, Maduvinkarai, Guindy, Chennai", "scope": "GOOGLE", "business_status": "OPERATIONAL", "types": ["department_store", "point_of_interest", "store", "establishment"], "icon": "https://maps.gstatic.com/mapfiles/place_api/icons/v1/png_71/shopping-71.png"}, {"rating": 5, "user_ratings_total": 3, "name": "Pandian Stores", "reference": "ChIJuWcZFghnUjoR-giLvWDaKx8", "geometry": {"location": {"lat": 13.0223022, "lng": 80.2311534}, "viewport": {"northeast": {"lat": 13.0236954802915, "lng": 80.2325410302915}, "southwest": {"lat": 13.0209975197085, "lng": 80.22984306970848}}}, "opening_hours": {"open_now": false}, "place_id": "ChIJuWcZFghnUjoR-giLvWDaKx8", "plus_code": {"global_code": "7M5226CJ+WF", "compound_code": "26CJ+WF Chennai, Tamil Nadu, India"}, "vicinity": "Block C2, Todd Hunter Nagar, Nandanam, Chennai", "scope": "GOOGLE", "business_status": "OPERATIONAL", "types": ["department_store", "point_of_interest", "store", "establishment"], "icon": "https://maps.gstatic.com/mapfiles/place_api/icons/v1/png_71/shopping-71.png"}, {"rating": 3.9, "user_ratings_total": 8, "name": "Murugan store", "reference": "ChIJZwx-ZxlnUjoRvEeAkBtj0vU", "geometry": {"location": {"lat": 13.027221, "lng": 80.21490299999999}, "viewport": {"northeast": {"lat": 13.0286169802915, "lng": 80.2162555802915}, "southwest": {"lat": 13.0259190197085, "lng": 80.2135576197085}}}, "opening_hours": {"open_now": false}, "place_id": "ChIJZwx-ZxlnUjoRvEeAkBtj0vU", "plus_code": {"global_code": "7M5226G7+VX", "compound_code": "26G7+VX Chennai, Tamil Nadu, India"}, "vicinity": "22/143A, 4th Cross Street, Karpaga Vinayaka Nagar, Saidapet, Chennai", "photos": [{"photo_reference": "ATtYBwKrjQUxGIn7jRudOhZGXGmC_AwNdBhl_3bi6kd5FlWTfp0hFErVL1oz_vvr8NuBz5jttiNcAOOH90ERLFHq17ke0iqcD3i9uClH5B9ntoPloxnreCdsm5Os47dh5D71iKRZVU1gWxejjSYq4hnRjC_s94e2ys-FnskkiIccI1UxgjAm", "width": 3456, "html_attributions": ["<a href=\"https://maps.google.com/maps/contrib/106770234767411608104\">you tube knowledge</a>"], "height": 4608}], "scope": "GOOGLE", "business_status": "OPERATIONAL", "types": ["department_store", "point_of_interest", "store", "establishment"], "icon": "https://maps.gstatic.com/mapfiles/place_api/icons/v1/png_71/shopping-71.png"}, {"rating": 4, "user_ratings_total": 5, "name": "Sakthi Stores", "reference": "ChIJEa8GuxxnUjoRrUD6iElJwBU", "geometry": {"location": {"lat": 13.029842, "lng": 80.22008199999999}, "viewport": {"northeast": {"lat": 13.0311866302915, "lng": 80.2214830802915}, "southwest": {"lat": 13.0284886697085, "lng": 80.2187851197085}}}, "opening_hours": {"open_now": false}, "place_id": "ChIJEa8GuxxnUjoRrUD6iElJwBU", "plus_code": {"global_code": "7M5226HC+W2", "compound_code": "26HC+W2 Chennai, Tamil Nadu, India"}, "vicinity": "98, Kodambakkam Road, Mettupalayam, Ethiraj Nagar, West Mambalam, Chennai", "scope": "GOOGLE", "business_status": "OPERATIONAL", "types": ["department_store", "point_of_interest", "store", "establishment"], "icon": "https://maps.gstatic.com/mapfiles/place_api/icons/v1/png_71/shopping-71.png"}, {"rating": 4.7, "user_ratings_total": 6, "name": "Ananda Stores", "reference": "ChIJqfCzH0hnUjoRPDFKrVjqlz4", "geometry": {"location": {"lat": 13.010964, "lng": 80.197454}, "viewport": {"northeast": {"lat": 13.0123364302915, "lng": 80.1988006302915}, "southwest": {"lat": 13.0096384697085, "lng": 80.1961026697085}}}, "opening_hours": {"open_now": true}, "place_id": "ChIJqfCzH0hnUjoRPDFKrVjqlz4", "plus_code": {"global_code": "7M52256W+9X", "compound_code": "256W+9X Chennai, Tamil Nadu, India"}, "vicinity": "18, Karaiyar Koil Street, Ravi Colony, Gandhi Nagar, Chennai", "photos": [{"photo_reference": "ATtYBwIXr_XwV5voHcOQTpGueRzmV0vh7Jsr29EA6bbuJ3cNDhK7Rt7IDoj5YFq7rxN02TA6nE04Smw0ZBn0XH2w4DOI_yAkEYn1Op-Q4aD7wzWjV80Ft1ZvQWTnr-3_dqOG2IVM8e8oSX-NdXOtakMD4m8KBttS5TOa4DgwAV2SP9lSYS8b", "width": 3968, "html_attributions": ["<a href=\"https://maps.google.com/maps/contrib/116179760945325819407\">senthil kumar</a>"], "height": 2976}], "scope": "GOOGLE", "business_status": "OPERATIONAL", "types": ["department_store", "point_of_interest", "store", "establishment"], "icon": "https://maps.gstatic.com/mapfiles/place_api/icons/v1/png_71/shopping-71.png"}, {"rating": 5, "user_ratings_total": 9, "name": "Anandha Stores", "reference": "ChIJD4E05VpnUjoRFVAi9q3r-y0", "geometry": {"location": {"lat": 12.9977176, "lng": 80.20091339999999}, "viewport": {"northeast": {"lat": 12.9990866302915, "lng": 80.2022424302915}, "southwest": {"lat": 12.9963886697085, "lng": 80.19954446970848}}}, "opening_hours": {"open_now": false}, "place_id": "ChIJD4E05VpnUjoRFVAi9q3r-y0", "plus_code": {"global_code": "7M42X6X2+39", "compound_code": "X6X2+39 Chennai, Tamil Nadu, India"}, "vicinity": "270, MKN Road, Alandur, Chennai", "photos": [{"photo_reference": "ATtYBwKQ_1YSrOn_18yMtAd4toBwk8EdOUPT3TvxM6BMA6aXBM8I5P_cK_m9u7Hqy6CSZ6Mt4xFuD2EHV1QMwiiIoQvZ8zxxk2Nc3pIMcy_ssAlQyyXhE6g5iyorUCMJpZrbndOz3Z5OYd878TeIdtGBXQTFUJQfY50k96zmGqfClttcl7td", "width": 2048, "html_attributions": ["<a href=\"https://maps.google.com/maps/contrib/108982369374703730359\">Pradeep Raj</a>"], "height": 1152}], "scope": "GOOGLE", "business_status": "OPERATIONAL", "types": ["department_store", "point_of_interest", "store", "establishment"], "icon": "https://maps.gstatic.com/mapfiles/place_api/icons/v1/png_71/shopping-71.png"}, {"rating": 4, "user_ratings_total": 1, "name": "Sabreena Enterprises", "reference": "ChIJL8a1lKVnUjoR9TxFT6dAz_E", "geometry": {"location": {"lat": 13.0301484, "lng": 80.2340739}, "viewport": {"northeast": {"lat": 13.0314973802915, "lng": 80.23542293029149}, "southwest": {"lat": 13.0287994197085, "lng": 80.23272496970849}}}, "opening_hours": {"open_now": false}, "place_id": "ChIJL8a1lKVnUjoR9TxFT6dAz_E", "vicinity": "No-41, Fanpet 2nd Street, Nandanam, Nandanam, Chennai", "scope": "GOOGLE", "business_status": "OPERATIONAL", "types": ["department_store", "point_of_interest", "store", "establishment"], "icon": "https://maps.gstatic.com/mapfiles/place_api/icons/v1/png_71/shopping-71.png"}, {"rating": 3, "user_ratings_total": 4, "name": "Ritty Departmental Store", "reference": "ChIJE5dPjHJnUjoRs1cgsqpUaew", "geometry": {"location": {"lat": 13.0093909, "lng": 80.222006}, "viewport": {"northeast": {"lat": 13.0107329302915, "lng": 80.22336743029149}, "southwest": {"lat": 13.0080349697085, "lng": 80.22066946970848}}}, "opening_hours": {"open_now": false}, "place_id": "ChIJE5dPjHJnUjoRs1cgsqpUaew", "plus_code": {"global_code": "7M52265C+QR", "compound_code": "265C+QR Chennai, Tamil Nadu, India"}, "vicinity": "#106, Velachery Main Road, Guindy, Chennai", "scope": "GOOGLE", "business_status": "OPERATIONAL", "types": ["department_store", "point_of_interest", "store", "establishment"], "icon": "https://maps.gstatic.com/mapfiles/place_api/icons/v1/png_71/shopping-71.png"}, {"rating": 1, "user_ratings_total": 1, "name": "SARASWATHI STORES", "reference": "ChIJmwYb2uheUjoRcgW2AuKnQ3Y", "geometry": {"location": {"lat": 13.0024307, "lng": 80.2195582}, "viewport": {"northeast": {"lat": 13.0037822302915, "lng": 80.22090958029152}, "southwest": {"lat": 13.0010842697085, "lng": 80.21821161970851}}}, "opening_hours": {"open_now": false}, "place_id": "ChIJmwYb2uheUjoRcgW2AuKnQ3Y", "plus_code": {"global_code": "7M522629+XR", "compound_code": "2629+XR Chennai, Tamil Nadu, India"}, "vicinity": "NO.129.Velachery Main Road.Kamarajapuram, Chennai", "photos": [{"photo_reference": "ATtYBwKlfwFJvbozMcIzmXUkar4DxdX0kTtrYNnyO50XrrawOnaXp71324Sz7hHfC9QFwCe8ZNKhfnP0JA_g9P-MiCrJ0NNqWuf0zeSpZDY_OnNDKKxOSAAcTdsEApzVN3Rr1muttJYzEaJSaJKozFVEGMB3wyl06n8NZHp32j2RV6jI4HT0", "width": 2048, "html_attributions": ["<a href=\"https://maps.google.com/maps/contrib/102714160278186137596\">SARASWATHI STORES</a>"], "height": 1229}], "scope": "GOOGLE", "business_status": "OPERATIONAL", "types": ["department_store", "grocery_or_supermarket", "food", "point_of_interest", "store", "establishment"], "icon": "https://maps.gstatic.com/mapfiles/place_api/icons/v1/png_71/shopping-71.png"}, {"name": "Sri Ganesh General Stores", "reference": "ChIJdTxbpQ9nUjoR8irN9DFpAMM", "geometry": {"location": {"lat": 13.016507, "lng": 80.227397}, "viewport": {"northeast": {"lat": 13.0179633802915, "lng": 80.2286979802915}, "southwest": {"lat": 13.0152654197085, "lng": 80.2260000197085}}}, "opening_hours": {"open_now": true}, "place_id": "ChIJdTxbpQ9nUjoR8irN9DFpAMM", "plus_code": {"global_code": "7M52268G+JX", "compound_code": "268G+JX Chennai, Tamil Nadu, India"}, "vicinity": "No 14/41,Matha, Church Lane, Saidapet, Chennai", "photos": [{"photo_reference": "ATtYBwLIA_QdpnRmAxm_7o8P9zKYAdpUFFt8zcWxfBmf4p8dZFwvEWNfNMoSjd4ONl3o-D3AioCKEazllFj8TzwiepyIVYQHi81HPR6O25BG4tBGomOGbEvgEWhd9Vm-hAKzCBFuk5WvkWIurxnt_33zDSbYEYFKzom9NyCrIuZlbrOzYgDd", "width": 2048, "html_attributions": ["<a href=\"https://maps.google.com/maps/contrib/115128519578006791816\">Sri Ganesh General Stores</a>"], "height": 1536}], "scope": "GOOGLE", "business_status": "OPERATIONAL", "types": ["department_store", "grocery_or_supermarket", "food", "point_of_interest", "store", "establishment"], "icon": "https://maps.gstatic.com/mapfiles/place_api/icons/v1/png_71/shopping-71.png"}, {"name": "Saraswathy Maligal Store", "reference": "ChIJc3FFBxFnUjoRB9mEgpkYSU8", "geometry": {"location": {"lat": 13.0199401, "lng": 80.218254}, "viewport": {"northeast": {"lat": 13.0212963802915, "lng": 80.21953408029151}, "southwest": {"lat": 13.0185984197085, "lng": 80.2168361197085}}}, "opening_hours": {"open_now": false}, "place_id": "ChIJc3FFBxFnUjoRB9mEgpkYSU8", "plus_code": {"global_code": "7M522699+X8", "compound_code": "2699+X8 Chennai, Tamil Nadu, India"}, "vicinity": "20, Rajas Market, Saidapet, Saidapet, Chennai", "scope": "GOOGLE", "business_status": "OPERATIONAL", "types": ["department_store", "point_of_interest", "store", "establishment"], "icon": "https://maps.gstatic.com/mapfiles/place_api/icons/v1/png_71/shopping-71.png"}, {"name": "Sri Muthulaxmi Stores", "reference": "ChIJ2_SSzA9nUjoRVRkooBJvbeA", "geometry": {"location": {"lat": 13.02063, "lng": 80.221946}, "viewport": {"northeast": {"lat": 13.0219892802915, "lng": 80.2232889302915}, "southwest": {"lat": 13.0192913197085, "lng": 80.2205909697085}}}, "opening_hours": {"open_now": true}, "place_id": "ChIJ2_SSzA9nUjoRVRkooBJvbeA", "plus_code": {"global_code": "7M5226CC+7Q", "compound_code": "26CC+7Q Chennai, Tamil Nadu, India"}, "vicinity": "No., Bazaar Road, Saidapet, Chennai", "scope": "GOOGLE", "business_status": "OPERATIONAL", "types": ["department_store", "point_of_interest", "store", "establishment"], "icon": "https://maps.gstatic.com/mapfiles/place_api/icons/v1/png_71/shopping-71.png"}, {"name": "V.K.G. Cool Bar", "reference": "ChIJy_vZPA9nUjoREc4pLz730VA", "geometry": {"location": {"lat": 13.0208, "lng": 80.2219188}, "viewport": {"northeast": {"lat": 13.0220982302915, "lng": 80.2232978302915}, "southwest": {"lat": 13.0194002697085, "lng": 80.2205998697085}}}, "opening_hours": {"open_now": false}, "place_id": "ChIJy_vZPA9nUjoREc4pLz730VA", "plus_code": {"global_code": "7M5226CC+8Q", "compound_code": "26CC+8Q Chennai, Tamil Nadu, India"}, "vicinity": "No 35 Bazaar Road, Saidapet, Chennai", "scope": "GOOGLE", "business_status": "OPERATIONAL", "types": ["department_store", "point_of_interest", "store", "establishment"], "icon": "https://maps.gstatic.com/mapfiles/place_api/icons/v1/png_71/shopping-71.png"}, {"name": "Sri sathiya store", "reference": "ChIJC2dSKBdnUjoRHtqQmaFgsvc", "geometry": {"location": {"lat": 13.0203388, "lng": 80.2148586}, "viewport": {"northeast": {"lat": 13.0217208302915, "lng": 80.2162134302915}, "southwest": {"lat": 13.0190228697085, "lng": 80.2135154697085}}}, "opening_hours": {"open_now": false}, "place_id": "ChIJC2dSKBdnUjoRHtqQmaFgsvc", "plus_code": {"global_code": "7M5226C7+4W", "compound_code": "26C7+4W Chennai, Tamil Nadu, India"}, "vicinity": "130, VGP Road, Parsan Nagar, Saidapet, Chennai", "scope": "GOOGLE", "business_status": "OPERATIONAL", "types": ["department_store", "point_of_interest", "store", "establishment"], "icon": "https://maps.gstatic.com/mapfiles/place_api/icons/v1/png_71/shopping-71.png"}, {"rating": 4.5, "user_ratings_total": 4, "name": "Sri kannan palamuthiri cholai", "reference": "ChIJW6g43w9nUjoRDroH976sIe8", "geometry": {"location": {"lat": 13.021601, "lng": 80.221065}, "viewport": {"northeast": {"lat": 13.0229776802915, "lng": 80.2224144302915}, "southwest": {"lat": 13.0202797197085, "lng": 80.21971646970849}}}, "opening_hours": {"open_now": false}, "place_id": "ChIJW6g43w9nUjoRDroH976sIe8", "plus_code": {"global_code": "7M5226CC+JC", "compound_code": "26CC+JC Chennai, Tamil Nadu, India"}, "vicinity": "No 21/1 sowthraraswarar kovil street saidapet, Chennai", "photos": [{"photo_reference": "ATtYBwLVyqMLoNAGI1CZEVHaCPujeNTNF0se9iLhg_r-t9FLScaCo-5QLz5zzjWwt_r-rMthInfY17fyP5yLoDv0g-FXlW1kC067a2XIQpHluk6HfDyNTW3COYDzthclqKCqlFopTRFSGKr1e2W8yZNMIq7QNj5n6Jfr4zLf9BpY1AVpVcsd", "width": 2048, "html_attributions": ["<a href=\"https://maps.google.com/maps/contrib/110768366743073072255\">Sri kannan palamuthiri cholai</a>"], "height": 1152}], "scope": "GOOGLE", "business_status": "OPERATIONAL", "types": ["department_store", "point_of_interest", "store", "establishment"], "icon": "https://maps.gstatic.com/mapfiles/place_api/icons/v1/png_71/shopping-71.png"}, {"rating": 4.3, "user_ratings_total": 6, "name": "Muthu Store", "reference": "ChIJKwahLGhnUjoRwpbs96RMazs", "geometry": {"location": {"lat": 13.002901, "lng": 80.210184}, "viewport": {"northeast": {"lat": 13.0042508802915, "lng": 80.21151983029151}, "southwest": {"lat": 13.0015529197085, "lng": 80.2088218697085}}}, "opening_hours": {"open_now": false}, "place_id": "ChIJKwahLGhnUjoRwpbs96RMazs", "plus_code": {"global_code": "7M522636+53", "compound_code": "2636+53 Chennai, Tamil Nadu, India"}, "vicinity": "2/21, Extension 2nd Street, Narasingapuram Main Road, Narasingapuram, Guindy, Chennai", "photos": [{"photo_reference": "ATtYBwITq7sKmz8rY8OEqd7TytLjTD6_a2OszCddaCfJpqdNyWuFDzZbCJEV6heg6MhWr1Fjq8aLP93SxKyrXu1G73Jj2wSvWoUAa_Bj_f-6WPbedAQvGFDAu6M6LBDjh7I5VBS1JXPokamP5mhjaHfT4lYcDh7L6FFG_aexeCQkvKuk_8qj", "width": 1932, "html_attributions": ["<a href=\"https://maps.google.com/maps/contrib/106820483740803544138\">Ganesh Kumar</a>"], "height": 2576}], "scope": "GOOGLE", "business_status": "OPERATIONAL", "types": ["department_store", "point_of_interest", "store", "establishment"], "icon": "https://maps.gstatic.com/mapfiles/place_api/icons/v1/png_71/shopping-71.png"}, {"name": "Gowri Store", "reference": "ChIJ28YZvQ9nUjoRKThAaCio7r8", "geometry": {"location": {"lat": 13.0219926, "lng": 80.22125369999999}, "viewport": {"northeast": {"lat": 13.0234105302915, "lng": 80.22319703029149}, "southwest": {"lat": 13.0207125697085, "lng": 80.22049906970848}}}, "opening_hours": {"open_now": false}, "place_id": "ChIJ28YZvQ9nUjoRKThAaCio7r8", "plus_code": {"global_code": "7M5226CC+QG", "compound_code": "26CC+QG Chennai, Tamil Nadu, India"}, "vicinity": "1, V S Mudali Street, Suriyammapet, Saidapet, Chennai", "scope": "GOOGLE", "business_status": "OPERATIONAL", "types": ["department_store", "food", "point_of_interest", "store", "establishment"], "icon": "https://maps.gstatic.com/mapfiles/place_api/icons/v1/png_71/shopping-71.png"}, {"rating": 5, "user_ratings_total": 1, "name": "Sri vinayaga perumal", "reference": "ChIJf8pDHhBnUjoRCqHJqyaI9O0", "geometry": {"location": {"lat": 13.0221398, "lng": 80.220863}, "viewport": {"northeast": {"lat": 13.0235058802915, "lng": 80.2222116802915}, "southwest": {"lat": 13.0208079197085, "lng": 80.21951371970849}}}, "opening_hours": {"open_now": false}, "place_id": "ChIJf8pDHhBnUjoRCqHJqyaI9O0", "plus_code": {"global_code": "7M5226CC+V8", "compound_code": "26CC+V8 Chennai, Tamil Nadu, India"}, "vicinity": "1, V S Mudali Street, Suriyammapet, Saidapet, Chennai", "scope": "GOOGLE", "business_status": "OPERATIONAL", "types": ["department_store", "point_of_interest", "store", "establishment"], "icon": "https://maps.gstatic.com/mapfiles/place_api/icons/v1/png_71/shopping-71.png"}, {"name": "Ramani Cool & Snack", "reference": "ChIJ6zvSPA9nUjoRaQgYl4JjNLU", "geometry": {"location": {"lat": 13.021362, "lng": 80.225371}, "viewport": {"northeast": {"lat": 13.0227152302915, "lng": 80.2267323302915}, "southwest": {"lat": 13.0200172697085, "lng": 80.22403436970849}}}, "opening_hours": {"open_now": false}, "place_id": "ChIJ6zvSPA9nUjoRaQgYl4JjNLU", "plus_code": {"global_code": "7M5226CG+G4", "compound_code": "26CG+G4 Chennai, Tamil Nadu, India"}, "vicinity": "No 14, 11, Flower Street, Saidapet, Chennai", "photos": [{"photo_reference": "ATtYBwKDq1e6ZbVy9GWIO6OecT8krU_7GsqzTk8Y02GDma90VQ800pncU6qPJvjK7dmDmW7lt3YsNlMNE_MKGkWt1hogd71WgAjpma_aqv-c7L7Gwt1Q_x1xpgS7fQJRm8v1GlP1014cVCg_XJ4X6x-kNCoXtrJKS_RKzBFHrvjEOogFAwNi", "width": 2048, "html_attributions": ["<a href=\"https://maps.google.com/maps/contrib/101164573968010074040\">Ramani Cool &amp; Snack</a>"], "height": 1152}], "scope": "GOOGLE", "business_status": "OPERATIONAL", "types": ["department_store", "point_of_interest", "store", "establishment"], "icon": "https://maps.gstatic.com/mapfiles/place_api/icons/v1/png_71/shopping-71.png"}]}