{"status": "OK", "next_page_token": "ATtYBwJ4a44LPx9UsNHoPvu-Pg1yGvd26IWWdko-C4CRiqXIjnY3n5vgd1aEEv_bUWE1zpbDzXyMvpvBZmLVWTel2Xiy2Wjlg7SiHoAjECxoBILqf1DNPkz_lGyQtqvFTAw2L27CryLcxgrOjP9dZffHVvPpes2YxfH61ET1mSYB7gACz7WdDYjoc4d_f5-IxmTV0aI8J1rYpQhBS4lW1AZsZ2fAL3nUCSpJcUos2UipNGrONfEGxx7lIPX1ipm2AXdaMnknub-y-6WT4M9DegsTnNiBBkN6yWuUGbSMheL9QcdA49QQe9fQjI2KHTJvQW-X70n03-leBpAxQ5hNzHU4FeM33RNd9JZfTEAs2PwrIuJApiGhQzBsTR8IYMbTl3mElI_omq5Ui4zHFJZwat0Ghz5Fm-MClNOh_MEzfJqOHPm5TuBUF4uiBgieVb7O36Mt", "html_attributions": [], "results": [{"rating": 5, "user_ratings_total": 1, "name": "Chandamama Stores", "reference": "ChIJd90JzmFdUjoRGGXXo7inGOI", "geometry": {"location": {"lat": 12.9895003, "lng": 80.251386}, "viewport": {"northeast": {"lat": 12.9908232302915, "lng": 80.25259008029151}, "southwest": {"lat": 12.9881252697085, "lng": 80.24989211970849}}}, "place_id": "ChIJd90JzmFdUjoRGGXXo7inGOI", "vicinity": "362, Thiruvalluvar Nagar, 15th Cross Street, Thiruvanmiyur, Thiruvanmiyur, Chennai", "scope": "GOOGLE", "business_status": "OPERATIONAL", "types": ["department_store", "home_goods_store", "point_of_interest", "store", "establishment"], "icon": "https://maps.gstatic.com/mapfiles/place_api/icons/v1/png_71/shopping-71.png"}, {"rating": 4.4, "user_ratings_total": 250, "name": "Adyar Departmental Stores", "reference": "ChIJw9gZavBnUjoRf4tMT2BImlQ", "geometry": {"location": {"lat": 12.9985707, "lng": 80.2595482}, "viewport": {"northeast": {"lat": 12.9996576302915, "lng": 80.2608384302915}, "southwest": {"lat": 12.9969596697085, "lng": 80.2581404697085}}}, "opening_hours": {"open_now": false}, "place_id": "ChIJw9gZavBnUjoRf4tMT2BImlQ", "plus_code": {"global_code": "7M42X7X5+CR", "compound_code": "X7X5+CR Chennai, Tamil Nadu, India"}, "vicinity": "1st Main Road, Shastri Nagar, Adyar, Chennai", "photos": [{"photo_reference": "ATtYBwJQK-UZl2VEv_1rniN38F3OF5KAy1NzOSnNktiU-2sCNh-1A_H7e6pd8IGRY6h31XlENua5jWLzqaCmV_kYGHR7WVQhtCY1LG0gfzhb3-L1l4Gj7NtSa-DezKBtSrcUIxPnGYj0vq5TCY6s0fqS-6wKiyfzKtLF_WpN-ShYU8Aago4", "width": 4000, "html_attributions": ["<a href=\"https://maps.google.com/maps/contrib/109973502355024400586\">Manoj Kumar S</a>"], "height": 2250}], "scope": "GOOGLE", "business_status": "OPERATIONAL", "types": ["department_store", "point_of_interest", "store", "establishment"], "icon": "https://maps.gstatic.com/mapfiles/place_api/icons/v1/png_71/shopping-71.png"}, {"rating": 4.1, "user_ratings_total": 8, "name": "Manickam Stores", "reference": "ChIJH6apmvJnUjoRvRXZmi0k0CQ", "geometry": {"location": {"lat": 13.0004978, "lng": 80.2627109}, "viewport": {"northeast": {"lat": 13.0018351302915, "lng": 80.2640925802915}, "southwest": {"lat": 12.9991371697085, "lng": 80.2613946197085}}}, "opening_hours": {"open_now": false}, "place_id": "ChIJH6apmvJnUjoRvRXZmi0k0CQ", "plus_code": {"global_code": "7M522727+53", "compound_code": "2727+53 Chennai, Tamil Nadu, India"}, "vicinity": "4, Ellaiamman Koil Street, Shastri Nagar, Adyar, Chennai", "scope": "GOOGLE", "business_status": "OPERATIONAL", "types": ["department_store", "point_of_interest", "store", "establishment"], "icon": "https://maps.gstatic.com/mapfiles/place_api/icons/v1/png_71/shopping-71.png"}, {"rating": 4.2, "user_ratings_total": 17, "name": "Tamilnadu Departmental Stores", "reference": "ChIJKXYPOfpnUjoR8-QADKnioS4", "geometry": {"location": {"lat": 12.9977758, "lng": 80.2675812}, "viewport": {"northeast": {"lat": 12.9991600802915, "lng": 80.2689210802915}, "southwest": {"lat": 12.9964621197085, "lng": 80.26622311970849}}}, "opening_hours": {"open_now": true}, "place_id": "ChIJKXYPOfpnUjoR8-QADKnioS4", "plus_code": {"global_code": "7M42X7X9+42", "compound_code": "X7X9+42 Chennai, Tamil Nadu, India"}, "vicinity": "India", "photos": [{"photo_reference": "ATtYBwKMyWyg_R2s7YNDKUQvaFkyJCE8jkW0uwROTLED6WZpEPVGHwL48g74McvJyqRDHGf4cbCGO1uFKPMNxYnu51XonGJUuS-VPuH8_hWhUxd9s3aysYOS8m_3oumifvc88pySvI3_276ZG3CHDXlEb1ItbTZp2EsPC8u6_A2Sv1u4zZk6", "width": 3120, "html_attributions": ["<a href=\"https://maps.google.com/maps/contrib/109138488839108698924\">Pavithran Asokan</a>"], "height": 4160}], "scope": "GOOGLE", "business_status": "OPERATIONAL", "types": ["department_store", "point_of_interest", "store", "establishment"], "icon": "https://maps.gstatic.com/mapfiles/place_api/icons/v1/png_71/shopping-71.png"}, {"rating": 3.5, "user_ratings_total": 2, "name": "Rolex", "reference": "ChIJOV864vJnUjoRJwVl7JFzBrE", "geometry": {"location": {"lat": 12.9990998, "lng": 80.2562817}, "viewport": {"northeast": {"lat": 13.0004589302915, "lng": 80.25755908029151}, "southwest": {"lat": 12.9977609697085, "lng": 80.25486111970851}}}, "opening_hours": {"open_now": false}, "place_id": "ChIJOV864vJnUjoRJwVl7JFzBrE", "plus_code": {"global_code": "7M42X7X4+JG", "compound_code": "X7X4+JG Chennai, Tamil Nadu, India"}, "vicinity": "Doctor Muthu Lakshmi Road, Adyar, Chennai", "scope": "GOOGLE", "business_status": "OPERATIONAL", "types": ["department_store", "point_of_interest", "store", "establishment"], "icon": "https://maps.gstatic.com/mapfiles/place_api/icons/v1/png_71/shopping-71.png"}, {"name": "Kitchenkart", "reference": "ChIJ9cQs-c9nUjoRMbX4mMIvjE8", "geometry": {"location": {"lat": 13.025213, "lng": 80.265245}, "viewport": {"northeast": {"lat": 13.0265597302915, "lng": 80.2665968302915}, "southwest": {"lat": 13.0238617697085, "lng": 80.2638988697085}}}, "opening_hours": {"open_now": false}, "place_id": "ChIJ9cQs-c9nUjoRMbX4mMIvjE8", "plus_code": {"global_code": "7M5227G8+33", "compound_code": "27G8+33 Chennai, Tamil Nadu, India"}, "vicinity": "208, R K Mutt Road, Mandavelli, Chennai", "photos": [{"photo_reference": "ATtYBwJBpQmaJtUgZBV1HY8GPxXMrOLM4DwIwCUQCcf35F16_EPM0T4NUGXF_DpXuq6Jk_LqnpxDCplrp4Mf3AXs30OZOiVDyT7eVLj7fNHPubTUy4ta5Eq_tL-fK_p_bgnS8k54gxMTGAyF3GQPRjED97ekoPQV2TBHOSSq8y28iyEOttni", "width": 2048, "html_attributions": ["<a href=\"https://maps.google.com/maps/contrib/115385821914878061300\">Kitchenkart</a>"], "height": 1536}], "scope": "GOOGLE", "business_status": "OPERATIONAL", "types": ["department_store", "furniture_store", "home_goods_store", "point_of_interest", "store", "establishment"], "icon": "https://maps.gstatic.com/mapfiles/place_api/icons/v1/png_71/shopping-71.png"}, {"rating": 5, "user_ratings_total": 2, "name": "Shanmuga Store", "reference": "ChIJBcvXBnZoUjoR52bU45fx8N0", "geometry": {"location": {"lat": 13.0199189, "lng": 80.2771143}, "viewport": {"northeast": {"lat": 13.0212674302915, "lng": 80.2784670802915}, "southwest": {"lat": 13.0185694697085, "lng": 80.27576911970849}}}, "opening_hours": {"open_now": false}, "place_id": "ChIJBcvXBnZoUjoR52bU45fx8N0", "plus_code": {"global_code": "7M52279G+XR", "compound_code": "279G+XR Chennai, Tamil Nadu, India"}, "vicinity": "No. 14, Srinivasa Puram Road, Srinivasa Puram, Chennai", "scope": "GOOGLE", "business_status": "OPERATIONAL", "types": ["department_store", "point_of_interest", "store", "establishment"], "icon": "https://maps.gstatic.com/mapfiles/place_api/icons/v1/png_71/shopping-71.png"}, {"rating": 4, "user_ratings_total": 101, "name": "Rahman Grocery - \u0bb0\u0bb9\u0bcd\u0bae\u0bbe\u0ba9\u0bcd \u0bae\u0bb3\u0bbf\u0b95\u0bc8", "reference": "ChIJwwqkPddnUjoRhbB-sZtPh-M", "geometry": {"location": {"lat": 13.0260074, "lng": 80.27248519999999}, "viewport": {"northeast": {"lat": 13.0273572302915, "lng": 80.2737917802915}, "southwest": {"lat": 13.0246592697085, "lng": 80.2710938197085}}}, "opening_hours": {"open_now": false}, "place_id": "ChIJwwqkPddnUjoRhbB-sZtPh-M", "plus_code": {"global_code": "7M5227GC+CX", "compound_code": "27GC+CX Chennai, Tamil Nadu, India"}, "vicinity": "No.121, 72, 2nd Trust Main Road, Mandavelipakkam, Raja Annamalai Puram, Chennai", "photos": [{"photo_reference": "ATtYBwKl3COrEbNRkJBhNOR6PvuaU9YTYEI6i0Jz-7IWPdzy1IuC_RlYrB17Y4cH6SfCr3R89LURM_BJQzaVQRlyWdrAkx7AyzZBDDgrMAJCJmTCcR_PrBtHSRMNDJgFJIYxFPq07pgDaTk94lLfNMp4OVl67qxXbuonWofRXbgs7cXPPLtu", "width": 4032, "html_attributions": ["<a href=\"https://maps.google.com/maps/contrib/108912551272091239101\">Hariharan K</a>"], "height": 3024}], "scope": "GOOGLE", "business_status": "OPERATIONAL", "types": ["department_store", "point_of_interest", "store", "establishment"], "icon": "https://maps.gstatic.com/mapfiles/place_api/icons/v1/png_71/shopping-71.png"}, {"rating": 2.5, "user_ratings_total": 4, "name": "Rahman Stores", "reference": "ChIJSzvsu9FnUjoRQJqiL25LtxA", "geometry": {"location": {"lat": 13.0289204, "lng": 80.2673947}, "viewport": {"northeast": {"lat": 13.0302690302915, "lng": 80.26874528029151}, "southwest": {"lat": 13.0275710697085, "lng": 80.2660473197085}}}, "opening_hours": {"open_now": false}, "place_id": "ChIJSzvsu9FnUjoRQJqiL25LtxA", "plus_code": {"global_code": "7M5227H8+HX", "compound_code": "27H8+HX Chennai, Tamil Nadu, India"}, "vicinity": "No. 3/2, Adanjan Mudali Street, Mandavelipakkam, Raja Annamalai Puram, Chennai", "scope": "GOOGLE", "business_status": "OPERATIONAL", "types": ["department_store", "grocery_or_supermarket", "food", "point_of_interest", "store", "establishment"], "icon": "https://maps.gstatic.com/mapfiles/place_api/icons/v1/png_71/shopping-71.png"}, {"rating": 4.1, "user_ratings_total": 42, "name": "Farida Stores", "reference": "ChIJ423xiS1mUjoRJLHZB6vKQm8", "geometry": {"location": {"lat": 13.033026, "lng": 80.261999}, "viewport": {"northeast": {"lat": 13.0344202302915, "lng": 80.2633451802915}, "southwest": {"lat": 13.0317222697085, "lng": 80.26064721970849}}}, "opening_hours": {"open_now": false}, "place_id": "ChIJ423xiS1mUjoRJLHZB6vKQm8", "plus_code": {"global_code": "7M5227M6+6Q", "compound_code": "27M6+6Q Chennai, Tamil Nadu, India"}, "vicinity": "43/9, Dr Ranga Road, Mylapore, Mylapore, Chennai", "photos": [{"photo_reference": "ATtYBwLO_0BKTyunTEaUoCQN6JMLucb1ajJ6ejevzos3HpheZp6ZOKoxIm6oE3mAAIz1O8HE3IhF2pj4Vt_Uj1zREWYbXAmtIPZoU4WVHU8PWtbtwWMObdXSRj_Bj3TxCFCOsD-mhQ1TavFWAK0vKFYkst8kDL2NYyJDWqfx-bt5XsyE_2Cf", "width": 4000, "html_attributions": ["<a href=\"https://maps.google.com/maps/contrib/101004747930340184639\">Nirmala Chandrasekaran</a>"], "height": 3000}], "scope": "GOOGLE", "business_status": "OPERATIONAL", "types": ["department_store", "point_of_interest", "store", "establishment"], "icon": "https://maps.gstatic.com/mapfiles/place_api/icons/v1/png_71/shopping-71.png"}, {"rating": 4.2, "user_ratings_total": 9, "name": "AMUTHAM DEPARTMENTAL STORE", "reference": "ChIJ1eTbadJnUjoRK6GdN8CNIL0", "geometry": {"location": {"lat": 13.0326863, "lng": 80.26619939999999}, "viewport": {"northeast": {"lat": 13.0340538302915, "lng": 80.2675476802915}, "southwest": {"lat": 13.0313558697085, "lng": 80.2648497197085}}}, "opening_hours": {"open_now": false}, "place_id": "ChIJ1eTbadJnUjoRK6GdN8CNIL0", "plus_code": {"global_code": "7M5227M8+3F", "compound_code": "27M8+3F Chennai, Tamil Nadu, India"}, "vicinity": "4, Venkatesa Agraharam Road, Venkateswara Nagar, Mylapore, Chennai", "photos": [{"photo_reference": "ATtYBwK6aV6JiO7hj1wT-jRkK8PImqzrH1gzbnn3WZq_8-RXj6TCV7jKqmyX1nNiTj-Soa_0R3a_oNDX2GtP1mh2m4v-ZV1CLsLvihZnsgbjyAAzpbWT3ANYBvh-osDkAf1gm6iC1w6arfg5OH8TSs79mBFX_D5uyh-0DELFdgdNRAvUFeEI", "width": 3024, "html_attributions": ["<a href=\"https://maps.google.com/maps/contrib/108912551272091239101\">Hariharan K</a>"], "height": 4032}], "scope": "GOOGLE", "business_status": "OPERATIONAL", "types": ["department_store", "point_of_interest", "store", "establishment"], "icon": "https://maps.gstatic.com/mapfiles/place_api/icons/v1/png_71/shopping-71.png"}, {"rating": 3.8, "user_ratings_total": 6, "name": "Pandian Stores", "reference": "ChIJNSgXrNNnUjoRqQuRnG6hGOs", "geometry": {"location": {"lat": 13.0324879, "lng": 80.26793239999999}, "viewport": {"northeast": {"lat": 13.0338635802915, "lng": 80.2692856302915}, "southwest": {"lat": 13.0311656197085, "lng": 80.2665876697085}}}, "opening_hours": {"open_now": false}, "place_id": "ChIJNSgXrNNnUjoRqQuRnG6hGOs", "plus_code": {"global_code": "7M5227J9+X5", "compound_code": "27J9+X5 Chennai, Tamil Nadu, India"}, "vicinity": "23, South Mada Street, Alamelu Manga Puram, Sankarapuram, Mylapore, Chennai", "photos": [{"photo_reference": "ATtYBwKtftSrCKT88TvlrIdpTD_eeD2LTgshcc0YG5h9EBHiPjpqFDVEdRyT1omBqA9SE43M7_2vR_bSTIUeTut03a0bvR1BCi8ird4GIo0gj5gEk27psNR6ujUJX0HbubYq26FNGI2E7CIH2yFV7Mp_XJZ3qIV0JpwQa5jBwsmNni7PZYyh", "width": 1920, "html_attributions": ["<a href=\"https://maps.google.com/maps/contrib/106673673024812114707\">Arun Pandian</a>"], "height": 1080}], "scope": "GOOGLE", "business_status": "OPERATIONAL", "types": ["department_store", "home_goods_store", "point_of_interest", "store", "establishment"], "icon": "https://maps.gstatic.com/mapfiles/place_api/icons/v1/png_71/shopping-71.png"}, {"rating": 4, "user_ratings_total": 1, "name": "Amudham Departmental Store", "reference": "ChIJtxS_P15dUjoRmZcSMxcgX0I", "geometry": {"location": {"lat": 12.9862873, "lng": 80.25573589999999}, "viewport": {"northeast": {"lat": 12.9876743802915, "lng": 80.2570030302915}, "southwest": {"lat": 12.9849764197085, "lng": 80.2543050697085}}}, "opening_hours": {"open_now": false}, "place_id": "ChIJtxS_P15dUjoRmZcSMxcgX0I", "plus_code": {"global_code": "7M42X7P4+G7", "compound_code": "X7P4+G7 Chennai, Tamil Nadu, India"}, "vicinity": "Kamaraj Nagar, Thiruvanmiyur, Chennai", "scope": "GOOGLE", "business_status": "OPERATIONAL", "types": ["department_store", "point_of_interest", "store", "establishment"], "icon": "https://maps.gstatic.com/mapfiles/place_api/icons/v1/png_71/shopping-71.png"}, {"rating": 4.4, "user_ratings_total": 5, "name": "Popular Stores", "reference": "ChIJ423xiS1mUjoRwUPUh7dYvRU", "geometry": {"location": {"lat": 13.0322991, "lng": 80.26939}, "viewport": {"northeast": {"lat": 13.0336751302915, "lng": 80.27074283029151}, "southwest": {"lat": 13.0309771697085, "lng": 80.2680448697085}}}, "opening_hours": {"open_now": false}, "place_id": "ChIJ423xiS1mUjoRwUPUh7dYvRU", "plus_code": {"global_code": "7M5227J9+WQ", "compound_code": "27J9+WQ Chennai, Tamil Nadu, India"}, "vicinity": "18, South Mada Street, Sankarapuram, Mylapore, Chennai", "scope": "GOOGLE", "business_status": "OPERATIONAL", "types": ["department_store", "home_goods_store", "point_of_interest", "store", "establishment"], "icon": "https://maps.gstatic.com/mapfiles/place_api/icons/v1/png_71/shopping-71.png"}, {"name": "VR Traders", "reference": "ChIJG8sfG9RnUjoRiFB2HKV3HsE", "geometry": {"location": {"lat": 13.0314604, "lng": 80.27195309999999}, "viewport": {"northeast": {"lat": 13.0328179802915, "lng": 80.27330223029149}, "southwest": {"lat": 13.0301200197085, "lng": 80.27060426970849}}}, "opening_hours": {"open_now": false}, "place_id": "ChIJG8sfG9RnUjoRiFB2HKV3HsE", "plus_code": {"global_code": "7M5227JC+HQ", "compound_code": "27JC+HQ Chennai, Tamil Nadu, India"}, "vicinity": "No. 65, Chitrakulam North Street, Sankarapuram, Mylapore, Chennai", "scope": "GOOGLE", "business_status": "OPERATIONAL", "types": ["department_store", "point_of_interest", "store", "establishment"], "icon": "https://maps.gstatic.com/mapfiles/place_api/icons/v1/png_71/shopping-71.png"}, {"rating": 4.5, "user_ratings_total": 4, "name": "Kumaran stores", "reference": "ChIJuSSQtNVnUjoRFGnIg9OQRQM", "geometry": {"location": {"lat": 13.0301602, "lng": 80.2744759}, "viewport": {"northeast": {"lat": 13.0314743302915, "lng": 80.2757704802915}, "southwest": {"lat": 13.0287763697085, "lng": 80.27307251970849}}}, "opening_hours": {"open_now": false}, "place_id": "ChIJuSSQtNVnUjoRFGnIg9OQRQM", "plus_code": {"global_code": "7M5227JF+3Q", "compound_code": "27JF+3Q Chennai, Tamil Nadu, India"}, "vicinity": "No 67, 36, a, Appu Street, Mylapore, Chennai", "photos": [{"photo_reference": "ATtYBwI3Vczdp_NOF18J8D0f7sypS67xoike48xVpcvrm9mcHWfMakbo-vy_E7A6-GOaEKWD8hCddveSaTF_0w-RuLrUS8sKFhMZyRYDdhkAlYxitDlJmc7Vwr3tboiL-XwUo5S4c-piyiAW1X5u3r7bzHp6dIYPim2yBKbCj0ne94qJb_la", "width": 1976, "html_attributions": ["<a href=\"https://maps.google.com/maps/contrib/110374662468712772207\">Padmanabhan Pa</a>"], "height": 4135}], "scope": "GOOGLE", "business_status": "OPERATIONAL", "types": ["department_store", "point_of_interest", "store", "establishment"], "icon": "https://maps.gstatic.com/mapfiles/place_api/icons/v1/png_71/shopping-71.png"}, {"rating": 4.2, "user_ratings_total": 583, "name": "Fabindia", "reference": "ChIJLVI3R_lnUjoRfpKXEoGAois", "geometry": {"location": {"lat": 12.9956663, "lng": 80.269335}, "viewport": {"northeast": {"lat": 12.9969338302915, "lng": 80.27066793029151}, "southwest": {"lat": 12.9942358697085, "lng": 80.26796996970849}}}, "opening_hours": {"open_now": false}, "place_id": "ChIJLVI3R_lnUjoRfpKXEoGAois", "plus_code": {"global_code": "7M42X7W9+7P", "compound_code": "X7W9+7P Chennai, Tamil Nadu, India"}, "vicinity": "opp. Santosh Hospital, T-25, 7th Avenue, GOCHS Colony, Besant Nagar, Chennai", "photos": [{"photo_reference": "ATtYBwIZwMUgEju9bm9ADOKWzxswchOCcZY3nf_KbCtbjHqiunyVNldpGwGA5h9w7iPMc2zfo16Ia7xNITeXMdOP2CNHU_jEipUlxyLbPDZ7lxYHYKyq9UoAcwG6fMCunpNww7ITXe2_iTlL5LkNQspCFMc2X1JvUwu1p8vJdV7Fkz_i3ZZF", "width": 493, "html_attributions": ["<a href=\"https://maps.google.com/maps/contrib/112030476200077676440\">Fabindia</a>"], "height": 1040}], "scope": "GOOGLE", "business_status": "OPERATIONAL", "types": ["department_store", "furniture_store", "home_goods_store", "point_of_interest", "clothing_store", "store", "establishment"], "icon": "https://maps.gstatic.com/mapfiles/place_api/icons/v1/png_71/shopping-71.png"}, {"rating": 3.6, "user_ratings_total": 328, "name": "Spencers Daily", "reference": "ChIJNQzShPlnUjoRuGHrM8r94x0", "geometry": {"location": {"lat": 12.9960955, "lng": 80.2678586}, "viewport": {"northeast": {"lat": 12.9974506302915, "lng": 80.2691318802915}, "southwest": {"lat": 12.9947526697085, "lng": 80.26643391970849}}}, "opening_hours": {"open_now": false}, "place_id": "ChIJNQzShPlnUjoRuGHrM8r94x0", "plus_code": {"global_code": "7M42X7W9+C4", "compound_code": "X7W9+C4 Chennai, Tamil Nadu, India"}, "vicinity": "E28A, 2nd Avenue, Besant Nagar, Chennai", "photos": [{"photo_reference": "ATtYBwLPux86aPiIRA4KXhJObmTpbi5yBxF5MGwcT7_SSwnIYzgK9ShbSAPS2gOx10TWCdChOucfx2nln_spKJU82Zg-8ySfOX9n4YDhOFOC6410db-Vj1Kdt8GpSZ82iow66yRCVsb0Rin5ns4iB8dKpywHv6drzq5mS2P6D_9tcslwZsj1", "width": 1920, "html_attributions": ["<a href=\"https://maps.google.com/maps/contrib/116903634558904228029\">Sheikh Mushtaq</a>"], "height": 1080}], "scope": "GOOGLE", "business_status": "OPERATIONAL", "types": ["supermarket", "department_store", "grocery_or_supermarket", "food", "point_of_interest", "store", "establishment"], "icon": "https://maps.gstatic.com/mapfiles/place_api/icons/v1/png_71/shopping-71.png"}, {"rating": 1, "user_ratings_total": 1, "name": "New Thangam Stores", "reference": "ChIJg2Z4WulnUjoRHRsfUSrUIkw", "geometry": {"location": {"lat": 13.008439, "lng": 80.260498}, "viewport": {"northeast": {"lat": 13.0097905802915, "lng": 80.26184713029151}, "southwest": {"lat": 13.0070926197085, "lng": 80.2591491697085}}}, "opening_hours": {"open_now": true}, "place_id": "ChIJg2Z4WulnUjoRHRsfUSrUIkw", "plus_code": {"global_code": "7M522756+95", "compound_code": "2756+95 Chennai, Tamil Nadu, India"}, "vicinity": "20, bala arunachalam street, old washermenpet, Chennai", "scope": "GOOGLE", "business_status": "OPERATIONAL", "types": ["department_store", "point_of_interest", "store", "establishment"], "icon": "https://maps.gstatic.com/mapfiles/place_api/icons/v1/png_71/shopping-71.png"}, {"name": "Uma stores", "reference": "ChIJy5KcvetnUjoReGDHsf0iVUI", "geometry": {"location": {"lat": 13.0091064, "lng": 80.25816189999999}, "viewport": {"northeast": {"lat": 13.0104637802915, "lng": 80.25939823029151}, "southwest": {"lat": 13.0077658197085, "lng": 80.25670026970849}}}, "opening_hours": {"open_now": false}, "place_id": "ChIJy5KcvetnUjoReGDHsf0iVUI", "plus_code": {"global_code": "7M522755+J7", "compound_code": "2755+J7 Chennai, Tamil Nadu, India"}, "vicinity": "37/1, 1st Main Road, Shastri Nagar, Adyar, Chennai", "scope": "GOOGLE", "business_status": "OPERATIONAL", "types": ["department_store", "point_of_interest", "store", "establishment"], "icon": "https://maps.gstatic.com/mapfiles/place_api/icons/v1/png_71/shopping-71.png"}]}