{"status": "OK", "html_attributions": [], "results": [{"name": "Market99", "reference": "ChIJ91QRNzPH5zsRP_6m4zt2vp4", "geometry": {"location": {"lat": 19.1282595, "lng": 72.9405039}, "viewport": {"northeast": {"lat": 19.1296084802915, "lng": 72.9418528802915}, "southwest": {"lat": 19.1269105197085, "lng": 72.9391549197085}}}, "place_id": "ChIJ91QRNzPH5zsRP_6m4zt2vp4", "plus_code": {"global_code": "7JFJ4WHR+86", "compound_code": "4WHR+86 Thane West, Thane, Maharashtra, India"}, "vicinity": "Korum Mall, Unit NO. - 04, Lower Ground Floor, Eastern Express Highway, Samata Nagar, Thane West", "scope": "GOOGLE", "business_status": "OPERATIONAL", "types": ["department_store", "point_of_interest", "store", "establishment"], "icon": "https://maps.gstatic.com/mapfiles/place_api/icons/v1/png_71/shopping-71.png"}, {"rating": 4, "user_ratings_total": 393, "name": "Pravin's Mart", "reference": "ChIJ_c_FyaLH5zsRr5rBXGQQ5Wg", "geometry": {"location": {"lat": 19.1119495, "lng": 72.9346996}, "viewport": {"northeast": {"lat": 19.1132850802915, "lng": 72.93607798029151}, "southwest": {"lat": 19.11058711970849, "lng": 72.9333800197085}}}, "opening_hours": {"open_now": true}, "place_id": "ChIJ_c_FyaLH5zsRr5rBXGQQ5Wg", "plus_code": {"global_code": "7JFJ4W6M+QV", "compound_code": "4W6M+QV Mumbai, Maharashtra, India"}, "vicinity": "opp. Bldg.No.32, Shop No.7,8,9, Mhada Shopping Centre, opp. Bldg.No.32, Kannamwar Nagar I, Vikhroli, Mumbai", "photos": [{"photo_reference": "CmRaAAAARx5vlBoDHNSKopygWjEZkTjHNGGUoVGjrabs6v8J8YY-e4OdauUEZuM0c_MmS4PY0laIuznhngn9npaTBq9DlArGumfJVWuzpjodZen6O6EYFyQn0_FX3Am8f3Wr3yXOEhBBFutRF4-CtOLIJzK5wcvrGhQe-NEiJDtgIZIeIdE1FnGXLMY1kQ", "width": 4608, "html_attributions": ["<a href=\"https://maps.google.com/maps/contrib/103785111291720368706\">Puru Khilari</a>"], "height": 2592}], "scope": "GOOGLE", "business_status": "OPERATIONAL", "types": ["department_store", "food", "point_of_interest", "store", "establishment"], "icon": "https://maps.gstatic.com/mapfiles/place_api/icons/v1/png_71/shopping-71.png"}, {"name": "Super Bazar", "reference": "ChIJq6qqapfH5zsRqAoXnmhjssA", "geometry": {"location": {"lat": 19.1128942, "lng": 72.93107909999999}, "viewport": {"northeast": {"lat": 19.1142773802915, "lng": 72.93243723029151}, "southwest": {"lat": 19.11157941970849, "lng": 72.92973926970849}}}, "place_id": "ChIJq6qqapfH5zsRqAoXnmhjssA", "plus_code": {"global_code": "7JFJ4W7J+5C", "compound_code": "4W7J+5C Mumbai, Maharashtra, India"}, "vicinity": "Shop No. 13, Tagore Nagar, Sector 1, Station Road, Vikhroli East, Mumbai - 400083", "scope": "GOOGLE", "business_status": "OPERATIONAL", "types": ["department_store", "point_of_interest", "store", "establishment"], "icon": "https://maps.gstatic.com/mapfiles/place_api/icons/v1/png_71/shopping-71.png"}]}