{"status": "OK", "html_attributions": [], "results": [{"name": "Sheetal Stores", "reference": "ChIJO7yNOgm25zsRxu6mBojAOIM", "geometry": {"location": {"lat": 19.1397656, "lng": 72.80937340000001}, "viewport": {"northeast": {"lat": 19.1411197302915, "lng": 72.8107333302915}, "southwest": {"lat": 19.1384217697085, "lng": 72.80803536970849}}}, "place_id": "ChIJO7yNOgm25zsRxu6mBojAOIM", "vicinity": "Shop No 19, Amit Nagar, Near New India Co-Op Bank Ltd, Yari Road, Versova, Andheri West, Yari Road, Mumbai", "scope": "GOOGLE", "business_status": "OPERATIONAL", "types": ["department_store", "point_of_interest", "store", "establishment"], "icon": "https://maps.gstatic.com/mapfiles/place_api/icons/v1/png_71/shopping-71.png"}, {"name": "La Shoppee", "reference": "ChIJO7yNOgm25zsR7fz2R9ZF-3k", "geometry": {"location": {"lat": 19.1397656, "lng": 72.80937340000001}, "viewport": {"northeast": {"lat": 19.1411197302915, "lng": 72.8107333302915}, "southwest": {"lat": 19.1384217697085, "lng": 72.80803536970849}}}, "place_id": "ChIJO7yNOgm25zsR7fz2R9ZF-3k", "vicinity": "Silver Sands, C H S Limited, Shop No 4/B, Yari Road, Bus Depot, Andheri West, Yari Road, Mumbai", "scope": "GOOGLE", "business_status": "OPERATIONAL", "types": ["department_store", "point_of_interest", "store", "establishment"], "icon": "https://maps.gstatic.com/mapfiles/place_api/icons/v1/png_71/shopping-71.png"}, {"rating": 4.7, "user_ratings_total": 3, "name": "Real Choice Super Market", "reference": "ChIJO7yNOgm25zsRr31pVjmac3s", "geometry": {"location": {"lat": 19.1384605, "lng": 72.80987429999999}, "viewport": {"northeast": {"lat": 19.1398209302915, "lng": 72.81124993029151}, "southwest": {"lat": 19.1371229697085, "lng": 72.8085519697085}}}, "opening_hours": {"open_now": true}, "place_id": "ChIJO7yNOgm25zsRr31pVjmac3s", "plus_code": {"global_code": "7JFJ4RQ5+9W", "compound_code": "4RQ5+9W Mumbai, Maharashtra, India"}, "vicinity": "Shop No 2, Nirman Cottage, Yari Road, Versova, Andheri West, Mumbai", "photos": [{"photo_reference": "CmRaAAAAe7sdcXGR7XzEDQByy31Y3HfM08p0jAOCwHrHrl8V2IUSzLpdBol7PKeKdtmqgihjBNLKFWa0mrZbgTFoAPf4dDypB2rSezP6egzPGxyqC4wX6X5nQFHa5GaV8hmVWvNNEhCeeDLYtJns2XKEyLEypQ7UGhRN8GtnawMslqJ1t2Z-cKYcUcB6sg", "width": 4128, "html_attributions": ["<a href=\"https://maps.google.com/maps/contrib/109493133528966097537\">Navin Gandhi</a>"], "height": 3096}], "scope": "GOOGLE", "business_status": "OPERATIONAL", "types": ["department_store", "point_of_interest", "store", "establishment"], "icon": "https://maps.gstatic.com/mapfiles/place_api/icons/v1/png_71/shopping-71.png"}, {"rating": 5, "user_ratings_total": 1, "name": "Ramdev Super Shop", "reference": "ChIJuZiDEA-25zsRbcokHX1-WMg", "geometry": {"location": {"lat": 19.1385659, "lng": 72.8121507}, "viewport": {"northeast": {"lat": 19.1398120302915, "lng": 72.81354113029151}, "southwest": {"lat": 19.1371140697085, "lng": 72.81084316970849}}}, "opening_hours": {"open_now": true}, "place_id": "ChIJuZiDEA-25zsRbcokHX1-WMg", "plus_code": {"global_code": "7JFJ4RQ6+CV", "compound_code": "4RQ6+CV Mumbai, Maharashtra, India"}, "vicinity": "Door No. D - 3, Society 83, S. V. P Nagar, Andheri West, Versova, Mumbai - 400061", "scope": "GOOGLE", "business_status": "OPERATIONAL", "types": ["department_store", "point_of_interest", "store", "establishment"], "icon": "https://maps.gstatic.com/mapfiles/place_api/icons/v1/png_71/shopping-71.png"}]}