{"status": "OK", "next_page_token": "ATtYBwIIyqQUJtlh5vl_otBfWxIdNXy3vNX3NQKCr5B4LDgqNp7m5AN1YN5XvYD5UIILT7oEX9aiwAg6sKUBXMrpolNxuBbqhjtRfPecyHtDkimyiDkQO8Jc2dIhrYAeTmWCKha7ewZSFxxKT-cZq2wTBOzIM0jcJZg6JW4yxaRzonkvES5J_0k0AGEr_L5KK5o-X2_BoEDStW82ghQWa78Tfhss8ZC4299yDEfxcvLAdwlxagC6hSYa5-ASqgivjsN7Z_RRZgnMcsmPk3gfvv0Oq7PsG8Ip_avkgZ-RxQysVLakYhXw9Kp6XHUZ7dvTuD48_g4Zh_6LTjanznfLCozPjX2eMLU4h9RuYCGQ8DWpmrowniy60mi8pQyq6o59EpfbZ3yjxLdNo2BOES_5wqkXPCwbe88F2h55AYMpsAjeg8G0gIlu", "html_attributions": [], "results": [{"name": "Axis Bank ATM", "reference": "ChIJQSgGc5AlDTkRi2J9JgBSpYk", "geometry": {"location": {"lat": 28.4096899, "lng": 77.03883499999999}, "viewport": {"northeast": {"lat": 28.4110822802915, "lng": 77.04016713029151}, "southwest": {"lat": 28.4083843197085, "lng": 77.03746916970849}}}, "opening_hours": {"open_now": true}, "place_id": "ChIJQSgGc5AlDTkRi2J9JgBSpYk", "plus_code": {"global_code": "7JWVC25Q+VG", "compound_code": "C25Q+VG Gurugram, Haryana, India"}, "vicinity": "Ward No, near Hdfc Icici Bank, 5, Sohna Road, Sector 48, Gurugram", "scope": "GOOGLE", "business_status": "OPERATIONAL", "types": ["atm", "bank", "finance", "point_of_interest", "establishment"], "icon": "https://maps.gstatic.com/mapfiles/place_api/icons/v1/png_71/atm-71.png"}, {"rating": 3.5, "user_ratings_total": 8, "name": "Bank Of Maharashtra", "reference": "ChIJ5SSfmJAiDTkRv4usKhRP9-k", "geometry": {"location": {"lat": 28.4109171, "lng": 77.04063359999999}, "viewport": {"northeast": {"lat": 28.4122600802915, "lng": 77.04195243029149}, "southwest": {"lat": 28.40956211970849, "lng": 77.03925446970848}}}, "opening_hours": {"open_now": false}, "place_id": "ChIJ5SSfmJAiDTkRv4usKhRP9-k", "plus_code": {"global_code": "7JWVC26R+97", "compound_code": "C26R+97 Gurugram, Haryana, India"}, "vicinity": "Sector-48, Sohna Road GF, 16, Scottish Mall Gurgaon, Gurugram", "photos": [{"photo_reference": "ATtYBwKaNJB7wrwsc7lGehSEgrYFhhN_JS8CALnXHtIgzP3_ZNv_7Ti8ZxLMKFybf76t-epiyW7iUxU__QDQi8OYA9P_PQM-yti82nLGUTqPVC0W2OB4b4Sh5xqKOcE5CnigpqKs8KG6BiaNOEOio8YPvc9Yogy6VneSU34R0P7lpzzP1O7q", "width": 2340, "html_attributions": ["<a href=\"https://maps.google.com/maps/contrib/100388959950408936533\">Abhishek Agrawal</a>"], "height": 4160}], "scope": "GOOGLE", "business_status": "OPERATIONAL", "types": ["bank", "finance", "point_of_interest", "establishment"], "icon": "https://maps.gstatic.com/mapfiles/place_api/icons/v1/png_71/bank-71.png"}, {"rating": 1.5, "user_ratings_total": 2, "name": "Axis Bank ATM", "reference": "ChIJDZh-oJolDTkR4nh7yo01kXg", "geometry": {"location": {"lat": 28.4096369, "lng": 77.03884479999999}, "viewport": {"northeast": {"lat": 28.4109860302915, "lng": 77.0400968302915}, "southwest": {"lat": 28.4082880697085, "lng": 77.03739886970848}}}, "opening_hours": {"open_now": true}, "place_id": "ChIJDZh-oJolDTkR4nh7yo01kXg", "plus_code": {"global_code": "7JWVC25Q+VG", "compound_code": "C25Q+VG Gurugram, Haryana, India"}, "vicinity": "Ward No, near Hdfc Icici Bank, 5, Sohna Road, Sector 48, Gurugram", "photos": [{"photo_reference": "ATtYBwJzYsA6cUE9iiQDbffpQm5E_xOdcwr9mEQEYCWRTZkWiTtZDG6wD_Gp-jeyMj5GVYm4F6IMUrRbTRo-BPhjOr1tD8dzEixi1VSao_Y4-8QCdU437Ufm3EwjVYr3pARDC6mbEYVKCcj2LxiHax7S59s1VKSaTLYf0eph-dM0XwMgOe-0", "width": 4032, "html_attributions": ["<a href=\"https://maps.google.com/maps/contrib/101166329696923557320\">Anshul D Jha</a>"], "height": 3024}], "scope": "GOOGLE", "business_status": "OPERATIONAL", "types": ["atm", "bank", "finance", "point_of_interest", "establishment"], "icon": "https://maps.gstatic.com/mapfiles/place_api/icons/v1/png_71/atm-71.png"}, {"rating": 3, "user_ratings_total": 5, "name": "IndusInd Bank", "reference": "ChIJaZhsi5oiDTkRI5gdB_DLKW4", "geometry": {"location": {"lat": 28.412668, "lng": 77.042555}, "viewport": {"northeast": {"lat": 28.4138373802915, "lng": 77.04385428029151}, "southwest": {"lat": 28.4111394197085, "lng": 77.0411563197085}}}, "opening_hours": {"open_now": true}, "place_id": "ChIJaZhsi5oiDTkRI5gdB_DLKW4", "plus_code": {"global_code": "7JWVC27V+32", "compound_code": "C27V+32 Gurugram, Haryana, India"}, "vicinity": "Ground Floor, Shop No. A-12a, A-15, A-19, Omaxe City Centre, Sector-49, Sohna Road, Gurugram", "scope": "GOOGLE", "business_status": "OPERATIONAL", "types": ["bank", "atm", "finance", "point_of_interest", "establishment"], "icon": "https://maps.gstatic.com/mapfiles/place_api/icons/v1/png_71/bank-71.png"}, {"rating": 4, "user_ratings_total": 4, "name": "Andhra Bank", "reference": "ChIJ__8_6poiDTkRdxK9HShPDcQ", "geometry": {"location": {"lat": 28.4133448, "lng": 77.0434034}, "viewport": {"northeast": {"lat": 28.4148007302915, "lng": 77.04474678029152}, "southwest": {"lat": 28.4121027697085, "lng": 77.0420488197085}}}, "opening_hours": {"open_now": false}, "place_id": "ChIJ__8_6poiDTkRdxK9HShPDcQ", "plus_code": {"global_code": "7JWVC27V+89", "compound_code": "C27V+89 Gurugram, Haryana, India"}, "vicinity": "322B, Sohna Road, Sector 49, Gurugram", "scope": "GOOGLE", "business_status": "OPERATIONAL", "types": ["bank", "finance", "point_of_interest", "establishment"], "icon": "https://maps.gstatic.com/mapfiles/place_api/icons/v1/png_71/bank-71.png"}, {"rating": 4, "user_ratings_total": 8, "name": "Andhra Bank", "reference": "ChIJ0dDI5JciDTkRMuoaAvJLbfg", "geometry": {"location": {"lat": 28.409972, "lng": 77.0338879}, "viewport": {"northeast": {"lat": 28.41145518029151, "lng": 77.0352046302915}, "southwest": {"lat": 28.40875721970851, "lng": 77.03250666970848}}}, "opening_hours": {"open_now": false}, "place_id": "ChIJ0dDI5JciDTkRMuoaAvJLbfg", "plus_code": {"global_code": "7JWVC25M+XH", "compound_code": "C25M+XH Gurugram, Haryana, India"}, "vicinity": "Spaze Privy, CD Marg, Fazilpur Road, Gurugram", "photos": [{"photo_reference": "ATtYBwLn6zHJKwQHbVxVhr6W4lidL9TdmTtd_xz76-WTlxH3IW-EEMU22UA5N6E22owIAuoCWloa6tX0a72bCMTHv9wobB5unuC8YxstVQ35UXhqu4OIJlKCYIzyuRYs0trRyf4KWbDF-P1JiDmGC1JAVr3MHiDeh6xiwdWTtj23FSfEP_aa", "width": 4608, "html_attributions": ["<a href=\"https://maps.google.com/maps/contrib/101152085288208057122\">hemant sharma</a>"], "height": 3456}], "scope": "GOOGLE", "business_status": "OPERATIONAL", "types": ["bank", "finance", "point_of_interest", "establishment"], "icon": "https://maps.gstatic.com/mapfiles/place_api/icons/v1/png_71/bank-71.png"}, {"rating": 2.5, "user_ratings_total": 36, "name": "ICICI Bank Universal Trade Tower, Gurgaon - Branch & ATM", "reference": "ChIJzVbNp5siDTkRwBoI_h9OGIw", "geometry": {"location": {"lat": 28.4151223, "lng": 77.0418814}, "viewport": {"northeast": {"lat": 28.4164490302915, "lng": 77.0431297302915}, "southwest": {"lat": 28.4137510697085, "lng": 77.04043176970849}}}, "opening_hours": {"open_now": false}, "place_id": "ChIJzVbNp5siDTkRwBoI_h9OGIw", "plus_code": {"global_code": "7JWVC28R+2Q", "compound_code": "C28R+2Q Gurugram, Haryana, India"}, "vicinity": "Universal Trade Tower, Sector 49, Sohna Road, Sohna Road, Block S, Sispal Vihar, Sector 49, Gurugram", "photos": [{"photo_reference": "ATtYBwLWqr-EET-grvVMKvKp1M18TM_jFfLX-roJ6X7-x_U697mH1UpH8P3AbdJaTj-Y_mddy6Te5tkIyd6cVyKqtiHQV-dCDaK3vu5Fmex4URITcnKEXDh4pfDxJIkPOb5pbYtpO6DTo1peOW57bgJ59arXx7Lu6hTm-_OjMpvhyJF6Dn9g", "width": 4608, "html_attributions": ["<a href=\"https://maps.google.com/maps/contrib/113659349923481713546\">Shailesh Kumar</a>"], "height": 3456}], "scope": "GOOGLE", "business_status": "OPERATIONAL", "types": ["bank", "atm", "finance", "point_of_interest", "establishment"], "icon": "https://maps.gstatic.com/mapfiles/place_api/icons/v1/png_71/bank-71.png"}, {"rating": 5, "user_ratings_total": 1, "name": "YES Bank ATM", "reference": "ChIJVz6OAZIiDTkRd3h9YEhYJLc", "geometry": {"location": {"lat": 28.4064715, "lng": 77.0446628}, "viewport": {"northeast": {"lat": 28.4079673802915, "lng": 77.0460755802915}, "southwest": {"lat": 28.4052694197085, "lng": 77.0433776197085}}}, "opening_hours": {"open_now": true}, "place_id": "ChIJVz6OAZIiDTkRd3h9YEhYJLc", "plus_code": {"global_code": "7JWVC24V+HV", "compound_code": "C24V+HV Gurugram, Haryana, India"}, "vicinity": "Unit No 5, Vatika Business Park, Block 2, Sohna - Gurgaon Road, Badshahpur, Sector 49, Gurugram", "photos": [{"photo_reference": "ATtYBwKZ_9pjfWBhsGfEOv9s8zYyV44nlqwJdqfzhInGzYgic3oY-E_dQQoXeIv9Qq-6f0pQDGAR1KQF2RXM-AgJpSNlNpgq_6E2LIN0BBrEp761prZiVc5GMmpz_uXkaU2pVh2QNVmM2NAIY5FINHX51287lum3NoGLB6hvhUj5VbkKrnfr", "width": 400, "html_attributions": ["<a href=\"https://maps.google.com/maps/contrib/112397917902523258771\">YES Bank ATM</a>"], "height": 400}], "scope": "GOOGLE", "business_status": "OPERATIONAL", "types": ["atm", "bank", "finance", "point_of_interest", "establishment"], "icon": "https://maps.gstatic.com/mapfiles/place_api/icons/v1/png_71/atm-71.png"}, {"rating": 3.5, "user_ratings_total": 30, "name": "HDFC Bank", "reference": "ChIJw1ca8JEiDTkR49mZZrjeD2g", "geometry": {"location": {"lat": 28.4064715, "lng": 77.0446628}, "viewport": {"northeast": {"lat": 28.4079736302915, "lng": 77.0460568302915}, "southwest": {"lat": 28.4052756697085, "lng": 77.0433588697085}}}, "opening_hours": {"open_now": false}, "place_id": "ChIJw1ca8JEiDTkR49mZZrjeD2g", "plus_code": {"global_code": "7JWVC24V+HV", "compound_code": "C24V+HV Gurugram, Haryana, India"}, "vicinity": "Vatika Business Park, Sohna - Gurgaon Road, Badshahpur, Sector 49, Gurugram", "photos": [{"photo_reference": "ATtYBwKYl9-BlVTNrEURgvkNNaJ3Y14T-VHovwj4UqxsxYwl3V7DgZJ6g_0nKkWSHGvv4AUHlBNb9nFxoCNu__3vwM3H3R4LUyb_kSsNPQeSEWEqTJjXOXec88CQ4OObw2VtP51qBI5Vf1r7QmD_xMm3POqxOP__T8XwTWghD50BnNLTXXOL", "width": 3120, "html_attributions": ["<a href=\"https://maps.google.com/maps/contrib/103889946338261454137\">Jithin Baby</a>"], "height": 4160}], "scope": "GOOGLE", "business_status": "OPERATIONAL", "types": ["bank", "finance", "point_of_interest", "establishment"], "icon": "https://maps.gstatic.com/mapfiles/place_api/icons/v1/png_71/bank-71.png"}, {"rating": 3.6, "user_ratings_total": 26, "name": "Punjab National Bank", "reference": "ChIJUQF2-pEiDTkR1CIxHcjk9WA", "geometry": {"location": {"lat": 28.40634, "lng": 77.0446327}, "viewport": {"northeast": {"lat": 28.4076461302915, "lng": 77.0457481802915}, "southwest": {"lat": 28.4049481697085, "lng": 77.04305021970849}}}, "opening_hours": {"open_now": false}, "place_id": "ChIJUQF2-pEiDTkR1CIxHcjk9WA", "plus_code": {"global_code": "7JWVC24V+GV", "compound_code": "C24V+GV Gurugram, Haryana, India"}, "vicinity": "Vatika Business Park, Ground Floor, Block A, Gurgaon, Sector 49, Gurugram", "photos": [{"photo_reference": "ATtYBwIAppjcp-bDO__EQYBQDhXPKfZ9V_2rGEO0NzlHm5gBfSPDb171btn5pUhWpPk4I6R5sWZ_mTd5HiJE7uPBlpyZn9yTvG2peCEatorE4cKwxsePmJgl_rycbUkA81esov4FJXLP1I3gcM5373FRle3Oa0PRmHM6L-RTcmcd12QIbwkx", "width": 2340, "html_attributions": ["<a href=\"https://maps.google.com/maps/contrib/101672012067083212393\">Mamta Yadav</a>"], "height": 4160}], "scope": "GOOGLE", "business_status": "OPERATIONAL", "types": ["bank", "finance", "point_of_interest", "establishment"], "icon": "https://maps.gstatic.com/mapfiles/place_api/icons/v1/png_71/bank-71.png"}, {"rating": 3.3, "user_ratings_total": 11, "name": "YES Bank", "reference": "ChIJi5nOBZIiDTkRwf7w-jKG2BY", "geometry": {"location": {"lat": 28.405891, "lng": 77.044613}, "viewport": {"northeast": {"lat": 28.4072140802915, "lng": 77.0457841802915}, "southwest": {"lat": 28.4045161197085, "lng": 77.0430862197085}}}, "opening_hours": {"open_now": false}, "place_id": "ChIJi5nOBZIiDTkRwf7w-jKG2BY", "plus_code": {"global_code": "7JWVC24V+9R", "compound_code": "C24V+9R Gurugram, Haryana, India"}, "vicinity": "Vatika Business Park Block 2, Unit No 5, GF, Sohna Road, Badshahpur, Gurugram", "photos": [{"photo_reference": "ATtYBwK5YnwSEuoK-qij-CGq-v6InynfUBrDgXV62AtyTSkdRE_5AAb3li8SwcpBrtGkrxrBR0u0JDz0a5cMEId1VoGu8hGYWiFZXPLKeBujh-MLGT05FC059dreUS1KTBtmfvq4h0PaTa6HMvZ0gBsozKIglh5hHg9GEQDH-_NghJj8IyH-", "width": 4160, "html_attributions": ["<a href=\"https://maps.google.com/maps/contrib/111413184259622491731\">Amit Arora</a>"], "height": 2340}], "scope": "GOOGLE", "business_status": "OPERATIONAL", "types": ["bank", "finance", "point_of_interest", "establishment"], "icon": "https://maps.gstatic.com/mapfiles/place_api/icons/v1/png_71/bank-71.png"}, {"rating": 3, "user_ratings_total": 6, "name": "Axis Bank", "reference": "ChIJ18-J9W89DTkRXh5PiZGEpQI", "geometry": {"location": {"lat": 28.4045845, "lng": 77.0431763}, "viewport": {"northeast": {"lat": 28.4059386302915, "lng": 77.0445568802915}, "southwest": {"lat": 28.4032406697085, "lng": 77.04185891970849}}}, "opening_hours": {"open_now": false}, "place_id": "ChIJ18-J9W89DTkRXh5PiZGEpQI", "plus_code": {"global_code": "7JWVC23V+R7", "compound_code": "C23V+R7 Gurugram, Haryana, India"}, "vicinity": "Bestech Business Tower, Shop No 4 & 5, Sector 48, Gurugram", "photos": [{"photo_reference": "ATtYBwIa_fUaSnIox6GG2-PRfQW5Tz1ld2l23XmAv4UFsWq7ndpgRDHpUJ4ALoAq6Ul7NeMSkCW5XXsolrJIxYFvs7R9S_HUuI7rncYgDz6yodbVx-gbxc9AxX8UkptW87bNJ5XFonlf5c312UHyd8Hnp-OFxC-aC4iwMfOxaxAKm4PxlKHU", "width": 1920, "html_attributions": ["<a href=\"https://maps.google.com/maps/contrib/116778453936869326570\">Anand Swargam</a>"], "height": 1080}], "scope": "GOOGLE", "business_status": "OPERATIONAL", "types": ["bank", "finance", "point_of_interest", "establishment"], "icon": "https://maps.gstatic.com/mapfiles/place_api/icons/v1/png_71/bank-71.png"}, {"rating": 3.1, "user_ratings_total": 16, "name": "ICICI Bank - Sec-48, Gurgaon - Branch & ATM", "reference": "ChIJnyVLRpIiDTkRT1r3rRl4jkU", "geometry": {"location": {"lat": 28.404234, "lng": 77.04287699999999}, "viewport": {"northeast": {"lat": 28.4056565802915, "lng": 77.0441757802915}, "southwest": {"lat": 28.4029586197085, "lng": 77.04147781970849}}}, "opening_hours": {"open_now": false}, "place_id": "ChIJnyVLRpIiDTkRT1r3rRl4jkU", "plus_code": {"global_code": "7JWVC23V+M5", "compound_code": "C23V+M5 Gurugram, Haryana, India"}, "vicinity": "Shop No:2&3, Bestech Business Tower, Sohna Road, Sec-48, Gurugram", "photos": [{"photo_reference": "ATtYBwK5Syt8YFEKchIaNkFLprsTeABjQvodsDvz62WRa-sxz6TsjDYu0LV5qIZRLP_k2pSIFr1SumcP46G_3Ts6406Zt31v_As3v0mj1Hdnr45rHzl-I-U817G125WOyu9RL-occlkkB78UVXLhyOTJD8DRs4VkjwuUVNhm1vzZ9R4XPUsY", "width": 3024, "html_attributions": ["<a href=\"https://maps.google.com/maps/contrib/108005217076504226500\">Anil Mehndiratta</a>"], "height": 4032}], "scope": "GOOGLE", "business_status": "OPERATIONAL", "types": ["bank", "atm", "finance", "point_of_interest", "establishment"], "icon": "https://maps.gstatic.com/mapfiles/place_api/icons/v1/png_71/bank-71.png"}, {"rating": 3.4, "user_ratings_total": 5, "name": "HDFC Bank", "reference": "ChIJxff7eO8ZDTkRq2OYnpXnc34", "geometry": {"location": {"lat": 28.4147158, "lng": 77.045564}, "viewport": {"northeast": {"lat": 28.4160838302915, "lng": 77.04686293029151}, "southwest": {"lat": 28.4133858697085, "lng": 77.04416496970849}}}, "opening_hours": {"open_now": false}, "place_id": "ChIJxff7eO8ZDTkRq2OYnpXnc34", "plus_code": {"global_code": "7JWVC27W+V6", "compound_code": "C27W+V6 Gurugram, Haryana, India"}, "vicinity": "Shop No 14, 15,48 &49, Sector 17, Gurugram", "photos": [{"photo_reference": "ATtYBwLpWQDyOAR24im1wqkTjyZ4CVB5DuISIgwkk52LYvfRrkPXNctoKKrakWWaRm1mWVi570-cbTCZisDF49li5g_zAB8RBuiwgwmLzhsd2R5DtDHtl2bMIayfwidvLWkawq5nY8UwQhBwF9119GC7YJzCWzD_O2vuvzsd78CoYYEYCpMt", "width": 3024, "html_attributions": ["<a href=\"https://maps.google.com/maps/contrib/115650881174298405179\">Rahul Jangra</a>"], "height": 4032}], "scope": "GOOGLE", "business_status": "OPERATIONAL", "types": ["bank", "finance", "point_of_interest", "establishment"], "icon": "https://maps.gstatic.com/mapfiles/place_api/icons/v1/png_71/bank-71.png"}, {"rating": 4, "user_ratings_total": 4, "name": "SBI BANK ATM", "reference": "ChIJoZOCvZ4iDTkR1NORUadx7U0", "geometry": {"location": {"lat": 28.4182828, "lng": 77.0382709}, "viewport": {"northeast": {"lat": 28.4195469802915, "lng": 77.0396486802915}, "southwest": {"lat": 28.41684901970849, "lng": 77.0369507197085}}}, "opening_hours": {"open_now": false}, "place_id": "ChIJoZOCvZ4iDTkR1NORUadx7U0", "plus_code": {"global_code": "7JWVC29Q+88", "compound_code": "C29Q+88 Gurugram, Haryana, India"}, "vicinity": "23, Sector 48, Gurugram", "photos": [{"photo_reference": "ATtYBwLnwkprxKMq2R3uRUqY5ptjZngPgth22H76RVV2TiBH7m216x8WrWmSAZxyxhOVP51GdDs-gjl8svaWO-NRKTKFrsJLZO_aN3_mlJ-8f05q5jOK2R-VGyGHh9LfdAzBUUdU_j3Ta953DdwuTGOhi6FaOpGxv2C4xEYddQnys9Ms2tMr", "width": 3120, "html_attributions": ["<a href=\"https://maps.google.com/maps/contrib/106197089714985567449\">Ankush Rana</a>"], "height": 4160}], "scope": "GOOGLE", "business_status": "OPERATIONAL", "types": ["bank", "finance", "point_of_interest", "establishment"], "icon": "https://maps.gstatic.com/mapfiles/place_api/icons/v1/png_71/bank-71.png"}, {"rating": 5, "user_ratings_total": 5, "name": "Nainital Bank", "reference": "ChIJ-6y-mZ4iDTkROIfdqCHHQzE", "geometry": {"location": {"lat": 28.4185959, "lng": 77.03856619999999}, "viewport": {"northeast": {"lat": 28.4198619802915, "lng": 77.0399751302915}, "southwest": {"lat": 28.4171640197085, "lng": 77.03727716970849}}}, "place_id": "ChIJ-6y-mZ4iDTkROIfdqCHHQzE", "plus_code": {"global_code": "7JWVC29Q+CC", "compound_code": "C29Q+CC Gurugram, Haryana, India"}, "vicinity": "1010 A welldone tech park Sohna Rd, 122001, Sector 48, Gurugram", "photos": [{"photo_reference": "ATtYBwIXtzO0GGM8TagjDPCfR5fiIE8n4I0cuGrow8eMniWaM4aYQrq_uoiapKSTMIu0okpTh448ZLvAmzbaEeN9gkGnBuM-1loeD19fVplBXdFwr4tS4RNOKCjXU0bCE92WmS58t67kpB1pfNAwDs5CYq1Vz1KBfZ0iZ70MvNvgSore5zc", "width": 4160, "html_attributions": ["<a href=\"https://maps.google.com/maps/contrib/114305203585357317930\">Parvez Khan</a>"], "height": 3120}], "scope": "GOOGLE", "business_status": "OPERATIONAL", "types": ["bank", "finance", "point_of_interest", "establishment"], "icon": "https://maps.gstatic.com/mapfiles/place_api/icons/v1/png_71/bank-71.png"}, {"rating": 3.3, "user_ratings_total": 31, "name": "State Bank of India", "reference": "ChIJJfZYmIQiDTkRgyHuK9B9d6w", "geometry": {"location": {"lat": 28.4171434, "lng": 77.0464949}, "viewport": {"northeast": {"lat": 28.4184251802915, "lng": 77.0477540302915}, "southwest": {"lat": 28.41572721970849, "lng": 77.0450560697085}}}, "opening_hours": {"open_now": false}, "place_id": "ChIJJfZYmIQiDTkRgyHuK9B9d6w", "plus_code": {"global_code": "7JWVC28W+VH", "compound_code": "C28W+VH Gurugram, Haryana, India"}, "vicinity": "S 3 4 & 5 B BLOCK COMMERCIAL MARKET, South City Road, South City II, 49, Gurugram", "photos": [{"photo_reference": "ATtYBwLoJz68O6kUVGu7CK-Gkxy9IGpDMeH0om_17DOE7lzxGSjLAK-mr_B1fZUQaYwn-HD6ZDtP4e4wWMqkzh4wx0WgdhawVd5RNnlf_Ac5t95QYS8wC2f1aiZp-dNFMbwfavn6TeASJ97npuoR3uJlGEU4AqbsWs_Ci6-bMKOFgkq8MVfC", "width": 2592, "html_attributions": ["<a href=\"https://maps.google.com/maps/contrib/117469367941577733526\">Anupam Kapoor</a>"], "height": 4608}], "scope": "GOOGLE", "business_status": "OPERATIONAL", "types": ["bank", "atm", "finance", "point_of_interest", "establishment"], "icon": "https://maps.gstatic.com/mapfiles/place_api/icons/v1/png_71/bank-71.png"}, {"rating": 2.4, "user_ratings_total": 40, "name": "RBL Bank", "reference": "ChIJgaLsjp4iDTkRrsyH0WPAApQ", "geometry": {"location": {"lat": 28.4192744, "lng": 77.0381914}, "viewport": {"northeast": {"lat": 28.4205599302915, "lng": 77.0395106302915}, "southwest": {"lat": 28.41786196970849, "lng": 77.0368126697085}}}, "place_id": "ChIJgaLsjp4iDTkRrsyH0WPAApQ", "plus_code": {"global_code": "7JWVC29Q+P7", "compound_code": "C29Q+P7 Gurugram, Haryana, India"}, "vicinity": "JMD Megapolis, Sohna Road, Sector 48, Gurugram", "photos": [{"photo_reference": "ATtYBwJY_WvdPl98QGW7MpsK0JDm86ws7PZWKVphoDvaWu_qJeB2GuKpz4B08D6BbBglKyi9kc5KoSVzOdFTq1lYuNAk_rO8lEtLq8VcCq37_-cdmc0h8CIuNmUtBtQwa608_YCgEV0OxpReJwi5jeSS9jXHSzuqCaIzHGhvVNVcOQWjEdxd", "width": 588, "html_attributions": ["<a href=\"https://maps.google.com/maps/contrib/103775760707496729967\">Sameer Ahmad</a>"], "height": 266}], "scope": "GOOGLE", "business_status": "OPERATIONAL", "types": ["bank", "finance", "point_of_interest", "establishment"], "icon": "https://maps.gstatic.com/mapfiles/place_api/icons/v1/png_71/bank-71.png"}, {"rating": 4.3, "user_ratings_total": 8, "name": "HDFC Bank ATM", "reference": "ChIJ6berh54iDTkRWF7ZMKtVsYE", "geometry": {"location": {"lat": 28.4196192, "lng": 77.03862430000001}, "viewport": {"northeast": {"lat": 28.4209110802915, "lng": 77.0399355802915}, "southwest": {"lat": 28.4182131197085, "lng": 77.03723761970849}}}, "opening_hours": {"open_now": true}, "place_id": "ChIJ6berh54iDTkRWF7ZMKtVsYE", "plus_code": {"global_code": "7JWVC29Q+RC", "compound_code": "C29Q+RC Gurugram, Haryana, India"}, "vicinity": "R/1, JMD Megapolis, Sohna Rd, Gurugram", "photos": [{"photo_reference": "ATtYBwLG-KHN_IZMUiZYQXVnEzSp2yB-slvnj6L2TGPWW23kI8zU_X_g_Y1pXALEHWewfctAWj56ybZHOAvxvqDl14TdOkt3MMI_WZn1fOJYERk99Jg6BbgxQJBt4Kj4PffvcHF0508oFrjEhoXNOQgNDegmSp1hhJjAgmOTgcdpaTE6qlk1", "width": 300, "html_attributions": ["<a href=\"https://maps.google.com/maps/contrib/114338577034990733876\">HDFC Bank ATM</a>"], "height": 300}], "scope": "GOOGLE", "business_status": "OPERATIONAL", "types": ["atm", "bank", "finance", "point_of_interest", "establishment"], "icon": "https://maps.gstatic.com/mapfiles/place_api/icons/v1/png_71/atm-71.png"}, {"rating": 2, "user_ratings_total": 30, "name": "HDFC Bank", "reference": "ChIJCTpQh54iDTkRru8kDSx4YtI", "geometry": {"location": {"lat": 28.419763, "lng": 77.038779}, "viewport": {"northeast": {"lat": 28.42112828029151, "lng": 77.04019483029151}, "southwest": {"lat": 28.4184303197085, "lng": 77.03749686970849}}}, "opening_hours": {"open_now": false}, "place_id": "ChIJCTpQh54iDTkRru8kDSx4YtI", "plus_code": {"global_code": "7JWVC29Q+WG", "compound_code": "C29Q+WG Gurugram, Haryana, India"}, "vicinity": "R/1, JMD Megapolis, Sohna Rd, Sector 48, Gurugram", "photos": [{"photo_reference": "ATtYBwLxIZagOLYJYmzTkxZ6xXeD5MdMfG5nnIul9UJyOrh0HwQjUMm84VU69XzMugVMiiNlnrZL0-o_WI_0vweYpEmsSoFg4OXgVGIzUAEEFJvL07cDXYW1oH9KKyR_F67os0S0_f1MUkw0wt1ETZzdLpoorMjhlHmL-2Ek8V1c17dfsR56", "width": 3456, "html_attributions": ["<a href=\"https://maps.google.com/maps/contrib/101210920121673793139\">Shiv Shankar Singh</a>"], "height": 4608}], "scope": "GOOGLE", "business_status": "OPERATIONAL", "types": ["bank", "finance", "point_of_interest", "establishment"], "icon": "https://maps.gstatic.com/mapfiles/place_api/icons/v1/png_71/bank-71.png"}]}