{"status": "OK", "html_attributions": [], "results": [{"rating": 2.2, "user_ratings_total": 5, "name": "Oriental Bank of Commerce", "reference": "ChIJef4CND2oDTkR3tcVkVq4sTU", "geometry": {"location": {"lat": 28.8054494, "lng": 77.04631859999999}, "viewport": {"northeast": {"lat": 28.8068869802915, "lng": 77.0477643302915}, "southwest": {"lat": 28.8041890197085, "lng": 77.0450663697085}}}, "place_id": "ChIJef4CND2oDTkR3tcVkVq4sTU", "plus_code": {"global_code": "7JWVR24W+5G", "compound_code": "R24W+5G Delhi, India"}, "vicinity": "Main Market Road, Khajan Singh Market, Bawana, North West Delhi, Delhi", "scope": "GOOGLE", "business_status": "OPERATIONAL", "types": ["bank", "finance", "point_of_interest", "establishment"], "icon": "https://maps.gstatic.com/mapfiles/place_api/icons/v1/png_71/bank-71.png"}, {"rating": 4, "user_ratings_total": 28, "name": "State Bank Of India", "reference": "ChIJAcVlKiOoDTkRe5cuQdGEp2I", "geometry": {"location": {"lat": 28.80058200000001, "lng": 77.0363313}, "viewport": {"northeast": {"lat": 28.8019013302915, "lng": 77.03769933029152}, "southwest": {"lat": 28.7992033697085, "lng": 77.0350013697085}}}, "opening_hours": {"open_now": false}, "place_id": "ChIJAcVlKiOoDTkRe5cuQdGEp2I", "plus_code": {"global_code": "7JWVR22P+6G", "compound_code": "R22P+6G Delhi, India"}, "vicinity": "Major District Road 138, Asthal Colony, Bawana, Delhi", "photos": [{"photo_reference": "ATtYBwLpXRsLwIYl-lMCJlV10qjo9292EAdTNoTx3Np_2CzgAiwQiFOYS-48bjVR73sAVpE30XWQojPHlBjAknHzbfvIWwpcePDD2LsO6Yt8cISYB3I8BnlIK4l8D9ZW-AH7iZY1KjXbMXzzxOhDiIl4GYQbfclkWvOvq6kP_uoIVZA5KWRw", "width": 1920, "html_attributions": ["<a href=\"https://maps.google.com/maps/contrib/100341976363985239429\">GAJENDER YADAV</a>"], "height": 1080}], "scope": "GOOGLE", "business_status": "OPERATIONAL", "types": ["atm", "bank", "finance", "point_of_interest", "establishment"], "icon": "https://maps.gstatic.com/mapfiles/place_api/icons/v1/png_71/bank-71.png"}, {"rating": 4.3, "user_ratings_total": 4, "name": "Punjabi Bank", "reference": "ChIJVy6RKiOoDTkRq_jJvzM9qWM", "geometry": {"location": {"lat": 28.8006596, "lng": 77.0364993}, "viewport": {"northeast": {"lat": 28.8019804302915, "lng": 77.0378651802915}, "southwest": {"lat": 28.7992824697085, "lng": 77.0351672197085}}}, "opening_hours": {"open_now": false}, "place_id": "ChIJVy6RKiOoDTkRq_jJvzM9qWM", "plus_code": {"global_code": "7JWVR22P+7H", "compound_code": "R22P+7H Delhi, India"}, "vicinity": "adjacent SBI, Ground Floor, 48 A, Narela Road, Asthal Colony, Bawana, adjacent SBI, Delhi", "photos": [{"photo_reference": "ATtYBwLUAvszooueYupwYiQr9oVD3DRZvbx1cu3AFeOruxzUuWPqNhmF8r9IHy2l6UsNLy7Xf1-KAHloFw0oKHQU2G24-FlExPUc_uJjSADb8Dh7MagVXSkzmBn2Hpd0j_Xxx9lv9HTal9kaAzxhzBSQeuIe5_VBotfbp0ydFwRrmBb9pBoW", "width": 2448, "html_attributions": ["<a href=\"https://maps.google.com/maps/contrib/116780062445974189656\">Kuldeep Mishra</a>"], "height": 3264}], "scope": "GOOGLE", "business_status": "OPERATIONAL", "types": ["bank", "finance", "point_of_interest", "establishment"], "icon": "https://maps.gstatic.com/mapfiles/place_api/icons/v1/png_71/bank-71.png"}, {"name": "Axis Bank ATM", "reference": "ChIJIU2huzWpDTkR4LhD3-BMenI", "geometry": {"location": {"lat": 28.80814, "lng": 77.04956000000001}, "viewport": {"northeast": {"lat": 28.8094918802915, "lng": 77.0509060302915}, "southwest": {"lat": 28.8067939197085, "lng": 77.0482080697085}}}, "opening_hours": {"open_now": true}, "place_id": "ChIJIU2huzWpDTkR4LhD3-BMenI", "plus_code": {"global_code": "7JWVR25X+7R", "compound_code": "R25X+7R Bawana, New Delhi, Delhi, India"}, "vicinity": "Axis Bank Atm, Bawana, New Delhi", "scope": "GOOGLE", "business_status": "OPERATIONAL", "types": ["atm", "bank", "finance", "point_of_interest", "establishment"], "icon": "https://maps.gstatic.com/mapfiles/place_api/icons/v1/png_71/atm-71.png"}, {"rating": 5, "user_ratings_total": 2, "name": "Bandhan Micro finance Bawana", "reference": "ChIJ9S0kez2oDTkRL3tXfDNLmuo", "geometry": {"location": {"lat": 28.8027223, "lng": 77.0339324}, "viewport": {"northeast": {"lat": 28.80397453029149, "lng": 77.03528408029149}, "southwest": {"lat": 28.8012765697085, "lng": 77.03258611970848}}}, "place_id": "ChIJ9S0kez2oDTkRL3tXfDNLmuo", "plus_code": {"global_code": "7JWVR23M+3H", "compound_code": "R23M+3H Delhi, India"}, "vicinity": "108, Auchandi Bawana Road, Bawana Village, Bawana, Delhi", "scope": "GOOGLE", "business_status": "OPERATIONAL", "types": ["bank", "finance", "point_of_interest", "establishment"], "icon": "https://maps.gstatic.com/mapfiles/place_api/icons/v1/png_71/bank-71.png"}, {"rating": 2, "user_ratings_total": 1, "name": "Andhara Bank - Bawana Branch", "reference": "ChIJ_eDsMz2oDTkRkfp6rIduzjk", "geometry": {"location": {"lat": 28.8009234, "lng": 77.0352742}, "viewport": {"northeast": {"lat": 28.8022375302915, "lng": 77.0365591302915}, "southwest": {"lat": 28.7995395697085, "lng": 77.03386116970849}}}, "opening_hours": {"open_now": false}, "place_id": "ChIJ_eDsMz2oDTkRkfp6rIduzjk", "plus_code": {"global_code": "7JWVR22P+94", "compound_code": "R22P+94 Delhi, India"}, "vicinity": "144, Auchandi Bawana Road, Bawana Village, Bawana, Delhi", "scope": "GOOGLE", "business_status": "OPERATIONAL", "types": ["bank", "atm", "finance", "point_of_interest", "establishment"], "icon": "https://maps.gstatic.com/mapfiles/place_api/icons/v1/png_71/bank-71.png"}, {"rating": 2.7, "user_ratings_total": 3, "name": "The Delhi State Co-operative Bank Ltd", "reference": "ChIJraoJND2oDTkRjoyXTp3N-d0", "geometry": {"location": {"lat": 28.8009462, "lng": 77.0352103}, "viewport": {"northeast": {"lat": 28.8022697802915, "lng": 77.03651243029151}, "southwest": {"lat": 28.7995718197085, "lng": 77.0338144697085}}}, "opening_hours": {"open_now": false}, "place_id": "ChIJraoJND2oDTkRjoyXTp3N-d0", "plus_code": {"global_code": "7JWVR22P+93", "compound_code": "R22P+93 Delhi, India"}, "vicinity": "Khajan singh Market, Bawana, Delhi", "scope": "GOOGLE", "business_status": "OPERATIONAL", "types": ["bank", "finance", "point_of_interest", "establishment"], "icon": "https://maps.gstatic.com/mapfiles/place_api/icons/v1/png_71/bank-71.png"}, {"rating": 4.2, "user_ratings_total": 5, "name": "JMCS Society", "reference": "ChIJL3MryyKoDTkRJoEimlJ80WM", "geometry": {"location": {"lat": 28.8005859, "lng": 77.0350401}, "viewport": {"northeast": {"lat": 28.80197238029151, "lng": 77.0364551302915}, "southwest": {"lat": 28.79927441970851, "lng": 77.0337571697085}}}, "opening_hours": {"open_now": false}, "place_id": "ChIJL3MryyKoDTkRJoEimlJ80WM", "plus_code": {"global_code": "7JWVR22P+62", "compound_code": "R22P+62 Delhi, India"}, "vicinity": "108, Auchandi Bawana Road, Bawana Village, Bawana, Delhi", "scope": "GOOGLE", "business_status": "OPERATIONAL", "types": ["bank", "finance", "point_of_interest", "establishment"], "icon": "https://maps.gstatic.com/mapfiles/place_api/icons/v1/png_71/bank-71.png"}, {"rating": 3.9, "user_ratings_total": 10, "name": "SBI Customer Service Point Prince Documents", "reference": "ChIJvT1XpTOoDTkR18vvusfIA8g", "geometry": {"location": {"lat": 28.8069809, "lng": 77.051345}, "viewport": {"northeast": {"lat": 28.8083298802915, "lng": 77.0526730302915}, "southwest": {"lat": 28.8056319197085, "lng": 77.0499750697085}}}, "opening_hours": {"open_now": true}, "place_id": "ChIJvT1XpTOoDTkR18vvusfIA8g", "plus_code": {"global_code": "7JWVR342+QG", "compound_code": "R342+QG Delhi, India"}, "vicinity": "B-467 J J COLONY BAWANA DELHI-110039, Delhi", "photos": [{"photo_reference": "ATtYBwLiGWhetiOeS4QzlVWqLN_-BNCojkl5Dz1bNM6lAeem86pRiiTb59w6QxZnbTxaCeZZgvnHftaR6wI_xo16Ceam-A3Bepb6D1qfOANudffVsvUnuOSIay0Tr9GGfSTkjC9vb7LNoJMUxXOigK2PAPxE087PrlbhzIzv_5EntQHgsRFV", "width": 3120, "html_attributions": ["<a href=\"https://maps.google.com/maps/contrib/114711658676600690276\">SBI Customer Service Point Prince Documents</a>"], "height": 4160}], "scope": "GOOGLE", "business_status": "OPERATIONAL", "types": ["bank", "finance", "point_of_interest", "establishment"], "icon": "https://maps.gstatic.com/mapfiles/place_api/icons/v1/png_71/bank-71.png"}, {"rating": 4, "user_ratings_total": 7, "name": "Netc Common Service Center (Powered By re4charge)", "reference": "ChIJ5S9vKDKoDTkR69BvygU-aY0", "geometry": {"location": {"lat": 28.8043393, "lng": 77.05078739999999}, "viewport": {"northeast": {"lat": 28.8056831302915, "lng": 77.0521359802915}, "southwest": {"lat": 28.8029851697085, "lng": 77.04943801970848}}}, "opening_hours": {"open_now": true}, "place_id": "ChIJ5S9vKDKoDTkR69BvygU-aY0", "plus_code": {"global_code": "7JWVR332+P8", "compound_code": "R332+P8 Delhi, India"}, "vicinity": "GROUND Floor, No. D-1284, JJ Colony, Bawana, Delhi", "photos": [{"photo_reference": "ATtYBwKiEKm-haC-Q3lIetVZvASQB8gCSXRhZa5wu5wETNY-7SKRygmQyFM8YhCfsLn5DMODEHLOA3zLspNT8i3r-Og-yUe-1jTJsLgZc3Fr3k8iOkixY9iu1BMZ-bFRlmkpGXzXS1EkzZyKrc3hVyxArIK1ChcOGJc8bE3TT-JdY42aNqW2", "width": 960, "html_attributions": ["<a href=\"https://maps.google.com/maps/contrib/108629936463156429944\">Netc Common Service Center (Powered By re4charge)</a>"], "height": 538}], "scope": "GOOGLE", "business_status": "OPERATIONAL", "types": ["atm", "bank", "finance", "point_of_interest", "establishment"], "icon": "https://maps.gstatic.com/mapfiles/place_api/icons/v1/png_71/generic_business-71.png"}]}