{"status": "OK", "html_attributions": [], "results": [{"rating": 3.5, "user_ratings_total": 10, "name": "Corporation Bank", "reference": "ChIJ9ZIF9a4eDTkRRZDy3KcN6J0", "geometry": {"location": {"lat": 28.5147716, "lng": 77.10608959999999}, "viewport": {"northeast": {"lat": 28.5161085802915, "lng": 77.1074294802915}, "southwest": {"lat": 28.5134106197085, "lng": 77.1047315197085}}}, "opening_hours": {"open_now": false}, "place_id": "ChIJ9ZIF9a4eDTkRRZDy3KcN6J0", "plus_code": {"global_code": "7JWVG474+WC", "compound_code": "G474+WC New Delhi, Delhi, India"}, "vicinity": "Rajokri, New Delhi", "scope": "GOOGLE", "business_status": "OPERATIONAL", "types": ["atm", "bank", "finance", "point_of_interest", "establishment"], "icon": "https://maps.gstatic.com/mapfiles/place_api/icons/v1/png_71/bank-71.png"}, {"rating": 4.3, "user_ratings_total": 6, "name": "ICICI BANK ATM", "reference": "ChIJ3eVXa6weDTkRZRmhaCC6Jc8", "geometry": {"location": {"lat": 28.5144344, "lng": 77.1067587}, "viewport": {"northeast": {"lat": 28.5157454802915, "lng": 77.10808168029149}, "southwest": {"lat": 28.51304751970849, "lng": 77.10538371970848}}}, "opening_hours": {"open_now": true}, "place_id": "ChIJ3eVXa6weDTkRZRmhaCC6Jc8", "plus_code": {"global_code": "7JWVG474+QP", "compound_code": "G474+QP New Delhi, Delhi, India"}, "vicinity": "Near, Panchayat Ghar Road, Harjokri, Rajokri Village, Rajokri, New Delhi", "photos": [{"photo_reference": "ATtYBwJpPsugM6VftvG3wHYjB7oq9oXhG9ZhcKL8I_3gMbN2OEuFoj3Y_QhvRzTVyESQT9xkXSg6M-2uaVNcnYJSDeMZTowGSu3_MBkm95BAwlIPeS203Qr0tRHoYq2X8ZZVAuzO4pg7WYecUDMDkXrLGu_2NaidINBJb0wSByWb5RoBnmsn", "width": 512, "html_attributions": ["<a href=\"https://maps.google.com/maps/contrib/105079133144818841138\">VIVEK ROY</a>"], "height": 287}], "scope": "GOOGLE", "business_status": "OPERATIONAL", "types": ["atm", "bank", "finance", "point_of_interest", "establishment"], "icon": "https://maps.gstatic.com/mapfiles/place_api/icons/v1/png_71/atm-71.png"}, {"rating": 2.3, "user_ratings_total": 3, "name": "ICICI Bank ATM", "reference": "ChIJ____P1wZDTkRtq5V6dyON5Q", "geometry": {"location": {"lat": 28.5105, "lng": 77.0881}, "viewport": {"northeast": {"lat": 28.5117692302915, "lng": 77.0893746302915}, "southwest": {"lat": 28.5090712697085, "lng": 77.08667666970848}}}, "opening_hours": {"open_now": true}, "place_id": "ChIJ____P1wZDTkRtq5V6dyON5Q", "plus_code": {"global_code": "7JWVG36Q+66", "compound_code": "G36Q+66 Gurugram, Haryana, India"}, "vicinity": "Udyog Vihar , Phase-3, Wipro LTD.480-481, Gurugram", "photos": [{"photo_reference": "ATtYBwLHXfJoqHevVLj98Gty3o8oBrMj6D1ILK674-jn1vIqPihKa5hKWEA5us90jmIKkobRvbooKj-FkyGqZfGCYCejb6V8O7Vpj2v01RxWKHp3_doQB9-jWvq50nYk-j0tBWSGJtGUGgzWSIEM-OdV-4UiLXXwGw_LVaGLXVNSdWu6TDf9", "width": 1024, "html_attributions": ["<a href=\"https://maps.google.com/maps/contrib/114787828637778739046\">ICICI Bank ATM</a>"], "height": 768}], "scope": "GOOGLE", "business_status": "OPERATIONAL", "types": ["atm", "bank", "finance", "point_of_interest", "establishment"], "icon": "https://maps.gstatic.com/mapfiles/place_api/icons/v1/png_71/atm-71.png"}, {"rating": 3.2, "user_ratings_total": 42, "name": "State Bank of India", "reference": "ChIJR50V70QZDTkRweyYnQ25gIM", "geometry": {"location": {"lat": 28.5057405, "lng": 77.0871765}, "viewport": {"northeast": {"lat": 28.5071294802915, "lng": 77.0884711302915}, "southwest": {"lat": 28.5044315197085, "lng": 77.08577316970849}}}, "place_id": "ChIJR50V70QZDTkRweyYnQ25gIM", "plus_code": {"global_code": "7JWVG34P+7V", "compound_code": "G34P+7V Gurugram, Haryana, India"}, "vicinity": "Plot- 3 & 4 Behind Airtel Building, Phase IV, Sector 18, Gurugram", "photos": [{"photo_reference": "ATtYBwJ5HV7Z_sc9dAUaWitUfyCWt-SfJXAgXkAPqcC0tt0bSoPWSS1ixPGtfQuCe0B3QnzGwSCJ5_aE44iZIw__09wtCieGuuIkNjawTMbyMdFxVQAOiocCPUe14FGhQ4kViyA9YfrUTiWSg-KwHGtS4kO0Tx64-RJoan68wp60BY9ksY0K", "width": 4160, "html_attributions": ["<a href=\"https://maps.google.com/maps/contrib/111824099893634650047\">Shivam PrAtap</a>"], "height": 2352}], "scope": "GOOGLE", "business_status": "OPERATIONAL", "types": ["bank", "atm", "finance", "point_of_interest", "establishment"], "icon": "https://maps.gstatic.com/mapfiles/place_api/icons/v1/png_71/bank-71.png"}, {"rating": 3.3, "user_ratings_total": 9, "name": "Allahabad Bank", "reference": "ChIJMUIGMK8eDTkRFju_fYPCrmQ", "geometry": {"location": {"lat": 28.5146173, "lng": 77.1071845}, "viewport": {"northeast": {"lat": 28.5159716802915, "lng": 77.10852088029151}, "southwest": {"lat": 28.5132737197085, "lng": 77.1058229197085}}}, "opening_hours": {"open_now": false}, "place_id": "ChIJMUIGMK8eDTkRFju_fYPCrmQ", "plus_code": {"global_code": "7JWVG474+RV", "compound_code": "G474+RV New Delhi, Delhi, India"}, "vicinity": "Suraj Sigh Building, PO Rajokri, New Delhi", "photos": [{"photo_reference": "ATtYBwIb8-SdHVo9PiDlDLga2CJMo_t1frDeM9-nMYUJxf2wB-sAaQdzbZfmC4Jo8zLMMcG0Rw19GVt8sh7G7-J2My6wtLv0gctbkeZ4Uq-fzy_EFZqFKUIED_Mtqm5pIqy8wQRLkn2du2K5cqPMBxX-h6uqw7eaT8M98jPeVyKVNYXSHVxU", "width": 1080, "html_attributions": ["<a href=\"https://maps.google.com/maps/contrib/106821557314192380906\">HAPPY 2 HELP</a>"], "height": 1920}], "scope": "GOOGLE", "business_status": "OPERATIONAL", "types": ["atm", "bank", "finance", "point_of_interest", "establishment"], "icon": "https://maps.gstatic.com/mapfiles/place_api/icons/v1/png_71/bank-71.png"}, {"rating": 4.3, "user_ratings_total": 3, "name": "Bandhan Bank", "reference": "ChIJyfkK_FIZDTkRHWh79IRvEWY", "geometry": {"location": {"lat": 28.5114122, "lng": 77.1000521}, "viewport": {"northeast": {"lat": 28.5128035802915, "lng": 77.10178238029151}, "southwest": {"lat": 28.51010561970849, "lng": 77.09908441970849}}}, "place_id": "ChIJyfkK_FIZDTkRHWh79IRvEWY", "plus_code": {"global_code": "7JWVG462+H2", "compound_code": "G462+H2 New Delhi, Delhi, India"}, "vicinity": "Mayur Vihar Phase 1, New Delhi", "scope": "GOOGLE", "business_status": "OPERATIONAL", "types": ["bank", "finance", "point_of_interest", "establishment"], "icon": "https://maps.gstatic.com/mapfiles/place_api/icons/v1/png_71/bank-71.png"}, {"name": "ICICI BANK ATM", "reference": "ChIJnTxPwVEfDTkRAjx2xHHtzfE", "geometry": {"location": {"lat": 28.5141964, "lng": 77.1067657}, "viewport": {"northeast": {"lat": 28.5155250302915, "lng": 77.1081577302915}, "southwest": {"lat": 28.5128270697085, "lng": 77.10545976970849}}}, "opening_hours": {"open_now": true}, "place_id": "ChIJnTxPwVEfDTkRAjx2xHHtzfE", "plus_code": {"global_code": "7JWVG474+MP", "compound_code": "G474+MP New Delhi, Delhi, India"}, "vicinity": "Khasrano.519, Vop\u00e2\u00e2\u201a\u00ac\u00e2\u20ac\u0153Rajokari, Near Panchyatghat, New Delhi", "photos": [{"photo_reference": "ATtYBwKhL6iT0y9VQPSRyz2VMfgzyLQlzXw9JjajaPbtrfyODV15W8Vcmv7UQtSEM_uaK6snMGU4p8Ib52Up8AeI6L81RWShqeJSOHBA77neNokXaRjAqjESXKeUn17U8uMclI-pB10AiuXXoU6GvvoIEdzd7tEvQqYMrhKqX_JOvvOwTSym", "width": 1080, "html_attributions": ["<a href=\"https://maps.google.com/maps/contrib/106821557314192380906\">HAPPY 2 HELP</a>"], "height": 1920}], "scope": "GOOGLE", "business_status": "OPERATIONAL", "types": ["bank", "finance", "point_of_interest", "establishment"], "icon": "https://maps.gstatic.com/mapfiles/place_api/icons/v1/png_71/bank-71.png"}, {"rating": 1, "user_ratings_total": 1, "name": "SyndicateBank Delhi Air Force Stn Rajokri Branch", "reference": "ChIJC_Tp33MZDTkR3op0qrm5vSo", "geometry": {"location": {"lat": 28.517388, "lng": 77.10071599999999}, "viewport": {"northeast": {"lat": 28.51870748029151, "lng": 77.10211903029149}, "southwest": {"lat": 28.5160095197085, "lng": 77.09942106970848}}}, "place_id": "ChIJC_Tp33MZDTkR3op0qrm5vSo", "plus_code": {"global_code": "7JWVG482+X7", "compound_code": "G482+X7 Rajokri, New Delhi, Delhi, India"}, "vicinity": "Air Force Station, Rajokri", "scope": "GOOGLE", "business_status": "OPERATIONAL", "types": ["bank", "finance", "point_of_interest", "establishment"], "icon": "https://maps.gstatic.com/mapfiles/place_api/icons/v1/png_71/bank-71.png"}, {"name": "CANARA BANK (formerly Syndicate Bank)", "reference": "ChIJp9cGEkAZDTkRxyR6CR0Q5E8", "geometry": {"location": {"lat": 28.5181139, "lng": 77.10180419999999}, "viewport": {"northeast": {"lat": 28.51946288029151, "lng": 77.1031531802915}, "southwest": {"lat": 28.5167649197085, "lng": 77.1004552197085}}}, "place_id": "ChIJp9cGEkAZDTkRxyR6CR0Q5E8", "plus_code": {"global_code": "7JWVG492+6P", "compound_code": "G492+6P Rajokri, New Delhi, Delhi, India"}, "vicinity": "AIR FORCE STATION, Rajokri", "scope": "GOOGLE", "business_status": "OPERATIONAL", "types": ["bank", "finance", "point_of_interest", "establishment"], "icon": "https://maps.gstatic.com/mapfiles/place_api/icons/v1/png_71/bank-71.png"}, {"name": "ICICI BANK ATM", "reference": "ChIJsQXPIEAZDTkRJKVFyKhC2S8", "geometry": {"location": {"lat": 28.5181961, "lng": 77.1016846}, "viewport": {"northeast": {"lat": 28.5195915802915, "lng": 77.1029511802915}, "southwest": {"lat": 28.5168936197085, "lng": 77.10025321970849}}}, "opening_hours": {"open_now": true}, "place_id": "ChIJsQXPIEAZDTkRJKVFyKhC2S8", "plus_code": {"global_code": "7JWVG492+7M", "compound_code": "G492+7M New Delhi, Delhi, India"}, "vicinity": "Indian Air Force Station, Rajokri, New Delhi", "scope": "GOOGLE", "business_status": "OPERATIONAL", "types": ["bank", "finance", "point_of_interest", "establishment"], "icon": "https://maps.gstatic.com/mapfiles/place_api/icons/v1/png_71/bank-71.png"}, {"rating": 5, "user_ratings_total": 1, "name": "RPH Capital", "reference": "ChIJRahSUo8fDTkROKCl_xgX3Ug", "geometry": {"location": {"lat": 28.5132203, "lng": 77.109319}, "viewport": {"northeast": {"lat": 28.5145460802915, "lng": 77.1106481802915}, "southwest": {"lat": 28.5118481197085, "lng": 77.10795021970848}}}, "opening_hours": {"open_now": false}, "place_id": "ChIJRahSUo8fDTkROKCl_xgX3Ug", "plus_code": {"global_code": "7JWVG475+7P", "compound_code": "G475+7P New Delhi, Delhi, India"}, "vicinity": "Vasant Kunj, New Delhi", "scope": "GOOGLE", "business_status": "OPERATIONAL", "types": ["bank", "finance", "point_of_interest", "establishment"], "icon": "https://maps.gstatic.com/mapfiles/place_api/icons/v1/png_71/generic_business-71.png"}, {"name": "Axis Bank ATM", "reference": "ChIJW3ONVK4eDTkRuzKlXs2_Azo", "geometry": {"location": {"lat": 28.513484, "lng": 77.10923319999999}, "viewport": {"northeast": {"lat": 28.5148650802915, "lng": 77.11060398029151}, "southwest": {"lat": 28.5121671197085, "lng": 77.1079060197085}}}, "opening_hours": {"open_now": true}, "place_id": "ChIJW3ONVK4eDTkRuzKlXs2_Azo", "plus_code": {"global_code": "7JWVG475+9M", "compound_code": "G475+9M New Delhi, Delhi, India"}, "vicinity": "near Airforce Camp, Axis Bank Atm, near Airforce Camp, Rajokri, New Delhi", "photos": [{"photo_reference": "ATtYBwJcDDaHxcyZ-moEYBw37EBWaBvSzT5mbTQXH8KF1N7jqo6mhY66N9ILOQDxntioING5gHOzG9-1xWAhJ9EN8HeRJ3jsRjbPqflGzaOadgXZdT6zX_MCPokN4rzolQcGNktu0awQUEK9fytAlVR6fa1X_JMYJPHhVhsfYUr3irQKaI3U", "width": 3024, "html_attributions": ["<a href=\"https://maps.google.com/maps/contrib/106821557314192380906\">HAPPY 2 HELP</a>"], "height": 4032}], "scope": "GOOGLE", "business_status": "OPERATIONAL", "types": ["atm", "bank", "finance", "point_of_interest", "establishment"], "icon": "https://maps.gstatic.com/mapfiles/place_api/icons/v1/png_71/atm-71.png"}, {"name": "Axis Bank ATM", "reference": "ChIJ-zzzK6QfDTkRWPXoxyHXZEI", "geometry": {"location": {"lat": 28.5134854, "lng": 77.10923319999999}, "viewport": {"northeast": {"lat": 28.5148659802915, "lng": 77.1106036302915}, "southwest": {"lat": 28.5121680197085, "lng": 77.10790566970849}}}, "opening_hours": {"open_now": true}, "place_id": "ChIJ-zzzK6QfDTkRWPXoxyHXZEI", "plus_code": {"global_code": "7JWVG475+9M", "compound_code": "G475+9M New Delhi, Delhi, India"}, "vicinity": "Ground Floor, near Airforce Camp, Rajokri, New Delhi", "scope": "GOOGLE", "business_status": "OPERATIONAL", "types": ["atm", "bank", "finance", "point_of_interest", "establishment"], "icon": "https://maps.gstatic.com/mapfiles/place_api/icons/v1/png_71/atm-71.png"}, {"name": "Axis Bank ATM", "reference": "ChIJvw-9tg0fDTkRcDiFZy9JPDs", "geometry": {"location": {"lat": 28.5160244, "lng": 77.1078259}, "viewport": {"northeast": {"lat": 28.5173843802915, "lng": 77.1091751802915}, "southwest": {"lat": 28.5146864197085, "lng": 77.1064772197085}}}, "opening_hours": {"open_now": true}, "place_id": "ChIJvw-9tg0fDTkRcDiFZy9JPDs", "plus_code": {"global_code": "7JWVG485+C4", "compound_code": "G485+C4 New Delhi, Delhi, India"}, "vicinity": "opposite Peer Baba Mazar, Main Market, Rajouri Garden, New Delhi", "photos": [{"photo_reference": "ATtYBwJi3VWNKrj2DgeHDHyMGRe7jOw4850QiQbHQgzF44UFnguXZeiOrc7i0FvTLewoO44mSzj7teLbe-P36F8ZeZdlMlEwWMp3Ov6RHo38rCiDPc1uB5kdMCixXAEEfchw4zG7Vmd5XMA_JubCY96918xp-NgAK9HPHZYVcWIZG73E7e_2", "width": 3024, "html_attributions": ["<a href=\"https://maps.google.com/maps/contrib/106821557314192380906\">HAPPY 2 HELP</a>"], "height": 4032}], "scope": "GOOGLE", "business_status": "OPERATIONAL", "types": ["atm", "bank", "finance", "point_of_interest", "establishment"], "icon": "https://maps.gstatic.com/mapfiles/place_api/icons/v1/png_71/atm-71.png"}, {"name": "ICICI BANK ATM", "reference": "ChIJq-Gcdu8ZDTkR6JWWHRcSWsc", "geometry": {"location": {"lat": 28.5085468, "lng": 77.08950039999999}, "viewport": {"northeast": {"lat": 28.5099634302915, "lng": 77.0907563302915}, "southwest": {"lat": 28.5072654697085, "lng": 77.08805836970848}}}, "opening_hours": {"open_now": true}, "place_id": "ChIJq-Gcdu8ZDTkR6JWWHRcSWsc", "plus_code": {"global_code": "7JWVG35Q+CR", "compound_code": "G35Q+CR Gurugram, Haryana, India"}, "vicinity": "Plot 415, silverskills pvt ltd, Ph-3, Udyog Vihar, Sector 19, Gurugram", "scope": "GOOGLE", "business_status": "OPERATIONAL", "types": ["bank", "finance", "point_of_interest", "establishment"], "icon": "https://maps.gstatic.com/mapfiles/place_api/icons/v1/png_71/bank-71.png"}, {"name": "ICICI BANK ATM", "reference": "ChIJa3vj_NkZDTkRyCc5RNh8Nbc", "geometry": {"location": {"lat": 28.5105, "lng": 77.0880966}, "viewport": {"northeast": {"lat": 28.5117699802915, "lng": 77.0893719302915}, "southwest": {"lat": 28.5090720197085, "lng": 77.08667396970849}}}, "opening_hours": {"open_now": true}, "place_id": "ChIJa3vj_NkZDTkRyCc5RNh8Nbc", "plus_code": {"global_code": "7JWVG36Q+66", "compound_code": "G36Q+66 Gurugram, Haryana, India"}, "vicinity": "Wipro Ltd .480-481, Phase III, Gurugram", "scope": "GOOGLE", "business_status": "OPERATIONAL", "types": ["bank", "finance", "point_of_interest", "establishment"], "icon": "https://maps.gstatic.com/mapfiles/place_api/icons/v1/png_71/bank-71.png"}, {"name": "CANARA BANK - GENERAL BRANCH", "reference": "ChIJn1WfrDMZDTkR0IbZ-yVgGqA", "geometry": {"location": {"lat": 28.5064952, "lng": 77.08732239999999}, "viewport": {"northeast": {"lat": 28.5077807802915, "lng": 77.0886077802915}, "southwest": {"lat": 28.50508281970849, "lng": 77.08590981970849}}}, "place_id": "ChIJn1WfrDMZDTkR0IbZ-yVgGqA", "plus_code": {"global_code": "7JWVG34P+HW", "compound_code": "G34P+HW Gurugram, Haryana, India"}, "vicinity": "PLOT NO. 303, FIRST FLOOR, Udyog Vihar II Road, Gurugram", "scope": "GOOGLE", "business_status": "OPERATIONAL", "types": ["bank", "finance", "point_of_interest", "establishment"], "icon": "https://maps.gstatic.com/mapfiles/place_api/icons/v1/png_71/bank-71.png"}, {"name": "CANARA BANK - REGIONAL OFFICE", "reference": "ChIJBRwuTwcZDTkRi8BIRb3Tn8U", "geometry": {"location": {"lat": 28.5063707, "lng": 77.08730899999999}, "viewport": {"northeast": {"lat": 28.5077196802915, "lng": 77.0886579802915}, "southwest": {"lat": 28.5050217197085, "lng": 77.0859600197085}}}, "place_id": "ChIJBRwuTwcZDTkRi8BIRb3Tn8U", "plus_code": {"global_code": "7JWVG34P+GW", "compound_code": "G34P+GW Gurugram, Haryana, India"}, "vicinity": "PLOT NO.303, Palam Road, Phase II, Udyog Vihar, PO, Gurugram", "scope": "GOOGLE", "business_status": "OPERATIONAL", "types": ["bank", "finance", "point_of_interest", "establishment"], "icon": "https://maps.gstatic.com/mapfiles/place_api/icons/v1/png_71/bank-71.png"}, {"name": "ICICI BANK ATM", "reference": "ChIJCXsxz6sZDTkR2Qx-fokoOEU", "geometry": {"location": {"lat": 28.5046656, "lng": 77.08747509999999}, "viewport": {"northeast": {"lat": 28.5060347302915, "lng": 77.0887965302915}, "southwest": {"lat": 28.50333676970849, "lng": 77.0860985697085}}}, "opening_hours": {"open_now": true}, "place_id": "ChIJCXsxz6sZDTkR2Qx-fokoOEU", "plus_code": {"global_code": "7JWVG33P+VX", "compound_code": "G33P+VX Gurugram, Haryana, India"}, "vicinity": "Jasper Infotech Pvt Ltd, ASF Center, 362-363, Phase IV, Gurugram", "scope": "GOOGLE", "business_status": "OPERATIONAL", "types": ["bank", "finance", "point_of_interest", "establishment"], "icon": "https://maps.gstatic.com/mapfiles/place_api/icons/v1/png_71/bank-71.png"}]}