{"status": "OK", "next_page_token": "ATtYBwL7oQson9Lm-GOfk7sUfBlOCCXVlOEqdS33XmpDgMuGBNm7rZcxgsHbw49tiCuy8p0z2Kv8mjMktxW7dzxHOnMvfy_Jklxo1Sbtb2BiUgVFN8cacYbZYl18Ovc6_niKhzCUn9fzQ4nZEZQp9kvmY89ZMIDgcn8v5GVzoWKDLczpaaueTDPr5CwAjWdaG8g6mGnTR3vhYwYF44qZjlHQ5rwM3Xbyz13Th1y9-jieoR2_IabTy_Y1y0xrHSOvORJ_QqWNC-sdafWucp7Ly26L_lKfd7epCHB6gPdo38y5bJNCVZGMVy80H9T2chte5YQSyKo8Sy2zX2s2B9QFLd6o9l4OKSBu5rIT5-l31oI8kHhi879lYZp-Qh0KgSGxXYhuEy0bYdVHZhnkWsBie8Te3O7QqufaODWVRaUQc3_qqU63c8IlIZi-HC7go95k1qkodhfUgFK7BNHKNyE5RBr8-LS4x5UB9Srmo063WqOrFXCymkhPclh3RsRXzuQDfg7WGGISOoYSgLV2zTKfX9K8JgPUQ5FrgcJ8B3TdY2L58er9ehYchKiXviDzJvqHtdyhOis6ARpX9EQcDk_c4Wa86QRWFK-f9y3BWHa73lkDNebSY7IWpLx3PRYkMb8ajzgr84hmHg", "html_attributions": [], "results": [{"rating": 2, "user_ratings_total": 1, "name": "Oriental Bank of Commerce", "reference": "ChIJQ4vcrGIEDTkRYBiK7oLm4GA", "geometry": {"location": {"lat": 28.65759959999999, "lng": 77.0909081}, "viewport": {"northeast": {"lat": 28.6589498802915, "lng": 77.0922521302915}, "southwest": {"lat": 28.6562519197085, "lng": 77.08955416970849}}}, "place_id": "ChIJQ4vcrGIEDTkRYBiK7oLm4GA", "plus_code": {"global_code": "7JWVM35R+29", "compound_code": "M35R+29 Delhi, India"}, "vicinity": "B-98, Puspanjli Enclave, Outer Ring Road, Pitampura, Delhi", "scope": "GOOGLE", "business_status": "OPERATIONAL", "types": ["bank", "atm", "finance", "point_of_interest", "establishment"], "icon": "https://maps.gstatic.com/mapfiles/place_api/icons/v1/png_71/bank-71.png"}, {"rating": 2.9, "user_ratings_total": 8, "name": "South Indian Bank", "reference": "ChIJ633W22EDDTkRNdQ4zaudkWQ", "geometry": {"location": {"lat": 28.6392183, "lng": 77.1030971}, "viewport": {"northeast": {"lat": 28.6405422302915, "lng": 77.1044572302915}, "southwest": {"lat": 28.6378442697085, "lng": 77.1017592697085}}}, "opening_hours": {"open_now": false}, "place_id": "ChIJ633W22EDDTkRNdQ4zaudkWQ", "plus_code": {"global_code": "7JWVJ4Q3+M6", "compound_code": "J4Q3+M6 New Delhi, Delhi, India"}, "vicinity": "Ashok Nagar, New Delhi", "photos": [{"photo_reference": "ATtYBwLoPeIf6_urgTuUxrG8tEZoatWhc6ka1EGCESQpz_qw2CagwcLWXRYUPPH08s-ZLDxhdrUy6NGAKgzzTJ40Z8wNoDcHV7GhJWaXaAKm9iNjQqyOhzBmD519xrz9AkmIbzwym7L-qRDkDEXgu0tWH1JnZFa2i7YYW5_536wBWxdPd09d", "width": 5312, "html_attributions": ["<a href=\"https://maps.google.com/maps/contrib/106193799713861669690\">Inder Sangha</a>"], "height": 2988}], "scope": "GOOGLE", "business_status": "OPERATIONAL", "types": ["bank", "finance", "point_of_interest", "establishment"], "icon": "https://maps.gstatic.com/mapfiles/place_api/icons/v1/png_71/bank-71.png"}, {"rating": 4.1, "user_ratings_total": 17, "name": "Bank of Baroda", "reference": "ChIJQ7ICWJ4EDTkRYpWg6SHPjkc", "geometry": {"location": {"lat": 28.638599, "lng": 77.099657}, "viewport": {"northeast": {"lat": 28.6399177802915, "lng": 77.10102153029149}, "southwest": {"lat": 28.6372198197085, "lng": 77.09832356970848}}}, "opening_hours": {"open_now": false}, "place_id": "ChIJQ7ICWJ4EDTkRYpWg6SHPjkc", "plus_code": {"global_code": "7JWVJ3QX+CV", "compound_code": "J3QX+CV New Delhi, Delhi, India"}, "vicinity": "4B/1, Santpura Bus Stand, Block 4B, Tilak Nagar, New Delhi", "photos": [{"photo_reference": "ATtYBwIj9h53_I0CgLp8apho0rU_pV5twHy1qT76_YijgpuM1hPBWyCcv8BDDtkzlNSRzPwOo_9cnQMqX-826EobdTP3kP1vKec9lHMk84VMUbV-hZnqVtabGheb1MVNP2T2jwg_lP0cCEo-5e8CzrKrIlj9a1bifFnw7KGty3AZsuaLyDyN", "width": 3264, "html_attributions": ["<a href=\"https://maps.google.com/maps/contrib/114278263781774869292\">Arvind Kumar</a>"], "height": 2448}], "scope": "GOOGLE", "business_status": "OPERATIONAL", "types": ["atm", "bank", "finance", "point_of_interest", "establishment"], "icon": "https://maps.gstatic.com/mapfiles/place_api/icons/v1/png_71/bank-71.png"}, {"rating": 2.6, "user_ratings_total": 16, "name": "HDFC Bank", "reference": "ChIJq6pq-YUDDTkRu8sWqw5Pgcs", "geometry": {"location": {"lat": 28.6611034, "lng": 77.10111069999999}, "viewport": {"northeast": {"lat": 28.66277748029149, "lng": 77.1023978802915}, "southwest": {"lat": 28.66007951970849, "lng": 77.0996999197085}}}, "opening_hours": {"open_now": false}, "place_id": "ChIJq6pq-YUDDTkRu8sWqw5Pgcs", "plus_code": {"global_code": "7JWVM462+CC", "compound_code": "M462+CC New Delhi, Delhi, India"}, "vicinity": "No B, 2/10, Paschim Vihar, New Delhi", "photos": [{"photo_reference": "ATtYBwKQLem5np9NyojN4_LfY8qbtdzKN4ykaCq88jNm3T08aUOFlNMAXAYkKTRBC9GYQmsrDr74ZsKFuT_5fgRMARc9gCySEMwAA7Jp5cPBMBNqO73ywzmuM7Lm5KSGFe0z-64OJfMjAuu8fthAcp77CkMGCMM_Rm74UD0MDLOELlMBq1Qj", "width": 1920, "html_attributions": ["<a href=\"https://maps.google.com/maps/contrib/112249184546533179184\">Ayyub Khan Afridi</a>"], "height": 1080}], "scope": "GOOGLE", "business_status": "OPERATIONAL", "types": ["bank", "finance", "point_of_interest", "establishment"], "icon": "https://maps.gstatic.com/mapfiles/place_api/icons/v1/png_71/bank-71.png"}, {"name": "Axis Bank ATM", "reference": "ChIJOZWTMXXkDDkRQ-4aI5wilXE", "geometry": {"location": {"lat": 28.6397563, "lng": 77.0946388}, "viewport": {"northeast": {"lat": 28.6411584802915, "lng": 77.0960453302915}, "southwest": {"lat": 28.6384605197085, "lng": 77.0933473697085}}}, "opening_hours": {"open_now": true}, "place_id": "ChIJOZWTMXXkDDkRQ-4aI5wilXE", "plus_code": {"global_code": "7JWVJ3QV+WV", "compound_code": "J3QV+WV New Delhi, Delhi, India"}, "vicinity": "No 15, 9, Tilak Nagar, New Delhi", "scope": "GOOGLE", "business_status": "OPERATIONAL", "types": ["atm", "bank", "finance", "point_of_interest", "establishment"], "icon": "https://maps.gstatic.com/mapfiles/place_api/icons/v1/png_71/atm-71.png"}, {"rating": 4.3, "user_ratings_total": 4, "name": "Canara Bank", "reference": "ChIJY_mnZNkEDTkRE9k5OmYEnqE", "geometry": {"location": {"lat": 28.6385238, "lng": 77.1005957}, "viewport": {"northeast": {"lat": 28.6399001302915, "lng": 77.10192963029151}, "southwest": {"lat": 28.63720216970849, "lng": 77.0992316697085}}}, "opening_hours": {"open_now": false}, "place_id": "ChIJY_mnZNkEDTkRE9k5OmYEnqE", "plus_code": {"global_code": "7JWVJ4Q2+C6", "compound_code": "J4Q2+C6 New Delhi, Delhi, India"}, "vicinity": "WZ- 13 A, 13 B, Main Najafgarh Road, Uttam Nagar, New Delhi", "scope": "GOOGLE", "business_status": "OPERATIONAL", "types": ["bank", "finance", "point_of_interest", "establishment"], "icon": "https://maps.gstatic.com/mapfiles/place_api/icons/v1/png_71/bank-71.png"}, {"rating": 3.5, "user_ratings_total": 12, "name": "State Bank of India", "reference": "ChIJbXkDOWUDDTkRynlUp9Wfp9g", "geometry": {"location": {"lat": 28.6467191, "lng": 77.1123843}, "viewport": {"northeast": {"lat": 28.6480941802915, "lng": 77.1137798802915}, "southwest": {"lat": 28.6453962197085, "lng": 77.1110819197085}}}, "opening_hours": {"open_now": false}, "place_id": "ChIJbXkDOWUDDTkRynlUp9Wfp9g", "plus_code": {"global_code": "7JWVJ4W6+MX", "compound_code": "J4W6+MX New Delhi, Delhi, India"}, "vicinity": "B 20-21, Shopping Centre, Behind, Community Center, Tagore Garden, New Delhi", "photos": [{"photo_reference": "ATtYBwJwZpKKnDXXqi_k_m3shIk_PwCUZzY6LXzATvSrbDTeZkBGNGkSlcdenJOBX4PX4CPX7rRyHhpAlXqhjmRkSyY31qdiWOdX-ZTeUvQ-G7j5n0boqwOI45AE_eTqsDvFwGeGODUHFvuqJ9PcgzbSCaR7eMqoQXxeWf97m54-k2b-4_Fu", "width": 3264, "html_attributions": ["<a href=\"https://maps.google.com/maps/contrib/107242019804542708209\">Trending Tara</a>"], "height": 2448}], "scope": "GOOGLE", "business_status": "OPERATIONAL", "types": ["atm", "bank", "finance", "point_of_interest", "establishment"], "icon": "https://maps.gstatic.com/mapfiles/place_api/icons/v1/png_71/bank-71.png"}, {"rating": 3.3, "user_ratings_total": 21, "name": "ICICI Bank Paschim Vihar, New Delhi - Branch & ATM", "reference": "ChIJC9ErNn0EDTkRIleb4ivhOvg", "geometry": {"location": {"lat": 28.6586, "lng": 77.09150000000001}, "viewport": {"northeast": {"lat": 28.6599617802915, "lng": 77.09279173029152}, "southwest": {"lat": 28.6572638197085, "lng": 77.0900937697085}}}, "opening_hours": {"open_now": false}, "place_id": "ChIJC9ErNn0EDTkRIleb4ivhOvg", "plus_code": {"global_code": "7JWVM35R+CH", "compound_code": "M35R+CH New Delhi, Delhi, India"}, "vicinity": "B - 368, Meera Bagh, Paschim Vihar, New Delhi", "photos": [{"photo_reference": "ATtYBwJYXhESWjqgLDhIICgL66L3ZItuT0y08P_BrxH6qVgSQrOZm1LlP6Od-R2FdFEgeNXt32ZYIPDMWxMI76wfy9HVMXz-_xIrxDLl6BijFvCmTBuh6CxoVvS1eVtuFXEemfXkFDYczOs_j-BGsBkUhXrFqFVMS0OAwoU5QII0QI-6Ts88", "width": 2963, "html_attributions": ["<a href=\"https://maps.google.com/maps/contrib/116286203551397092959\">M K</a>"], "height": 3176}], "scope": "GOOGLE", "business_status": "OPERATIONAL", "types": ["bank", "atm", "finance", "point_of_interest", "establishment"], "icon": "https://maps.gstatic.com/mapfiles/place_api/icons/v1/png_71/bank-71.png"}, {"rating": 3.1, "user_ratings_total": 14, "name": "Oriental Bank of Commerce", "reference": "ChIJlR6ZOWUDDTkRqpzfuyEhzVE", "geometry": {"location": {"lat": 28.6461635, "lng": 77.11232389999999}, "viewport": {"northeast": {"lat": 28.64745158029151, "lng": 77.1137102802915}, "southwest": {"lat": 28.6447536197085, "lng": 77.11101231970848}}}, "opening_hours": {"open_now": false}, "place_id": "ChIJlR6ZOWUDDTkRqpzfuyEhzVE", "plus_code": {"global_code": "7JWVJ4W6+FW", "compound_code": "J4W6+FW New Delhi, Delhi, India"}, "vicinity": "Block BA, Tagore Garden, Tagore Garden Extension, New Delhi", "photos": [{"photo_reference": "ATtYBwIYVR1QeQQoDKvcx5fDCIuR26xQnoEQPHKsqjBiCDxG9HvfCIOS-bQvbvAiRbE18kN_23AwWLvzd3WaPiNXtBg2S9-OkA8irjasutLMm4FgDitBkkBDtNeE9dHJS2Qjifym-zuKAw8GbwiqI-nJRg5JoMyv5YProm4YjpNFg55b46rQ", "width": 4128, "html_attributions": ["<a href=\"https://maps.google.com/maps/contrib/105510503106527423065\">sukhvinder singh</a>"], "height": 3096}], "scope": "GOOGLE", "business_status": "OPERATIONAL", "types": ["atm", "bank", "finance", "point_of_interest", "establishment"], "icon": "https://maps.gstatic.com/mapfiles/place_api/icons/v1/png_71/bank-71.png"}, {"rating": 3.4, "user_ratings_total": 9, "name": "Allahabad Bank", "reference": "ChIJezAHbJkEDTkRiAwD5qmWE3w", "geometry": {"location": {"lat": 28.639137, "lng": 77.09493499999999}, "viewport": {"northeast": {"lat": 28.6404954802915, "lng": 77.0963428802915}, "southwest": {"lat": 28.6377975197085, "lng": 77.09364491970848}}}, "opening_hours": {"open_now": true}, "place_id": "ChIJezAHbJkEDTkRiAwD5qmWE3w", "plus_code": {"global_code": "7JWVJ3QV+MX", "compound_code": "J3QV+MX New Delhi, Delhi, India"}, "vicinity": "16/2r, Mangal Bazar Road, Block 16, Tilak Nagar, New Delhi", "photos": [{"photo_reference": "ATtYBwJyF0qFWPxaMG9j9JZFuTS-k6E_CQWORsyDQ1KkJXdOsOGCNYlYOPmITLWdu1SiAcM5Q6xYk60NXotluZcw7ySW_P7b2JSB5AZJk9fntPDKhhDThCiJWsMP9hRqsk8z1I7DWKCVhcSvCVxd7mcD55HHox5LKgx8MR8YWgHsEph2H-bH", "width": 3024, "html_attributions": ["<a href=\"https://maps.google.com/maps/contrib/117507991411722761984\">Ranjeet Singh</a>"], "height": 4032}], "scope": "GOOGLE", "business_status": "OPERATIONAL", "types": ["bank", "finance", "point_of_interest", "establishment"], "icon": "https://maps.gstatic.com/mapfiles/place_api/icons/v1/png_71/bank-71.png"}, {"rating": 3.5, "user_ratings_total": 15, "name": "Bank of India", "reference": "ChIJoyoYSZ4EDTkRaStkgwXBPnQ", "geometry": {"location": {"lat": 28.6384066, "lng": 77.1007144}, "viewport": {"northeast": {"lat": 28.6392233802915, "lng": 77.10207248029151}, "southwest": {"lat": 28.63652541970849, "lng": 77.09937451970849}}}, "opening_hours": {"open_now": false}, "place_id": "ChIJoyoYSZ4EDTkRaStkgwXBPnQ", "plus_code": {"global_code": "7JWVJ4Q2+97", "compound_code": "J4Q2+97 New Delhi, Delhi, India"}, "vicinity": "Mukund Lal Katyal Marg, Meenakshi Garden, Ashok Nagar, New Delhi", "photos": [{"photo_reference": "ATtYBwIEiBDbYMIhrjBsHbd3JEL1TcbNo7fX5RW72f6pdRVQ6JMQ8MhZeNX7fDeGHKfNbdcjndOg8_cmIon6Anp_mydPwgYWR0ssnGCKEVKUf4UcLh9b6U3K4bh-rZA1CazSLhZsbN0U93P8ZXmgMyNdzHKhBJpRv82Ss_dHI1M7hbcZv14H", "width": 1280, "html_attributions": ["<a href=\"https://maps.google.com/maps/contrib/107242019804542708209\">Trending Tara</a>"], "height": 720}], "scope": "GOOGLE", "business_status": "OPERATIONAL", "types": ["bank", "finance", "point_of_interest", "establishment"], "icon": "https://maps.gstatic.com/mapfiles/place_api/icons/v1/png_71/bank-71.png"}, {"rating": 5, "user_ratings_total": 1, "name": "Axis Bank ATM", "reference": "ChIJ05AJtmEDDTkRmd1eDeGVWXE", "geometry": {"location": {"lat": 28.6394666, "lng": 77.10560079999999}, "viewport": {"northeast": {"lat": 28.6408155302915, "lng": 77.10695718029149}, "southwest": {"lat": 28.6381175697085, "lng": 77.10425921970848}}}, "opening_hours": {"open_now": true}, "place_id": "ChIJ05AJtmEDDTkRmd1eDeGVWXE", "plus_code": {"global_code": "7JWVJ4Q4+Q6", "compound_code": "J4Q4+Q6 New Delhi, Delhi, India"}, "vicinity": "opposite Muthoot Finance, WZ 43, Ashok Nagar, New Delhi", "scope": "GOOGLE", "business_status": "OPERATIONAL", "types": ["atm", "bank", "finance", "point_of_interest", "establishment"], "icon": "https://maps.gstatic.com/mapfiles/place_api/icons/v1/png_71/atm-71.png"}, {"rating": 2.5, "user_ratings_total": 21, "name": "Axis Bank", "reference": "ChIJbd5eh_T9DDkRFy95thN8aac", "geometry": {"location": {"lat": 28.6383484, "lng": 77.09896169999999}, "viewport": {"northeast": {"lat": 28.6397476802915, "lng": 77.1002797802915}, "southwest": {"lat": 28.6370497197085, "lng": 77.09758181970848}}}, "opening_hours": {"open_now": false}, "place_id": "ChIJbd5eh_T9DDkRFy95thN8aac", "plus_code": {"global_code": "7JWVJ3QX+8H", "compound_code": "J3QX+8H New Delhi, Delhi, India"}, "vicinity": "No 4 A/1, Kirpal Plaza, Najafgarh Road, Tilak Nagar, New Delhi", "photos": [{"photo_reference": "ATtYBwJ18VHJUyEaCksd6iKlNFgQL2T7ZCEsx3stv_9t22Q8bc6D5KVmLmlirD4uQjYhWnzmq6780Ar-zIXgLLc_nOoQEmQPnp7btvcNAdghDmgaLindVq1rUn_lQxCVoHOT5QpnoXRA1TyGTikx_HTWzfWuB8AqA3OD-579By5vNfEo-4z5", "width": 1280, "html_attributions": ["<a href=\"https://maps.google.com/maps/contrib/107242019804542708209\">Trending Tara</a>"], "height": 720}], "scope": "GOOGLE", "business_status": "OPERATIONAL", "types": ["bank", "finance", "point_of_interest", "establishment"], "icon": "https://maps.gstatic.com/mapfiles/place_api/icons/v1/png_71/bank-71.png"}, {"rating": 1, "user_ratings_total": 1, "name": "Axis Bank ATM", "reference": "ChIJLebaw5EEDTkRTwh5dqKjX6w", "geometry": {"location": {"lat": 28.6393429, "lng": 77.1055769}, "viewport": {"northeast": {"lat": 28.6406916302915, "lng": 77.1069561802915}, "southwest": {"lat": 28.6379936697085, "lng": 77.1042582197085}}}, "opening_hours": {"open_now": true}, "place_id": "ChIJLebaw5EEDTkRTwh5dqKjX6w", "plus_code": {"global_code": "7JWVJ4Q4+P6", "compound_code": "J4Q4+P6 New Delhi, Delhi, India"}, "vicinity": "opposite Muthoot Finance, WZ 43, Ashok Nagar, New Delhi", "scope": "GOOGLE", "business_status": "OPERATIONAL", "types": ["atm", "bank", "finance", "point_of_interest", "establishment"], "icon": "https://maps.gstatic.com/mapfiles/place_api/icons/v1/png_71/atm-71.png"}, {"rating": 2, "user_ratings_total": 1, "name": "Manappuram Finance", "reference": "ChIJ86aCyo4EDTkR3UHnH9Svxkc", "geometry": {"location": {"lat": 28.6508184, "lng": 77.0866656}, "viewport": {"northeast": {"lat": 28.65216583029149, "lng": 77.08801448029152}, "southwest": {"lat": 28.6494678697085, "lng": 77.0853165197085}}}, "place_id": "ChIJ86aCyo4EDTkR3UHnH9Svxkc", "plus_code": {"global_code": "7JWVM32P+8M", "compound_code": "M32P+8M Delhi, India"}, "vicinity": "Keshopur Road, Block RZ, Chaukhandi, Vishnu Garden, Delhi", "photos": [{"photo_reference": "ATtYBwL6QByWsaye4ZOxj6iOshVN-VupLWHzKDHiwBv4eax-Kk4fRePy1eClPbdrsvpWCaFw833DLV9aV4kG60BMjc7f2mtMbYhz4k3KZKqC2cVPGUo0XCg8KBcMPs6Qg6st_LbpIrHkWELQBNbxAy-fp4BmCB8VzYLU7nMd25DoF1bHpdxC", "width": 2448, "html_attributions": ["<a href=\"https://maps.google.com/maps/contrib/101207410877709717921\">Hero 3544y</a>"], "height": 3264}], "scope": "GOOGLE", "business_status": "OPERATIONAL", "types": ["bank", "finance", "point_of_interest", "establishment"], "icon": "https://maps.gstatic.com/mapfiles/place_api/icons/v1/png_71/bank-71.png"}, {"rating": 2.2, "user_ratings_total": 10, "name": "YES Bank", "reference": "ChIJ69iAWZAEDTkRns6aVsjWG_Q", "geometry": {"location": {"lat": 28.64293, "lng": 77.08898400000001}, "viewport": {"northeast": {"lat": 28.6442686802915, "lng": 77.09032453029151}, "southwest": {"lat": 28.6415707197085, "lng": 77.0876265697085}}}, "opening_hours": {"open_now": false}, "place_id": "ChIJ69iAWZAEDTkRns6aVsjWG_Q", "plus_code": {"global_code": "7JWVJ3VQ+5H", "compound_code": "J3VQ+5H New Delhi, Delhi, India"}, "vicinity": "Ground, 5A/15, Tilak Nagar, New Delhi", "photos": [{"photo_reference": "ATtYBwL1cxn_teOeuIEpWZdFNRTsfXbYSmuYohoa56iAs2v1adOZP3qRikxVdLDPBcJt-RiyN1uIDazqyaMjJ4bUlCvHLZck-ocxifLtZOxarn1yZCOfLojdbe5gnVb-RozRURPlxnq-qoVAYJ7WcuJD01GLoSalBEK1h2heS-NOj9YwjoOm", "width": 2448, "html_attributions": ["<a href=\"https://maps.google.com/maps/contrib/111475898706632478234\">Gobind Deep Singh</a>"], "height": 1375}], "scope": "GOOGLE", "business_status": "OPERATIONAL", "types": ["bank", "finance", "point_of_interest", "establishment"], "icon": "https://maps.gstatic.com/mapfiles/place_api/icons/v1/png_71/bank-71.png"}, {"rating": 3, "user_ratings_total": 1, "name": "Panjab And Sind Bank", "reference": "ChIJZYizhnoDDTkR9X3Z_8U6fzA", "geometry": {"location": {"lat": 28.6503968, "lng": 77.1136245}, "viewport": {"northeast": {"lat": 28.6517743802915, "lng": 77.1150100302915}, "southwest": {"lat": 28.6490764197085, "lng": 77.1123120697085}}}, "place_id": "ChIJZYizhnoDDTkR9X3Z_8U6fzA", "plus_code": {"global_code": "7JWVM427+5C", "compound_code": "M427+5C New Delhi, Delhi, India"}, "vicinity": "110027, Pocket AD, Tagore Garden, Tagore Garden Extension, New Delhi", "photos": [{"photo_reference": "ATtYBwK9f18ZCIxd96qIb2B31y1FT0LlcS2drfy86fz4MnPOZO4RnU4m1uuyA_L8yxta6BcqqLbXNzDPI__kjWv5tftWEvlL6UqVTL8JTZyfJb87vW29XOuX_y3IZt7dPZRA3O2NStNePyx4f4TkrRcpgFOIt8Q3_CoSW_Y6jdoLNxF_gbLS", "width": 4160, "html_attributions": ["<a href=\"https://maps.google.com/maps/contrib/110211609551429693935\">Shubham Baswal</a>"], "height": 2340}], "scope": "GOOGLE", "business_status": "OPERATIONAL", "types": ["bank", "finance", "point_of_interest", "establishment"], "icon": "https://maps.gstatic.com/mapfiles/place_api/icons/v1/png_71/bank-71.png"}, {"rating": 5, "user_ratings_total": 1, "name": "YES Bank ATM", "reference": "ChIJLQfnOTHdKDoRlQLQTHTp3uk", "geometry": {"location": {"lat": 28.65977969999999, "lng": 77.0918047}, "viewport": {"northeast": {"lat": 28.6612143802915, "lng": 77.0931651802915}, "southwest": {"lat": 28.6585164197085, "lng": 77.0904672197085}}}, "opening_hours": {"open_now": true}, "place_id": "ChIJLQfnOTHdKDoRlQLQTHTp3uk", "plus_code": {"global_code": "7JWVM35R+WP", "compound_code": "M35R+WP New Delhi, Delhi, India"}, "vicinity": "Ground, B/379, Outer Ring Road, Meera Bagh, New Delhi", "photos": [{"photo_reference": "ATtYBwLwIoGRUTG_NkwfEW6s0V6yUeQoYI_pOwk7B-hYoMR-UB2KcRQwenA2_TyMtqBSQ2EN9S79PDyhoFI284TXSXWGdHSqnIqZu8ZCUJBnqpHHA4ax1hALhKYo2U7ZiUAM-ybetc4Xygz_A1Gr2Mn7OJ_d1PBXvKMLQp-6zDscgvR5w5Ot", "width": 400, "html_attributions": ["<a href=\"https://maps.google.com/maps/contrib/108382116505933044567\">YES Bank ATM</a>"], "height": 400}], "scope": "GOOGLE", "business_status": "OPERATIONAL", "types": ["atm", "bank", "finance", "point_of_interest", "establishment"], "icon": "https://maps.gstatic.com/mapfiles/place_api/icons/v1/png_71/atm-71.png"}, {"rating": 3.4, "user_ratings_total": 22, "name": "HDFC Bank", "reference": "ChIJVQNLu2UDDTkRKACbGBECGm4", "geometry": {"location": {"lat": 28.644087, "lng": 77.112123}, "viewport": {"northeast": {"lat": 28.6453960802915, "lng": 77.1134060302915}, "southwest": {"lat": 28.64269811970849, "lng": 77.11070806970848}}}, "opening_hours": {"open_now": false}, "place_id": "ChIJVQNLu2UDDTkRKACbGBECGm4", "plus_code": {"global_code": "7JWVJ4V6+JR", "compound_code": "J4V6+JR New Delhi, Delhi, India"}, "vicinity": "BF 1, Tagore Garden, New Delhi", "photos": [{"photo_reference": "ATtYBwIHzV280jhQMVa8xnkthVKiO9tCOGJMypaN7hNztH7m8hmEEP-xw8XcRylKOeQRN4BFdh4v5Y756IoirWmJmtpM5KgvJW_ypKBV7_PczYj2QE8fJv0-wGGfqWeQludt1jZ0eD_bIB6D0LXH8s-W4RYV5dPOyh-_9eA6fA_hyN5blwqf", "width": 3096, "html_attributions": ["<a href=\"https://maps.google.com/maps/contrib/108553086112667530806\">Love kaushik</a>"], "height": 4128}], "scope": "GOOGLE", "business_status": "OPERATIONAL", "types": ["bank", "finance", "point_of_interest", "establishment"], "icon": "https://maps.gstatic.com/mapfiles/place_api/icons/v1/png_71/bank-71.png"}, {"name": "HDFC Bank ATM", "reference": "ChIJvU5Ku2UDDTkRVNr9TodgEoo", "geometry": {"location": {"lat": 28.64408, "lng": 77.11211999999999}, "viewport": {"northeast": {"lat": 28.6453908302915, "lng": 77.11340593029149}, "southwest": {"lat": 28.6426928697085, "lng": 77.11070796970849}}}, "opening_hours": {"open_now": true}, "place_id": "ChIJvU5Ku2UDDTkRVNr9TodgEoo", "plus_code": {"global_code": "7JWVJ4V6+JR", "compound_code": "J4V6+JR New Delhi, Delhi, India"}, "vicinity": "BF 1, Tagore Garden, New Delhi", "photos": [{"photo_reference": "ATtYBwK0jpL9K9YOUPm4H4Z85xJIpSOdJj39bMRtCha8fENc7fyuBGk4OfwIgzK9LVdTRWFVyFfGwElXsSSr_Y8E3PlFFW-ZRw4j-vwQW82d0R7dP31vjJXHfipEMoZXSVHX9moXK2NPqU5xrRaDL9oXgGTdrhSnmJJPuEM5mTE3b_zmkn6_", "width": 2304, "html_attributions": ["<a href=\"https://maps.google.com/maps/contrib/109669396660355652004\">Abhay Kalra</a>"], "height": 4608}], "scope": "GOOGLE", "business_status": "OPERATIONAL", "types": ["atm", "bank", "finance", "point_of_interest", "establishment"], "icon": "https://maps.gstatic.com/mapfiles/place_api/icons/v1/png_71/atm-71.png"}]}