{"status": "OK", "next_page_token": "ATtYBwKByWcZbI4IZB-PIXQIDDAaYudPJHIiuphLy0vmooiSocmfuic_4LHkb3ZSjFabloRSGKhso33SI2DqZyVIB0h2bXSMTuiFp3uVCdCgeE8acVsG2TF4oFitDUOoepKckOmmdQ2GT0zvW2x24QD09Xgj9JwMvV2EY5AuaAUle2wMvh91LZMfBKwSZEpItKtnxwd4k4sggFl_gjCO6A11ykg274Pc4lMo_wSQEicsAvoIOhAlN4wCIRhE28viWiH0gt40h4eo5sjgPduvvpkjhZ-70CV0UqkLk7gaOtCixLF5ceBFPM9TMjgETl24yilSjNlOSH8YQASO_iseNAMtqp7T2eO9nikzO0qoaY2bFjF9SkKB3VHXYaCdhpWF-z8vsZvT0pgrTSI1Gr6zuILKEFkAa9nt-mQwO0lDdm5X12W6JOKJ", "html_attributions": [], "results": [{"rating": 4, "user_ratings_total": 12, "name": "IndusInd Bank", "reference": "ChIJy8-kYQ8DDTkRtmhcADCZQgY", "geometry": {"location": {"lat": 28.652439, "lng": 77.13164499999999}, "viewport": {"northeast": {"lat": 28.6537826802915, "lng": 77.1329824802915}, "southwest": {"lat": 28.6510847197085, "lng": 77.1302845197085}}}, "opening_hours": {"open_now": false}, "place_id": "ChIJy8-kYQ8DDTkRtmhcADCZQgY", "plus_code": {"global_code": "7JWVM42J+XM", "compound_code": "M42J+XM New Delhi, Delhi, India"}, "vicinity": "4, Ratiram Park, Shivaji Marg, Delhi Road, Najafgarh, Najafgarh, New Delhi", "scope": "GOOGLE", "business_status": "OPERATIONAL", "types": ["bank", "finance", "point_of_interest", "establishment"], "icon": "https://maps.gstatic.com/mapfiles/place_api/icons/v1/png_71/bank-71.png"}, {"rating": 2.8, "user_ratings_total": 22, "name": "HDFC Bank", "reference": "ChIJ9XK66AQDDTkRVrJIe7VRmQY", "geometry": {"location": {"lat": 28.65228, "lng": 77.1407967}, "viewport": {"northeast": {"lat": 28.6536165302915, "lng": 77.14218583029151}, "southwest": {"lat": 28.6509185697085, "lng": 77.1394878697085}}}, "opening_hours": {"open_now": false}, "place_id": "ChIJ9XK66AQDDTkRVrJIe7VRmQY", "plus_code": {"global_code": "7JWVM42R+W8", "compound_code": "M42R+W8 New Delhi, Delhi, India"}, "vicinity": "F 38, Kirti Nagar, New Delhi", "photos": [{"photo_reference": "ATtYBwKc8K9o8R21yDdVi2o1Ah1talt39Ms-OivRcTAVdVt1tf4xuMwmojc_ksfCrUoDmzJ6ipEhpIGrsnYrAEEkuzQH5WxpohTh6Ofn09dw7RsIgce8Kc8VvWoELkWi-POpKHB0PLnOQMWDHCTAtYuJrs-ZqY7jQPz7HDJeAif0s6whNAhC", "width": 300, "html_attributions": ["<a href=\"https://maps.google.com/maps/contrib/107914701764763708663\">HDFC Bank</a>"], "height": 300}], "scope": "GOOGLE", "business_status": "OPERATIONAL", "types": ["bank", "finance", "point_of_interest", "establishment"], "icon": "https://maps.gstatic.com/mapfiles/place_api/icons/v1/png_71/bank-71.png"}, {"rating": 4.3, "user_ratings_total": 4, "name": "Punjab & Sind Bank", "reference": "ChIJDT2KuAcDDTkR_-uyRtmifhM", "geometry": {"location": {"lat": 28.6597413, "lng": 77.13843229999999}, "viewport": {"northeast": {"lat": 28.66110438029149, "lng": 77.13980498029149}, "southwest": {"lat": 28.65840641970849, "lng": 77.13710701970848}}}, "opening_hours": {"open_now": false}, "place_id": "ChIJDT2KuAcDDTkR_-uyRtmifhM", "plus_code": {"global_code": "7JWVM45Q+V9", "compound_code": "M45Q+V9 New Delhi, Delhi, India"}, "vicinity": "9/36, Jagdish Sachdeva Marg, Block 9, Moti Nagar, New Delhi", "photos": [{"photo_reference": "ATtYBwJW_1rGiqmCYcXky5uGvI7bntalOE2SaBAZoJyabhReUC3yQqbD3YSAjLnqZ-_TSH-slcRDCDsZvEJcKEDNaA698dfzdz4KruIR22C-I1vcurtLjz4h2Y0c2viAiuLHWtMRc2S_xcFq8DjXpeT9KgqMgVvGqLPpSL2xy1BH8P_GX7qS", "width": 3120, "html_attributions": ["<a href=\"https://maps.google.com/maps/contrib/108334076435373955271\">Gurdeep Singh</a>"], "height": 4160}], "scope": "GOOGLE", "business_status": "OPERATIONAL", "types": ["bank", "finance", "point_of_interest", "establishment"], "icon": "https://maps.gstatic.com/mapfiles/place_api/icons/v1/png_71/bank-71.png"}, {"rating": 2.3, "user_ratings_total": 7, "name": "Union Bank of India", "reference": "ChIJz-L64QQDDTkRVW8zw-di1Ic", "geometry": {"location": {"lat": 28.6521345, "lng": 77.1399195}, "viewport": {"northeast": {"lat": 28.6534194802915, "lng": 77.1412194802915}, "southwest": {"lat": 28.6507215197085, "lng": 77.13852151970849}}}, "opening_hours": {"open_now": false}, "place_id": "ChIJz-L64QQDDTkRVW8zw-di1Ic", "plus_code": {"global_code": "7JWVM42Q+VX", "compound_code": "M42Q+VX New Delhi, Delhi, India"}, "vicinity": "D-39, Bhimsen Dhingra Marg, Block D, Kirti Nagar, New Delhi", "photos": [{"photo_reference": "ATtYBwJcssN0_79U7I6UbHiqNKdl13Ydum6Jkhwi7YN2TQUJBp9N4LuwQzXNheHtVw6KAuhy7zewinbgPzx6adn2HexITLAYCHdC3HQgoj_K1Vxa24-fvn_uyB6K3xc-KhuH_vm-7cn2ZT_sznLNgXEBmoQivlOzz19aSQFu5akoX_wERW39", "width": 3120, "html_attributions": ["<a href=\"https://maps.google.com/maps/contrib/117883430331194542023\">Deepak Singh</a>"], "height": 4160}], "scope": "GOOGLE", "business_status": "OPERATIONAL", "types": ["atm", "bank", "finance", "point_of_interest", "establishment"], "icon": "https://maps.gstatic.com/mapfiles/place_api/icons/v1/png_71/bank-71.png"}, {"rating": 3.4, "user_ratings_total": 9, "name": "State Bank of India", "reference": "ChIJVVVVlQwDDTkRaXhSKu8hHIk", "geometry": {"location": {"lat": 28.6525149, "lng": 77.1292283}, "viewport": {"northeast": {"lat": 28.6538837802915, "lng": 77.13064983029149}, "southwest": {"lat": 28.6511858197085, "lng": 77.12795186970848}}}, "opening_hours": {"open_now": true}, "place_id": "ChIJVVVVlQwDDTkRaXhSKu8hHIk", "plus_code": {"global_code": "7JWVM43H+2M", "compound_code": "M43H+2M New Delhi, Delhi, India"}, "vicinity": "Maj Sunil Bakshi Marg, Block H, Bali Nagar, New Delhi", "scope": "GOOGLE", "business_status": "OPERATIONAL", "types": ["atm", "bank", "finance", "point_of_interest", "establishment"], "icon": "https://maps.gstatic.com/mapfiles/place_api/icons/v1/png_71/bank-71.png"}, {"rating": 4.2, "user_ratings_total": 10, "name": "UCO Bank", "reference": "ChIJ_YFubw8DDTkRj1aEXhjhTro", "geometry": {"location": {"lat": 28.6538849, "lng": 77.1360326}, "viewport": {"northeast": {"lat": 28.6552183302915, "lng": 77.13744838029149}, "southwest": {"lat": 28.6525203697085, "lng": 77.13475041970848}}}, "opening_hours": {"open_now": false}, "place_id": "ChIJ_YFubw8DDTkRj1aEXhjhTro", "plus_code": {"global_code": "7JWVM43P+HC", "compound_code": "M43P+HC New Delhi, Delhi, India"}, "vicinity": "No B6 Tagore Market, Kirti Nagar, New Delhi", "photos": [{"photo_reference": "ATtYBwK0NGUOYkYqyuwVctYPqWYPz2JBMPIkZR19wkwh5Xk8kEfhHoGhABbmSXdP0TemJ38rOEpMiA6fRea8e04SlJFeefcpc7JRVdZeB06x5rubM-Ket0DrdZRuOAGCWFeh8MRl6KgjzZ1dTkJhnO1sMWXD_E9MZFOwuY4TesuVgEVvoX-U", "width": 720, "html_attributions": ["<a href=\"https://maps.google.com/maps/contrib/117583440689924705600\">UCO Bank</a>"], "height": 720}], "scope": "GOOGLE", "business_status": "OPERATIONAL", "types": ["bank", "atm", "finance", "point_of_interest", "establishment"], "icon": "https://maps.gstatic.com/mapfiles/place_api/icons/v1/png_71/bank-71.png"}, {"rating": 4, "user_ratings_total": 7, "name": "Punjab National Bank", "reference": "ChIJ7cO2RBwDDTkRurBKN-KVrL0", "geometry": {"location": {"lat": 28.6471603, "lng": 77.14461000000001}, "viewport": {"northeast": {"lat": 28.6485647802915, "lng": 77.1460020302915}, "southwest": {"lat": 28.6458668197085, "lng": 77.14330406970849}}}, "opening_hours": {"open_now": false}, "place_id": "ChIJ7cO2RBwDDTkRurBKN-KVrL0", "plus_code": {"global_code": "7JWVJ4WV+VR", "compound_code": "J4WV+VR New Delhi, Delhi, India"}, "vicinity": "Block 10, Kirti Nagar Industrial Area, Kirti Nagar, New Delhi", "scope": "GOOGLE", "business_status": "OPERATIONAL", "types": ["bank", "finance", "point_of_interest", "establishment"], "icon": "https://maps.gstatic.com/mapfiles/place_api/icons/v1/png_71/bank-71.png"}, {"rating": 3.4, "user_ratings_total": 13, "name": "Bank of Baroda", "reference": "ChIJbxrrhBwDDTkRlmuOCo1riSI", "geometry": {"location": {"lat": 28.6465531, "lng": 77.1412821}, "viewport": {"northeast": {"lat": 28.6479799802915, "lng": 77.1425595302915}, "southwest": {"lat": 28.6452820197085, "lng": 77.1398615697085}}}, "opening_hours": {"open_now": false}, "place_id": "ChIJbxrrhBwDDTkRlmuOCo1riSI", "plus_code": {"global_code": "7JWVJ4WR+JG", "compound_code": "J4WR+JG New Delhi, Delhi, India"}, "vicinity": "Satguru Ram Singh Road, Furniture Block, Kirti Nagar Industrial Area, Kirti Nagar, New Delhi", "photos": [{"photo_reference": "ATtYBwIjLoPbB3qV-l1M4Dme5ix2DgQ5P5WNAdc48HuM7qxSR-0yuQtlv96A6YcygiNm06iXNqy_O4JJas8plp7EqGwisrDNlBJDDws94TOI4H07mrp5EKZ_kAyCjged5m9FAxYvAB1j2Nqs7IS73qgkkPAh6pcA53mUSqOI_i9isLhCXcb6", "width": 3096, "html_attributions": ["<a href=\"https://maps.google.com/maps/contrib/112594200786106469665\">Manoj Kumar</a>"], "height": 4128}], "scope": "GOOGLE", "business_status": "OPERATIONAL", "types": ["bank", "finance", "point_of_interest", "establishment"], "icon": "https://maps.gstatic.com/mapfiles/place_api/icons/v1/png_71/bank-71.png"}, {"rating": 3.9, "user_ratings_total": 9, "name": "Indian Overseas Bank", "reference": "ChIJhWPoJAMDDTkR7xjGZe4PeyY", "geometry": {"location": {"lat": 28.651785, "lng": 77.145021}, "viewport": {"northeast": {"lat": 28.6531652802915, "lng": 77.14631738029149}, "southwest": {"lat": 28.6504673197085, "lng": 77.14361941970849}}}, "opening_hours": {"open_now": false}, "place_id": "ChIJhWPoJAMDDTkR7xjGZe4PeyY", "plus_code": {"global_code": "7JWVM42W+P2", "compound_code": "M42W+P2 New Delhi, Delhi, India"}, "vicinity": "1-107A, Ground Floor, Block I, Kirti Nagar, New Delhi", "photos": [{"photo_reference": "ATtYBwKgvf0TxwSklMiso22zwzLYQRyAA5mpDwfaHO7VTaNbJtbqJJB_jOcV3ZP5vJXO1GTRC1x-Omrssw8F6kOEREQnr1NuqPW7NRYJ_VsmAX9tr7jRFvMTE0zSyhPYiyHmFevqRelUNuwyYXgSd8Kk-tT-8dyDjClT2xSg2PSJFFgGuxuI", "width": 3120, "html_attributions": ["<a href=\"https://maps.google.com/maps/contrib/108334076435373955271\">Gurdeep Singh</a>"], "height": 4160}], "scope": "GOOGLE", "business_status": "OPERATIONAL", "types": ["bank", "finance", "point_of_interest", "establishment"], "icon": "https://maps.gstatic.com/mapfiles/place_api/icons/v1/png_71/bank-71.png"}, {"rating": 4, "user_ratings_total": 8, "name": "ICICI Bank Kirti Nagar II, New Delhi - Branch & ATM", "reference": "ChIJg2I9JxoDDTkRW1pRb4p5ZMY", "geometry": {"location": {"lat": 28.6446221, "lng": 77.1388664}, "viewport": {"northeast": {"lat": 28.6460337802915, "lng": 77.14012068029152}, "southwest": {"lat": 28.6433358197085, "lng": 77.13742271970851}}}, "opening_hours": {"open_now": false}, "place_id": "ChIJg2I9JxoDDTkRW1pRb4p5ZMY", "plus_code": {"global_code": "7JWVJ4VQ+RG", "compound_code": "J4VQ+RG New Delhi, Delhi, India"}, "vicinity": "78/3, Block no.II W.H.S. Kirti Nagar, New Delhi", "photos": [{"photo_reference": "ATtYBwJp98N98c4HNGlDtOfsymkRqm26GZUXQYz49OkFOTyVXHkCoswFc3T0jitn9JuctXuRhBPNEfXtOl9PHyCdLrpBpu-nQK3TqKSo6_L_E0BWnfKAPm8kGUoIVj7BvFslI1lHWAq8hJ3fYSbjit_MP70GtZvYCdpSXxT3znBEmvSTQMML", "width": 540, "html_attributions": ["<a href=\"https://maps.google.com/maps/contrib/100704147751816498897\">Rahul Kumar</a>"], "height": 720}], "scope": "GOOGLE", "business_status": "OPERATIONAL", "types": ["bank", "atm", "finance", "point_of_interest", "establishment"], "icon": "https://maps.gstatic.com/mapfiles/place_api/icons/v1/png_71/bank-71.png"}, {"rating": 3, "user_ratings_total": 5, "name": "Oriental Bank of Commerce", "reference": "ChIJ7XihuxADDTkRw8Ef6WwPhuA", "geometry": {"location": {"lat": 28.6452245, "lng": 77.13609199999999}, "viewport": {"northeast": {"lat": 28.6466172802915, "lng": 77.13733603029151}, "southwest": {"lat": 28.6439193197085, "lng": 77.1346380697085}}}, "opening_hours": {"open_now": false}, "place_id": "ChIJ7XihuxADDTkRw8Ef6WwPhuA", "plus_code": {"global_code": "7JWVJ4WP+3C", "compound_code": "J4WP+3C New Delhi, Delhi, India"}, "vicinity": "F-4, Danpat Rai Ahuja Marg, Block F, Mansarover Garden, New Delhi", "photos": [{"photo_reference": "ATtYBwIu40DWZp-D6_3p_Z4qKAzfKSUSLRo6mB-QcVQNE2beMmsOdz1xkbadaRvUNB0ptFcrT6gKpOjq3gajVlG3qgY4iDnJGplPg7rF5LriA6mqGaXGy_gkJGj221cQ-9tpiMv_isSpVwEuAUdKn5GCrF0fVFfLRDMgvW260tpbPF6lHclg", "width": 3264, "html_attributions": ["<a href=\"https://maps.google.com/maps/contrib/106416457127580216962\">Inder Maggo</a>"], "height": 2448}], "scope": "GOOGLE", "business_status": "OPERATIONAL", "types": ["atm", "bank", "finance", "point_of_interest", "establishment"], "icon": "https://maps.gstatic.com/mapfiles/place_api/icons/v1/png_71/bank-71.png"}, {"name": "Axis Bank ATM", "reference": "ChIJTX8s3AQDDTkRvj9pSxPG0mY", "geometry": {"location": {"lat": 28.6555135, "lng": 77.14082570000001}, "viewport": {"northeast": {"lat": 28.6568758802915, "lng": 77.14213363029151}, "southwest": {"lat": 28.6541779197085, "lng": 77.1394356697085}}}, "opening_hours": {"open_now": true}, "place_id": "ChIJTX8s3AQDDTkRvj9pSxPG0mY", "plus_code": {"global_code": "7JWVM44R+68", "compound_code": "M44R+68 New Delhi, Delhi, India"}, "vicinity": "C/43, Kirti Nagar, New Delhi", "scope": "GOOGLE", "business_status": "OPERATIONAL", "types": ["atm", "bank", "finance", "point_of_interest", "establishment"], "icon": "https://maps.gstatic.com/mapfiles/place_api/icons/v1/png_71/atm-71.png"}, {"rating": 2, "user_ratings_total": 4, "name": "HDFC Bank", "reference": "ChIJIwKfnKoDDTkREq_YFFUr1QI", "geometry": {"location": {"lat": 28.6572457, "lng": 77.1416315}, "viewport": {"northeast": {"lat": 28.6585666802915, "lng": 77.14298738029152}, "southwest": {"lat": 28.6558687197085, "lng": 77.1402894197085}}}, "opening_hours": {"open_now": false}, "place_id": "ChIJIwKfnKoDDTkREq_YFFUr1QI", "plus_code": {"global_code": "7JWVM44R+VM", "compound_code": "M44R+VM New Delhi, Delhi, India"}, "vicinity": "DLF Towers, DSM 012, Ground Floor, 15, Najafgarh Road, Moti Nagar, New Delhi", "photos": [{"photo_reference": "ATtYBwK5AmwTjX1In7L771bOV_dKsR4zjJbn0Yt1uT8ci063hwXCkW6QypxbHb4o23Qwo7FLU2CmFysy0T9LgqqZRrO_X-DQk1lutxnXeeLcVDTmhFRdvDR7EECy0_enWv0dhwpM9BLyg3KQVBivFPK6JZbE3vubs-DGJmCkbcYVJXPyD-H3", "width": 2592, "html_attributions": ["<a href=\"https://maps.google.com/maps/contrib/101494145234511559833\">Ishu Singhania</a>"], "height": 4608}], "scope": "GOOGLE", "business_status": "OPERATIONAL", "types": ["bank", "finance", "point_of_interest", "establishment"], "icon": "https://maps.gstatic.com/mapfiles/place_api/icons/v1/png_71/bank-71.png"}, {"rating": 4, "user_ratings_total": 3, "name": "Andhra Bank", "reference": "ChIJL3AyVRsDDTkR2H71F2O_7l4", "geometry": {"location": {"lat": 28.6506165, "lng": 77.1426274}, "viewport": {"northeast": {"lat": 28.6519717802915, "lng": 77.1440233302915}, "southwest": {"lat": 28.6492738197085, "lng": 77.14132536970848}}}, "opening_hours": {"open_now": false}, "place_id": "ChIJL3AyVRsDDTkR2H71F2O_7l4", "plus_code": {"global_code": "7JWVM42V+63", "compound_code": "M42V+63 New Delhi, Delhi, India"}, "vicinity": "H-34, Bhimsen Dhingra Road, Block H, Kirti Nagar, New Delhi", "photos": [{"photo_reference": "ATtYBwIl9mgJLIlKAZhEVk0N_ZXjEVqqOJTdhh50mOKuHrd4N66X-mwD_Bk5E_pR8dKjV7ipfhxqxpu6QT42zMaAseHaq_RghJs6RA-eUukSe_uMQ18rltJDXpjL3TYcIi49luYi_gtdJgdj9VYrBWj233KgBM4Sf3gLGNk3zRDCZ03xq7jg", "width": 3120, "html_attributions": ["<a href=\"https://maps.google.com/maps/contrib/110192589375879425927\">Ankit kumar</a>"], "height": 4160}], "scope": "GOOGLE", "business_status": "OPERATIONAL", "types": ["bank", "finance", "point_of_interest", "establishment"], "icon": "https://maps.gstatic.com/mapfiles/place_api/icons/v1/png_71/bank-71.png"}, {"rating": 3.1, "user_ratings_total": 16, "name": "YES Bank", "reference": "ChIJA3laDgUDDTkRFJiyaqER7SI", "geometry": {"location": {"lat": 28.65242469999999, "lng": 77.139001}, "viewport": {"northeast": {"lat": 28.65380278029149, "lng": 77.14037153029149}, "southwest": {"lat": 28.65110481970849, "lng": 77.13767356970848}}}, "opening_hours": {"open_now": false}, "place_id": "ChIJA3laDgUDDTkRFJiyaqER7SI", "plus_code": {"global_code": "7JWVM42Q+XJ", "compound_code": "M42Q+XJ New Delhi, Delhi, India"}, "vicinity": "C/66, Ground Floor, Kirti Nagar, New Delhi", "photos": [{"photo_reference": "ATtYBwKdhYxPBlVZJzYsnDF3sXd-1BEJJVWnfIu05KkFrkBO-HIVHmdaGF2pvs4WebQOfkVppmYYmNk1s_R-F-h2VYo73gbQbirsG47sTmUSlLQQM7k1BgSyfNpV2R_qkLG8qolACGPVSRtmc1e0-9nlXjjOI_9ob87ypUaFSLxtZ0571Sfh", "width": 3024, "html_attributions": ["<a href=\"https://maps.google.com/maps/contrib/114673491946926413837\">Harsimran Singh</a>"], "height": 2612}], "scope": "GOOGLE", "business_status": "OPERATIONAL", "types": ["bank", "finance", "point_of_interest", "establishment"], "icon": "https://maps.gstatic.com/mapfiles/place_api/icons/v1/png_71/bank-71.png"}, {"name": "YES Bank ATM", "reference": "ChIJA7pCIzEEDTkRpWzTZ9F9rNQ", "geometry": {"location": {"lat": 28.6526872, "lng": 77.1386907}, "viewport": {"northeast": {"lat": 28.6540671302915, "lng": 77.13998713029152}, "southwest": {"lat": 28.6513691697085, "lng": 77.1372891697085}}}, "opening_hours": {"open_now": true}, "place_id": "ChIJA7pCIzEEDTkRpWzTZ9F9rNQ", "plus_code": {"global_code": "7JWVM43Q+3F", "compound_code": "M43Q+3F New Delhi, Delhi, India"}, "vicinity": "No C, 66, Kirti Nagar, New Delhi", "photos": [{"photo_reference": "ATtYBwKoa_bGE9kSNEkRSk3ApysuXtt8t8K7MBU4TYn7q-HDo7_W0ixj2FSKqliIJlcEaZTPPk0eJL4yJUo_Z-nBSskPPzjedWb8Y4rUlcNJMNCFdwfnk7kqdJmmse8RvSvJF34KcpR04CaHqq3B418OOG8n_a8fEAOsYCEPFfPRKjT42oZX", "width": 400, "html_attributions": ["<a href=\"https://maps.google.com/maps/contrib/103108454160057948360\">YES Bank ATM</a>"], "height": 400}], "scope": "GOOGLE", "business_status": "OPERATIONAL", "types": ["atm", "bank", "finance", "point_of_interest", "establishment"], "icon": "https://maps.gstatic.com/mapfiles/place_api/icons/v1/png_71/atm-71.png"}, {"rating": 5, "user_ratings_total": 2, "name": "HDFC Bank ATM", "reference": "ChIJdQm9nhsDDTkRRQ0m0b0Bp4Q", "geometry": {"location": {"lat": 28.6473059, "lng": 77.1415284}, "viewport": {"northeast": {"lat": 28.6486316302915, "lng": 77.1428396802915}, "southwest": {"lat": 28.6459336697085, "lng": 77.1401417197085}}}, "opening_hours": {"open_now": true}, "place_id": "ChIJdQm9nhsDDTkRRQ0m0b0Bp4Q", "plus_code": {"global_code": "7JWVJ4WR+WJ", "compound_code": "J4WR+WJ New Delhi, Delhi, India"}, "vicinity": "G14, Kirti Nagar, New Delhi", "photos": [{"photo_reference": "ATtYBwITFLtwFTfy9KwIGSJhoddcHl5UnZTBg-N1ncWiYi1avHvFt3D6CgbK6XuQT3lBSMj3P3vpD2bLBxwRauX_KfSKbSmFeFJiGmo0Kby4NYEMYpopwxhLwqd-3BRQwZlG_DtrclR-hyjnO4m0a99xN297PjKspAxGi4yHPdriaKbyuJZ9", "width": 1872, "html_attributions": ["<a href=\"https://maps.google.com/maps/contrib/111777540198786872101\">CorelDraw Essential Training Solution</a>"], "height": 3328}], "scope": "GOOGLE", "business_status": "OPERATIONAL", "types": ["atm", "bank", "finance", "point_of_interest", "establishment"], "icon": "https://maps.gstatic.com/mapfiles/place_api/icons/v1/png_71/atm-71.png"}, {"rating": 3.1, "user_ratings_total": 10, "name": "Corporation Bank", "reference": "ChIJRTogVwQDDTkRVotTIL5uA2s", "geometry": {"location": {"lat": 28.6536238, "lng": 77.14057269999999}, "viewport": {"northeast": {"lat": 28.6549942802915, "lng": 77.1419392302915}, "southwest": {"lat": 28.6522963197085, "lng": 77.13924126970849}}}, "opening_hours": {"open_now": false}, "place_id": "ChIJRTogVwQDDTkRVotTIL5uA2s", "plus_code": {"global_code": "7JWVM43R+C6", "compound_code": "M43R+C6 New Delhi, Delhi, India"}, "vicinity": "D-85, Block D, Kirti Nagar, New Delhi", "scope": "GOOGLE", "business_status": "OPERATIONAL", "types": ["bank", "atm", "finance", "point_of_interest", "establishment"], "icon": "https://maps.gstatic.com/mapfiles/place_api/icons/v1/png_71/bank-71.png"}, {"rating": 3.8, "user_ratings_total": 9, "name": "Karnataka Bank", "reference": "ChIJC28DSAMDDTkRRvLl0GXF_n0", "geometry": {"location": {"lat": 28.6514954, "lng": 77.14407159999999}, "viewport": {"northeast": {"lat": 28.6528319802915, "lng": 77.1454409302915}, "southwest": {"lat": 28.6501340197085, "lng": 77.1427429697085}}}, "opening_hours": {"open_now": false}, "place_id": "ChIJC28DSAMDDTkRRvLl0GXF_n0", "plus_code": {"global_code": "7JWVM42V+HJ", "compound_code": "M42V+HJ New Delhi, Delhi, India"}, "vicinity": "H-59, Kirti Nagar, New Delhi", "scope": "GOOGLE", "business_status": "OPERATIONAL", "types": ["bank", "atm", "finance", "point_of_interest", "establishment"], "icon": "https://maps.gstatic.com/mapfiles/place_api/icons/v1/png_71/bank-71.png"}, {"rating": 5, "user_ratings_total": 1, "name": "Matrix Debt Recovery", "reference": "ChIJfwOj-wUDDTkRt4REQnD5XnE", "geometry": {"location": {"lat": 28.6553918, "lng": 77.1375149}, "viewport": {"northeast": {"lat": 28.6566605302915, "lng": 77.1389218802915}, "southwest": {"lat": 28.6539625697085, "lng": 77.13622391970848}}}, "place_id": "ChIJfwOj-wUDDTkRt4REQnD5XnE", "plus_code": {"global_code": "7JWVM44Q+52", "compound_code": "M44Q+52 New Delhi, Delhi, India"}, "vicinity": "Najafgarh Road, Kailash Park, Basai Dara pur, Bali Nagar, New Delhi", "scope": "GOOGLE", "business_status": "OPERATIONAL", "types": ["bank", "finance", "point_of_interest", "establishment"], "icon": "https://maps.gstatic.com/mapfiles/place_api/icons/v1/png_71/bank-71.png"}]}