{"status": "OK", "next_page_token": "ATtYBwIfbhWrHR0a3Ul71KMBNtdika6adDvdLZTLRKsxes7zXk6z0mCtsmS1XIYhWFQrH2aaGVnNlYwv90jE05w_C9lOK1rh2nlGRwsn1QRNOax_7Gpzil-UV-c2tc2KlKM70tq9tVM7i21UNrQGzoz6MOwRU_R8Rj65ucSUK5RaCjSWbZIujYwZNSUYtmnEqoEvbG53MOQ1mvCgEhy1Xv2GAmiaoTQozJeKTjjAoGPLylfSVTRkyhHzEyvnESLHsOgJww3OSOck02YUmLimsiz3bRzvvY2MXLdCyiCo7dnInuFlKyGzprDqQusGm4Jgv165jYbnRMGnN-0q6_42HQkdoisz33Mu1vIRVCYbAOah3kGNjxmPQmnzKFBn5sJgAMQMPPx24GQ56GblsJ1RdAb3AwPuz_sejqtIHX4KB41kD_5XvKR6", "html_attributions": [], "results": [{"rating": 2.3, "user_ratings_total": 12, "name": "HDFC Bank", "reference": "ChIJp7J1W9ADDTkRmX093ERzVJY", "geometry": {"location": {"lat": 28.6979386, "lng": 77.1397807}, "viewport": {"northeast": {"lat": 28.6992175302915, "lng": 77.1410900302915}, "southwest": {"lat": 28.6965195697085, "lng": 77.13839206970849}}}, "opening_hours": {"open_now": false}, "place_id": "ChIJp7J1W9ADDTkRmX093ERzVJY", "plus_code": {"global_code": "7JWVM4XQ+5W", "compound_code": "M4XQ+5W Delhi, India"}, "vicinity": "367, Pitampura Road, Kohat Enclave, Pitam Pura, Delhi", "photos": [{"photo_reference": "ATtYBwI4_PMRbJzqhBSuMHIuOv0qaiJjEA7rED7FPvS7fjoxYDi7r14tquiJ7Roi9RM3E0VbScL5kPPtv7w5-wtvrPUGrHKNxLRNbcQWYts63RxHzx8pFCwbhhm7TQuxAuhOu2bBOOGjXkrYmdlWViCWSyp-TEmitw8lpxGjv5g3DnvHhq9i", "width": 300, "html_attributions": ["<a href=\"https://maps.google.com/maps/contrib/110413026703623772730\">HDFC Bank</a>"], "height": 300}], "scope": "GOOGLE", "business_status": "OPERATIONAL", "types": ["bank", "finance", "point_of_interest", "establishment"], "icon": "https://maps.gstatic.com/mapfiles/place_api/icons/v1/png_71/bank-71.png"}, {"rating": 4.8, "user_ratings_total": 77, "name": "Federal Bank", "reference": "ChIJmQMjAsUDDTkRYkoBj1q6v5c", "geometry": {"location": {"lat": 28.6936729, "lng": 77.13511539999999}, "viewport": {"northeast": {"lat": 28.6950067802915, "lng": 77.13636863029149}, "southwest": {"lat": 28.6923088197085, "lng": 77.13367066970848}}}, "opening_hours": {"open_now": false}, "place_id": "ChIJmQMjAsUDDTkRYkoBj1q6v5c", "plus_code": {"global_code": "7JWVM4VP+F2", "compound_code": "M4VP+F2 New Delhi, Delhi, India"}, "vicinity": "B-156, Ground Floor, Road Number 44, Block B, Lok Vihar, Pitam Pura, New Delhi", "scope": "GOOGLE", "business_status": "OPERATIONAL", "types": ["bank", "finance", "point_of_interest", "establishment"], "icon": "https://maps.gstatic.com/mapfiles/place_api/icons/v1/png_71/bank-71.png"}, {"rating": 3.4, "user_ratings_total": 7, "name": "Central Bank Of India", "reference": "ChIJ98WUZMMDDTkRLpvF7AMaVug", "geometry": {"location": {"lat": 28.69212759999999, "lng": 77.1306463}, "viewport": {"northeast": {"lat": 28.69346633029149, "lng": 77.13204283029151}, "southwest": {"lat": 28.6907683697085, "lng": 77.12934486970849}}}, "opening_hours": {"open_now": false}, "place_id": "ChIJ98WUZMMDDTkRLpvF7AMaVug", "plus_code": {"global_code": "7JWVM4RJ+V7", "compound_code": "M4RJ+V7 Delhi, India"}, "vicinity": "119, Shakti Vihar, Mahatma Hansraj Marg, Harsh Vihar, Pitampura, Delhi", "photos": [{"photo_reference": "ATtYBwL6mhkCFbjZm8pULzIRs0lMqmHEY6xrZYP9_M6iL8bs0e0Ynv89ugrHoNRMN2bxvcnN-sXuuo-i3igaqvwWoA1UE966KKfS72ol2_3OqJebFP3Yj0NjIlKb-8oB7KCsmCxq1JI_iP2nsM505ZiWu-kadHBC8Xe2prgOuOP9WCOFNsxD", "width": 2592, "html_attributions": ["<a href=\"https://maps.google.com/maps/contrib/107160715459747041878\">NAVNEET SINGH VIRDI</a>"], "height": 4608}], "scope": "GOOGLE", "business_status": "OPERATIONAL", "types": ["bank", "finance", "point_of_interest", "establishment"], "icon": "https://maps.gstatic.com/mapfiles/place_api/icons/v1/png_71/bank-71.png"}, {"rating": 2.7, "user_ratings_total": 7, "name": "ICICI Bank Lok Vihar, New Delhi - Branch & ATM", "reference": "ChIJfy8vDzMCDTkRKpZg-BKn3NM", "geometry": {"location": {"lat": 28.6948463, "lng": 77.1348503}, "viewport": {"northeast": {"lat": 28.6961801302915, "lng": 77.1361116802915}, "southwest": {"lat": 28.6934821697085, "lng": 77.13341371970849}}}, "opening_hours": {"open_now": false}, "place_id": "ChIJfy8vDzMCDTkRKpZg-BKn3NM", "plus_code": {"global_code": "7JWVM4VM+WW", "compound_code": "M4VM+WW New Delhi, Delhi, India"}, "vicinity": "No A-34, 168, Lok Vihar, Pitam Pura, New Delhi", "photos": [{"photo_reference": "ATtYBwJYgSSbnPKyiyBZiVuE2fsjmoJ6zkPzLcrK_8Uy76FI1PdjqFqDy4rpksyxPtFwli4X9TKW2leRysR1QP905lIQMZ_Pd56C6bBNOWF7MeZh7z6YA5hwLOXMraGPSxSfLRjb9JZN5YmCtGgc8rcriEaX3385ucDKbAHpH9j16EJgoqdz", "width": 3024, "html_attributions": ["<a href=\"https://maps.google.com/maps/contrib/105099903353957739543\">MANN Niyati</a>"], "height": 4032}], "scope": "GOOGLE", "business_status": "OPERATIONAL", "types": ["bank", "atm", "finance", "point_of_interest", "establishment"], "icon": "https://maps.gstatic.com/mapfiles/place_api/icons/v1/png_71/bank-71.png"}, {"rating": 1, "user_ratings_total": 1, "name": "Digital Sewa Kendra", "reference": "ChIJoShPRTUCDTkRYmht9lEoQ7Y", "geometry": {"location": {"lat": 28.689566, "lng": 77.137832}, "viewport": {"northeast": {"lat": 28.6909152802915, "lng": 77.1391713802915}, "southwest": {"lat": 28.6882173197085, "lng": 77.13647341970848}}}, "opening_hours": {"open_now": true}, "place_id": "ChIJoShPRTUCDTkRYmht9lEoQ7Y", "plus_code": {"global_code": "7JWVM4QQ+R4", "compound_code": "M4QQ+R4 New Delhi, Delhi, India"}, "vicinity": "114, Chandra Lok Enclave Pitam Pura, New Delhi", "scope": "GOOGLE", "business_status": "OPERATIONAL", "types": ["bank", "accounting", "finance", "insurance_agency", "travel_agency", "local_government_office", "point_of_interest", "establishment"], "icon": "https://maps.gstatic.com/mapfiles/place_api/icons/v1/png_71/generic_business-71.png"}, {"rating": 3.8, "user_ratings_total": 8, "name": "IndusInd Bank", "reference": "ChIJN7XyCcUDDTkR9Qyjnmxxr90", "geometry": {"location": {"lat": 28.6923748, "lng": 77.13539759999999}, "viewport": {"northeast": {"lat": 28.6937090302915, "lng": 77.1366663302915}, "southwest": {"lat": 28.6910110697085, "lng": 77.1339683697085}}}, "opening_hours": {"open_now": false}, "place_id": "ChIJN7XyCcUDDTkR9Qyjnmxxr90", "plus_code": {"global_code": "7JWVM4RP+W5", "compound_code": "M4RP+W5 New Delhi, Delhi, India"}, "vicinity": "A-4, Lok Vihar, Pitampura, New Delhi", "photos": [{"photo_reference": "ATtYBwLdAsnQEwzl_QsFPQwuGoOqS97EzPwKitIlJ76cUSwkGOUv4f872VqbilIHLjWGu_o9gBpJBpmsK2zT5i6Jx9hLjRnRUzMg_jSxRM8YxDD4pYtk2liDDMyHRyUMPmn8OZQO9drC1Bf_SwZvI0v1nuIvZzPqgkt5E-4_I9p1QwvmERK8", "width": 4608, "html_attributions": ["<a href=\"https://maps.google.com/maps/contrib/100581124544303731547\">Ravi Kumar</a>"], "height": 3456}], "scope": "GOOGLE", "business_status": "OPERATIONAL", "types": ["bank", "finance", "point_of_interest", "establishment"], "icon": "https://maps.gstatic.com/mapfiles/place_api/icons/v1/png_71/bank-71.png"}, {"rating": 4.8, "user_ratings_total": 4, "name": "HDFC Bank ATM", "reference": "ChIJaZNPX8YDDTkRr5YHH5boPm8", "geometry": {"location": {"lat": 28.6884005, "lng": 77.1348021}, "viewport": {"northeast": {"lat": 28.6898633802915, "lng": 77.13599388029151}, "southwest": {"lat": 28.6871654197085, "lng": 77.13329591970849}}}, "opening_hours": {"open_now": true}, "place_id": "ChIJaZNPX8YDDTkRr5YHH5boPm8", "plus_code": {"global_code": "7JWVM4QM+9W", "compound_code": "M4QM+9W New Delhi, Delhi, India"}, "vicinity": "23A NN Tower, Community Centre, Rd No 44, Rani Bagh, New Delhi", "photos": [{"photo_reference": "ATtYBwKEpZAzaxjuphBrsj9WP5APWrhOWM4gU2x8ciLBEy3KGbvQgSmoS2-jekxdiz_CtHmwr_OA_rCK-CeJgODQfchsjbkouuFzg-hP3t2tzIWIxIYlBPU_Lx48x6NiZSKplvyPBEOHS1-YEN32kWE_nO7vEDQTSt-kba7md_X3hxR_pmZ-", "width": 1280, "html_attributions": ["<a href=\"https://maps.google.com/maps/contrib/106426799821204103112\">Rajeev Kukreja</a>"], "height": 960}], "scope": "GOOGLE", "business_status": "OPERATIONAL", "types": ["atm", "bank", "finance", "point_of_interest", "establishment"], "icon": "https://maps.gstatic.com/mapfiles/place_api/icons/v1/png_71/atm-71.png"}, {"rating": 3.1, "user_ratings_total": 11, "name": "YES Bank", "reference": "ChIJHQUbW-wEDTkRFQHKTMn7QIo", "geometry": {"location": {"lat": 28.68739720000001, "lng": 77.1349441}, "viewport": {"northeast": {"lat": 28.6887487302915, "lng": 77.13647813029151}, "southwest": {"lat": 28.6860507697085, "lng": 77.13378016970849}}}, "opening_hours": {"open_now": false}, "place_id": "ChIJHQUbW-wEDTkRFQHKTMn7QIo", "plus_code": {"global_code": "7JWVM4PM+XX", "compound_code": "M4PM+XX New Delhi, Delhi, India"}, "vicinity": "Ground, G/148, Vikaspuri, New Delhi", "photos": [{"photo_reference": "ATtYBwJMhZLbejhz-6EO0h8tMVRCP3cpVW4c74EF22D-S5X_UD7YpNRkdB8lbXz2jrEU2MGsKutPBuVxeOIaqSokGjm6_zfRZr5DfjpTUCLE6o2NDAuC0_DB0QvbN2ruDLljEbMMhLdKZoOF_IkLo3kZQoPoYZvBQcS-PNzmqXJhQebjz5fl", "width": 3328, "html_attributions": ["<a href=\"https://maps.google.com/maps/contrib/104367767044471859421\">Tarun Gupta</a>"], "height": 1872}], "scope": "GOOGLE", "business_status": "OPERATIONAL", "types": ["bank", "finance", "point_of_interest", "establishment"], "icon": "https://maps.gstatic.com/mapfiles/place_api/icons/v1/png_71/bank-71.png"}, {"rating": 3.3, "user_ratings_total": 3, "name": "Axis Bank ATM", "reference": "ChIJn0NLNZMEDTkR9esjrSjJ93I", "geometry": {"location": {"lat": 28.68739720000001, "lng": 77.1349441}, "viewport": {"northeast": {"lat": 28.6887487302915, "lng": 77.13647813029151}, "southwest": {"lat": 28.6860507697085, "lng": 77.13378016970849}}}, "opening_hours": {"open_now": true}, "place_id": "ChIJn0NLNZMEDTkR9esjrSjJ93I", "plus_code": {"global_code": "7JWVM4PM+XX", "compound_code": "M4PM+XX New Delhi, Delhi, India"}, "vicinity": "Ground, G 12A, Vikaspuri, New Delhi", "scope": "GOOGLE", "business_status": "OPERATIONAL", "types": ["atm", "bank", "finance", "point_of_interest", "establishment"], "icon": "https://maps.gstatic.com/mapfiles/place_api/icons/v1/png_71/atm-71.png"}, {"rating": 3.5, "user_ratings_total": 4, "name": "Axis Bank", "reference": "ChIJZ9oB37cDDTkRXgZDbgRhqNI", "geometry": {"location": {"lat": 28.6846969, "lng": 77.1389057}, "viewport": {"northeast": {"lat": 28.6861043802915, "lng": 77.1402179302915}, "southwest": {"lat": 28.6834064197085, "lng": 77.13751996970849}}}, "opening_hours": {"open_now": false}, "place_id": "ChIJZ9oB37cDDTkRXgZDbgRhqNI", "plus_code": {"global_code": "7JWVM4MQ+VH", "compound_code": "M4MQ+VH New Delhi, Delhi, India"}, "vicinity": "A4, Ground Flr, Maharana Pratap Enclave, Pitam Pura, New Delhi", "scope": "GOOGLE", "business_status": "OPERATIONAL", "types": ["bank", "finance", "point_of_interest", "establishment"], "icon": "https://maps.gstatic.com/mapfiles/place_api/icons/v1/png_71/bank-71.png"}, {"rating": 3.1, "user_ratings_total": 10, "name": "Kotak Mahindra Bank Ltd", "reference": "ChIJIfzZrtADDTkRa5NhWRqUx80", "geometry": {"location": {"lat": 28.693362, "lng": 77.1351605}, "viewport": {"northeast": {"lat": 28.69470003029149, "lng": 77.1364252302915}, "southwest": {"lat": 28.6920020697085, "lng": 77.13372726970849}}}, "opening_hours": {"open_now": false}, "place_id": "ChIJIfzZrtADDTkRa5NhWRqUx80", "plus_code": {"global_code": "7JWVM4VP+83", "compound_code": "M4VP+83 Delhi, India"}, "vicinity": "589c, Road Number 44, Block B, Saraswati Vihar, Pitam Pura, Delhi", "photos": [{"photo_reference": "ATtYBwL3mnUDAaXwzpO_LKaexvXUpL13Ax-b4-dFoqV_oLxgWM3-gTTfvrhwvQfMX-6IP9sGd1B44DhuphH-PqfoCR_ckcqOf9CJrzOZEuC6t_C27PpbMyLeLHDv3kk9snvzaKIq6ojY7wm5Ekt6OVahfJsKTBnpdpFHxWU0rKydeWpvi_zM", "width": 3000, "html_attributions": ["<a href=\"https://maps.google.com/maps/contrib/110881778578035793487\">Nirmal Tuli</a>"], "height": 4000}], "scope": "GOOGLE", "business_status": "OPERATIONAL", "types": ["bank", "atm", "finance", "point_of_interest", "establishment"], "icon": "https://maps.gstatic.com/mapfiles/place_api/icons/v1/png_71/bank-71.png"}, {"rating": 3.2, "user_ratings_total": 9, "name": "Bank Of Baroda", "reference": "ChIJ6_qDlsYDDTkR6rlgiIYBgaM", "geometry": {"location": {"lat": 28.6885937, "lng": 77.13397789999999}, "viewport": {"northeast": {"lat": 28.69007178029149, "lng": 77.1346541802915}, "southwest": {"lat": 28.6873738197085, "lng": 77.13195621970848}}}, "opening_hours": {"open_now": false}, "place_id": "ChIJ6_qDlsYDDTkR6rlgiIYBgaM", "plus_code": {"global_code": "7JWVM4QM+CH", "compound_code": "M4QM+CH Pitam Pura, New Delhi, Delhi, India"}, "vicinity": "in front of Jain Mandir, Vikas Surya Plaza, Local Shopping Centre, in front of Jain Mandir, Pitam Pura", "photos": [{"photo_reference": "ATtYBwKotKGl0Q9oJpLNv48ScAhugq9uWTeRNCGaN5hhyE1TvvZJ3onwrFTJvzVmcCYmKhSMekXGh1n6WDXSYRQcTqR2LxmmK8YYIuxo2jepEjd0jlLSbLFt03VKXMX9yhuA7_ocKQyvJAKriQ6MYwRCSXhBTLkGG_Otrz2ikp72zbOCu7xZ", "width": 512, "html_attributions": ["<a href=\"https://maps.google.com/maps/contrib/116885185938205407569\">Bank Of Baroda</a>"], "height": 288}], "scope": "GOOGLE", "business_status": "OPERATIONAL", "types": ["bank", "finance", "point_of_interest", "establishment"], "icon": "https://maps.gstatic.com/mapfiles/place_api/icons/v1/png_71/bank-71.png"}, {"rating": 5, "user_ratings_total": 1, "name": "Indian Overseas Bank", "reference": "ChIJuaRCF8UDDTkRk2UOiQdImbU", "geometry": {"location": {"lat": 28.6934582, "lng": 77.1351261}, "viewport": {"northeast": {"lat": 28.69479358029151, "lng": 77.1363980802915}, "southwest": {"lat": 28.69209561970851, "lng": 77.1337001197085}}}, "opening_hours": {"open_now": false}, "place_id": "ChIJuaRCF8UDDTkRk2UOiQdImbU", "plus_code": {"global_code": "7JWVM4VP+93", "compound_code": "M4VP+93 Delhi, India"}, "vicinity": "Shyamji Krishna Varma Marg, Block B, Lok Vihar, Pitampura, Delhi", "scope": "GOOGLE", "business_status": "OPERATIONAL", "types": ["bank", "finance", "point_of_interest", "establishment"], "icon": "https://maps.gstatic.com/mapfiles/place_api/icons/v1/png_71/bank-71.png"}, {"rating": 3.2, "user_ratings_total": 15, "name": "Punjab National Bank", "reference": "ChIJ1Yr8hMYDDTkR2GJsaO5MNcY", "geometry": {"location": {"lat": 28.68926859999999, "lng": 77.13378469999999}, "viewport": {"northeast": {"lat": 28.6905817802915, "lng": 77.1352419302915}, "southwest": {"lat": 28.6878838197085, "lng": 77.1325439697085}}}, "opening_hours": {"open_now": false}, "place_id": "ChIJ1Yr8hMYDDTkR2GJsaO5MNcY", "plus_code": {"global_code": "7JWVM4QM+PG", "compound_code": "M4QM+PG Delhi, India"}, "vicinity": "Vadhamaan Big V Plaza, Rani Bagh Street, Rani Bagh, Saint Nagar Delhi, Pitampura, Delhi", "photos": [{"photo_reference": "ATtYBwIYvFWXqxtZ2oRrmQ39kZGFTV5FXWDPRdiDxBCpaIDhgOlGByHzHryAweorHL7PERkVQcN9pm6QgR2x-IwzKgg4hHqyxVujNgZRDgu3zl61lxuUEWRsj-Tgq3jHxrt_z8cfRaHBQWwqALOtbVYD78pX9TZVoJyp042D84EtJNm6o9gS", "width": 3472, "html_attributions": ["<a href=\"https://maps.google.com/maps/contrib/108906609445311602234\">pankaj shelda</a>"], "height": 4624}], "scope": "GOOGLE", "business_status": "OPERATIONAL", "types": ["atm", "bank", "finance", "point_of_interest", "establishment"], "icon": "https://maps.gstatic.com/mapfiles/place_api/icons/v1/png_71/bank-71.png"}, {"rating": 2.9, "user_ratings_total": 21, "name": "HDFC Bank", "reference": "ChIJPeBHXcYDDTkRGjEg_8q9shI", "geometry": {"location": {"lat": 28.6881625, "lng": 77.13403629999999}, "viewport": {"northeast": {"lat": 28.6897443802915, "lng": 77.1356352302915}, "southwest": {"lat": 28.6870464197085, "lng": 77.13293726970849}}}, "opening_hours": {"open_now": false}, "place_id": "ChIJPeBHXcYDDTkRGjEg_8q9shI", "plus_code": {"global_code": "7JWVM4QM+7J", "compound_code": "M4QM+7J New Delhi, Delhi, India"}, "vicinity": "Community Centre, NN Tower, No 23A, Road Number 44, Rani Bagh, New Delhi", "photos": [{"photo_reference": "ATtYBwKXjAgAKVXb7ImL0XLeR90Fwyfb_Gn9QfhAasWt344auop3fjP93cxP5xJ_qtdU3EjqdiSdt34UjLvEyg12wN50_xt6TA44g115YqCAb9jPgz9HjBX3i-lJ9Dal4nqf2gaya0zze-oy2hOWrx9_X03hTiqd8yeKM_Z97-KwEF8Ed0v9", "width": 4096, "html_attributions": ["<a href=\"https://maps.google.com/maps/contrib/106755467271931514242\">Abhishek Ram</a>"], "height": 2304}], "scope": "GOOGLE", "business_status": "OPERATIONAL", "types": ["bank", "finance", "point_of_interest", "establishment"], "icon": "https://maps.gstatic.com/mapfiles/place_api/icons/v1/png_71/bank-71.png"}, {"rating": 3.4, "user_ratings_total": 7, "name": "YES Bank", "reference": "ChIJb2kMOcYDDTkRO-tmmHN9Uhw", "geometry": {"location": {"lat": 28.6854426, "lng": 77.1362197}, "viewport": {"northeast": {"lat": 28.6867929302915, "lng": 77.13751718029151}, "southwest": {"lat": 28.6840949697085, "lng": 77.1348192197085}}}, "opening_hours": {"open_now": false}, "place_id": "ChIJb2kMOcYDDTkRO-tmmHN9Uhw", "plus_code": {"global_code": "7JWVM4PP+5F", "compound_code": "M4PP+5F New Delhi, Delhi, India"}, "vicinity": "275, Rajdhani Enclave Road No 44, Rajdhani Enc, New Delhi", "photos": [{"photo_reference": "ATtYBwLV3cOVRdiUsdCuaEarN7ZwRsLAwsBS3YqO8QIZh-5_anHgnHIH_84l7Czci4YBGDBAJsRmuvwUp0wlrtLLGFNdDA2JjZKmRah_alSnEG6-tXmcP31Xwxt-Uzae7QMOJUe28wHa0mAR7QwKvE_YQKmAjhWaGzOfkkC6xf1OV9ynpU7h", "width": 1280, "html_attributions": ["<a href=\"https://maps.google.com/maps/contrib/106426799821204103112\">Rajeev Kukreja</a>"], "height": 960}], "scope": "GOOGLE", "business_status": "OPERATIONAL", "types": ["bank", "finance", "point_of_interest", "establishment"], "icon": "https://maps.gstatic.com/mapfiles/place_api/icons/v1/png_71/bank-71.png"}, {"rating": 3, "user_ratings_total": 2, "name": "YES Bank ATM", "reference": "ChIJkzVP78cDDTkR7s5cOTBnOxc", "geometry": {"location": {"lat": 28.685422, "lng": 77.136226}, "viewport": {"northeast": {"lat": 28.6867724302915, "lng": 77.1375199802915}, "southwest": {"lat": 28.6840744697085, "lng": 77.1348220197085}}}, "opening_hours": {"open_now": true}, "place_id": "ChIJkzVP78cDDTkR7s5cOTBnOxc", "plus_code": {"global_code": "7JWVM4PP+5F", "compound_code": "M4PP+5F New Delhi, Delhi, India"}, "vicinity": "275, Rajdhani Enclave, Road Number 44, New Delhi", "photos": [{"photo_reference": "ATtYBwKvxEYB7DrpBjskTs-kf2arnidRGDM4pp76aJdjtlLM-xJRcS1txF1YuPMj6aXda6iF9x4Z_zrge46aj_Fp8pO7nChNdpeyPzBfh01_VMxUQgnzid0gb8jpoWQB7KV0TfwAVvk-NFdujop7LEXp3wGoqrYNyW31kr5Iia7ksmoER0R6", "width": 1080, "html_attributions": ["<a href=\"https://maps.google.com/maps/contrib/103125965242992045208\">jatin mehra</a>"], "height": 1920}], "scope": "GOOGLE", "business_status": "OPERATIONAL", "types": ["atm", "bank", "finance", "point_of_interest", "establishment"], "icon": "https://maps.gstatic.com/mapfiles/place_api/icons/v1/png_71/atm-71.png"}, {"name": "YES Bank ATM", "reference": "ChIJAQC0jlz9DDkRyydNTZ-5hwY", "geometry": {"location": {"lat": 28.6905614, "lng": 77.1466253}, "viewport": {"northeast": {"lat": 28.6918812302915, "lng": 77.1479674802915}, "southwest": {"lat": 28.6891832697085, "lng": 77.14526951970849}}}, "opening_hours": {"open_now": true}, "place_id": "ChIJAQC0jlz9DDkRyydNTZ-5hwY", "plus_code": {"global_code": "7JWVM4RW+6M", "compound_code": "M4RW+6M New Delhi, Delhi, India"}, "vicinity": "J/231, Shakarpur, New Delhi", "photos": [{"photo_reference": "ATtYBwI7bS1yqTalibmvRKzuJbWGJdggNhKFuiIqzKqijc42OSf2Jgrr-rZCyaUczD_Q9VpDaNSMN0zO8jnLk5ZMn1XCyixbDEvvuJox4pQGC9PNoxAvE8v9D6XooEMB_8Y38tMbDUFh1tnuzhOsdKvf-sfhRS0V2aWDXMLQe8Jg8zLmc4xm", "width": 400, "html_attributions": ["<a href=\"https://maps.google.com/maps/contrib/113542166158743433205\">YES Bank ATM</a>"], "height": 400}], "scope": "GOOGLE", "business_status": "OPERATIONAL", "types": ["atm", "bank", "finance", "point_of_interest", "establishment"], "icon": "https://maps.gstatic.com/mapfiles/place_api/icons/v1/png_71/atm-71.png"}, {"rating": 2, "user_ratings_total": 3, "name": "Central Bank of India", "reference": "ChIJ07tf7sYDDTkRSQ6pOL0bgiU", "geometry": {"location": {"lat": 28.687943, "lng": 77.1332439}, "viewport": {"northeast": {"lat": 28.68925368029149, "lng": 77.13457533029151}, "southwest": {"lat": 28.6865557197085, "lng": 77.13187736970849}}}, "opening_hours": {"open_now": true}, "place_id": "ChIJ07tf7sYDDTkRSQ6pOL0bgiU", "plus_code": {"global_code": "7JWVM4QM+57", "compound_code": "M4QM+57 Delhi, India"}, "vicinity": "1655, Guru Virjanand Marg, Rani Bagh, Sant Nagar, Rani Bagh, Pitam Pura, Delhi", "scope": "GOOGLE", "business_status": "OPERATIONAL", "types": ["bank", "finance", "point_of_interest", "establishment"], "icon": "https://maps.gstatic.com/mapfiles/place_api/icons/v1/png_71/bank-71.png"}, {"rating": 3.2, "user_ratings_total": 21, "name": "Andhra Bank", "reference": "ChIJMfMzo8UDDTkRJq7vgZwrlQc", "geometry": {"location": {"lat": 28.68453699999999, "lng": 77.1361524}, "viewport": {"northeast": {"lat": 28.6858856802915, "lng": 77.13748558029151}, "southwest": {"lat": 28.6831877197085, "lng": 77.13478761970849}}}, "opening_hours": {"open_now": false}, "place_id": "ChIJMfMzo8UDDTkRJq7vgZwrlQc", "plus_code": {"global_code": "7JWVM4MP+RF", "compound_code": "M4MP+RF Delhi, India"}, "vicinity": "298, Shyamji Krishna Varma Marg, Rajdhani Enclave, Pitam Pura, Delhi", "photos": [{"photo_reference": "ATtYBwJxIxu1_4vAKlWs9Ph6tRjf-k6SrUPLLAMC-3Z96exRRJZs8k0UNP2py2dNL4cpZ-EDQJuuHk04Dc-w8F-9PM3zJXGoc1ookctzr4Zx1O1efWL9yyIdtZa9_Vtj58fmcBp-nwn0QDFmS-qJYPy4nmn1K9EPWulPpqsQo9ZmyeM1US06", "width": 4000, "html_attributions": ["<a href=\"https://maps.google.com/maps/contrib/109274851203052670495\">health general life cunsltant</a>"], "height": 3000}], "scope": "GOOGLE", "business_status": "OPERATIONAL", "types": ["bank", "finance", "point_of_interest", "establishment"], "icon": "https://maps.gstatic.com/mapfiles/place_api/icons/v1/png_71/bank-71.png"}]}