{"status": "OK", "next_page_token": "ATtYBwK8qmkfkBVwKLd_gGj2isrqrUriZoKE6xj3u9xat5pIGc3ceYU5dL6w_Ff9DcJ01vlw3IoCaVjS6uIfUMNMk_hMRgyPkXTpFdhIQaxgXKeSP_x93C5YP11JgG5XQepu50PUdi1ezSIh5-M791z2e3egLh3NJfTvqlJciV3_jq5rILid5hMPE4vnb13CrTDm862WuxmDiWERgkh4IOSUYXUIlzuX2-BeuFms9Fb_9EchmBwaAECKUncgD6abTDQEljK6buBRAhtHOkiud5l2fi10qJY-PkN7fixsBaaOVnJqTHSHFTxVnu_A82fDZZkTKZrwyrPD8u9zb6JoIzukrAwPAtFxa_IrMdH-AWXJ7SA6FDTbFOp1zoq5-f6wNH0QHBm8IeaxAmb1vIcvr57VY9g_e2blvuhH0sXdWiEgq0Af4QKA", "html_attributions": [], "results": [{"rating": 2.7, "user_ratings_total": 15, "name": "Axis Bank", "reference": "ChIJScBV44j9DDkRi17pjX0JZwA", "geometry": {"location": {"lat": 28.6807559, "lng": 77.1973309}, "viewport": {"northeast": {"lat": 28.6821548302915, "lng": 77.1986402302915}, "southwest": {"lat": 28.6794568697085, "lng": 77.1959422697085}}}, "opening_hours": {"open_now": false}, "place_id": "ChIJScBV44j9DDkRi17pjX0JZwA", "plus_code": {"global_code": "7JWVM5JW+8W", "compound_code": "M5JW+8W New Delhi, Delhi, India"}, "vicinity": "Property No 23/10, LG & UG Floor Indra Chand, Dharamdas Shastri Marg, Shakti Nagar, New Delhi", "scope": "GOOGLE", "business_status": "OPERATIONAL", "types": ["bank", "finance", "point_of_interest", "establishment"], "icon": "https://maps.gstatic.com/mapfiles/place_api/icons/v1/png_71/bank-71.png"}, {"rating": 3, "user_ratings_total": 3, "name": "HDFC Bank ATM", "reference": "ChIJnWLjwY79DDkRPT3e922ViU0", "geometry": {"location": {"lat": 28.68322, "lng": 77.20174999999999}, "viewport": {"northeast": {"lat": 28.6845972302915, "lng": 77.2031479802915}, "southwest": {"lat": 28.68189926970851, "lng": 77.20045001970848}}}, "opening_hours": {"open_now": true}, "place_id": "ChIJnWLjwY79DDkRPT3e922ViU0", "plus_code": {"global_code": "7JWVM6M2+7P", "compound_code": "M6M2+7P New Delhi, Delhi, India"}, "vicinity": "D/147, Kamla Nagar, New Delhi", "scope": "GOOGLE", "business_status": "OPERATIONAL", "types": ["atm", "bank", "finance", "point_of_interest", "establishment"], "icon": "https://maps.gstatic.com/mapfiles/place_api/icons/v1/png_71/atm-71.png"}, {"rating": 3.5, "user_ratings_total": 23, "name": "Punjab National Bank", "reference": "ChIJn1193fL9DDkRgqPzTA2tXdQ", "geometry": {"location": {"lat": 28.6924982, "lng": 77.20401129999999}, "viewport": {"northeast": {"lat": 28.6938541302915, "lng": 77.20536428029149}, "southwest": {"lat": 28.6911561697085, "lng": 77.20266631970848}}}, "opening_hours": {"open_now": false}, "place_id": "ChIJn1193fL9DDkRgqPzTA2tXdQ", "plus_code": {"global_code": "7JWVM6R3+XJ", "compound_code": "M6R3+XJ New Delhi, Delhi, India"}, "vicinity": "Shop No.8, 9, 10, Vijay Nagar Makrket, Vijay Nagar, New Delhi", "photos": [{"photo_reference": "ATtYBwJcppSSCUYCIKepwFXVlIZ69R1HQT7C2vp5ZYHiVXBAaRZ5vO-dXHvPpzcu5t3ZicAXYUBwrEaY4r14DvYZWFf9KbO-eqt7OW72Sx77bTHBmqV5ioenVgfxcCZ15zwca6xe9xCIFA4Qno0BqpaEZvsxU-cYSfvC-XdI0dnZ_OF7rTfl", "width": 3456, "html_attributions": ["<a href=\"https://maps.google.com/maps/contrib/102971993769663220615\">Rajat Taneja</a>"], "height": 4608}], "scope": "GOOGLE", "business_status": "OPERATIONAL", "types": ["bank", "finance", "point_of_interest", "establishment"], "icon": "https://maps.gstatic.com/mapfiles/place_api/icons/v1/png_71/bank-71.png"}, {"rating": 3, "user_ratings_total": 4, "name": "YES Bank", "reference": "ChIJsSCkyI79DDkR-us2hv68UDU", "geometry": {"location": {"lat": 28.6831114, "lng": 77.1988164}, "viewport": {"northeast": {"lat": 28.6844270802915, "lng": 77.20018828029151}, "southwest": {"lat": 28.6817291197085, "lng": 77.19749031970849}}}, "opening_hours": {"open_now": false}, "place_id": "ChIJsSCkyI79DDkR-us2hv68UDU", "plus_code": {"global_code": "7JWVM5MX+6G", "compound_code": "M5MX+6G New Delhi, Delhi, India"}, "vicinity": "Plot No 80, Ground Floor, Saraswati Marg, Block D, Kamla Nagar, New Delhi", "photos": [{"photo_reference": "ATtYBwJDV--PLTcMPrqG07b-52cu4Gv-vjfJm8QK6IXg4QOhzmYah2d4o9-xgoy7so1wKu9-y0mLK6mp2MjjzUjz9ze2uMNNNisv6ppE9AONfpE0eruYlgxnkDQjRDbPnAJUbEszYrVayl1UcdM5o3NGnhE5vAcubHjSBgZ13_vhaZfcbGCO", "width": 2160, "html_attributions": ["<a href=\"https://maps.google.com/maps/contrib/116324692308460069847\">Awini Ambuj Shanker</a>"], "height": 3840}], "scope": "GOOGLE", "business_status": "OPERATIONAL", "types": ["bank", "finance", "point_of_interest", "establishment"], "icon": "https://maps.gstatic.com/mapfiles/place_api/icons/v1/png_71/bank-71.png"}, {"rating": 3.3, "user_ratings_total": 6, "name": "Dena Bank", "reference": "ChIJA0wXBon9DDkR_peHURvJ5hg", "geometry": {"location": {"lat": 28.6823522, "lng": 77.19769029999999}, "viewport": {"northeast": {"lat": 28.6837310302915, "lng": 77.19908483029151}, "southwest": {"lat": 28.6810330697085, "lng": 77.19638686970849}}}, "place_id": "ChIJA0wXBon9DDkR_peHURvJ5hg", "plus_code": {"global_code": "7JWVM5JX+W3", "compound_code": "M5JX+W3 Delhi, India"}, "vicinity": "GT Road, 24/156, SUBZI MANDI, Block 25, Shakti Nagar, Delhi", "photos": [{"photo_reference": "ATtYBwK_0BYBWXTfhnPx30_1Cwj2ZAajZIvksNlt0O0xAl5mHCyvnDMeh1tiwBsY1iJgUN_C1uTDpRS3czaU5LRmciZrwkrNORpThYhw_6IFONTecREayH1pvzS-Cx8HLRTGamZdCAmKThFYVvhHYk6ACsjBuDQHBas8CxOxBdPUgU61G6M-", "width": 1920, "html_attributions": ["<a href=\"https://maps.google.com/maps/contrib/105839340580791071944\">Travel Feels</a>"], "height": 1080}], "scope": "GOOGLE", "business_status": "OPERATIONAL", "types": ["bank", "finance", "point_of_interest", "establishment"], "icon": "https://maps.gstatic.com/mapfiles/place_api/icons/v1/png_71/bank-71.png"}, {"rating": 1, "user_ratings_total": 1, "name": "sbi atm", "reference": "ChIJVVVVmYz9DDkRroVN8JJ71bg", "geometry": {"location": {"lat": 28.688773, "lng": 77.2006339}, "viewport": {"northeast": {"lat": 28.68997058029149, "lng": 77.2021656302915}, "southwest": {"lat": 28.6872726197085, "lng": 77.1994676697085}}}, "place_id": "ChIJVVVVmYz9DDkRroVN8JJ71bg", "plus_code": {"global_code": "7JWVM6Q2+G7", "compound_code": "M6Q2+G7 Delhi, India"}, "vicinity": "Old Gupta Colony, Kalyan Vihar, Delhi", "photos": [{"photo_reference": "ATtYBwKfAj6y9CipnTK4tWp1jv6fEnEtLtOrD3GFjDlb5uT4lTYs2pgGCcIS-4oLYkBJ0xz8z2oOTCF3J7IvxNEBuzihM2fbkctFqLLgiRw_PBb5Ism9UrBtZQzoerpk7O8S6sqVRUD42Xc5rwDIA2Eip2Ww5MneB19FThL0U9XzHaq6b4RL", "width": 2448, "html_attributions": ["<a href=\"https://maps.google.com/maps/contrib/116471258011504400350\">aj sangwan</a>"], "height": 3264}], "scope": "GOOGLE", "business_status": "OPERATIONAL", "types": ["bank", "finance", "point_of_interest", "establishment"], "icon": "https://maps.gstatic.com/mapfiles/place_api/icons/v1/png_71/bank-71.png"}, {"rating": 4.1, "user_ratings_total": 14, "name": "HDFC Bank", "reference": "ChIJwWqrSPP9DDkRafb3imyy4mA", "geometry": {"location": {"lat": 28.691333, "lng": 77.201398}, "viewport": {"northeast": {"lat": 28.69269668029149, "lng": 77.2028079302915}, "southwest": {"lat": 28.6899987197085, "lng": 77.20010996970848}}}, "opening_hours": {"open_now": false}, "place_id": "ChIJwWqrSPP9DDkRafb3imyy4mA", "plus_code": {"global_code": "7JWVM6R2+GH", "compound_code": "M6R2+GH New Delhi, Delhi, India"}, "vicinity": "C 29, Vijay nagar, New Delhi", "photos": [{"photo_reference": "ATtYBwJ2VJQxF6LghQPT6Phdga6L5k-3i531uFRjxCfduykXPyhHNJNnRASdNQm_JlG7c1gqykCBLymfd6iCv_cNux9tHubPQUNc5yRks-e-PmhdWY34oqFNtQKjHKDDrPsVjLvQRcDhrJqkL85POanomG4osaqy8DC1ck54CUlC_uNPTal7", "width": 3613, "html_attributions": ["<a href=\"https://maps.google.com/maps/contrib/102971993769663220615\">Rajat Taneja</a>"], "height": 1384}], "scope": "GOOGLE", "business_status": "OPERATIONAL", "types": ["bank", "finance", "point_of_interest", "establishment"], "icon": "https://maps.gstatic.com/mapfiles/place_api/icons/v1/png_71/bank-71.png"}, {"rating": 4.5, "user_ratings_total": 2, "name": "HDFC Bank", "reference": "ChIJG3VEbA_7DDkR3bqzN6rMdwc", "geometry": {"location": {"lat": 28.6896542, "lng": 77.194885}, "viewport": {"northeast": {"lat": 28.6904209802915, "lng": 77.19575183029151}, "southwest": {"lat": 28.6877230197085, "lng": 77.19305386970849}}}, "opening_hours": {"open_now": false}, "place_id": "ChIJG3VEbA_7DDkR3bqzN6rMdwc", "plus_code": {"global_code": "7JWVM5QV+VX", "compound_code": "M5QV+VX New Delhi, Delhi, India"}, "vicinity": "A/2, CC Colony, Rana Pratap Bagh, New Delhi", "photos": [{"photo_reference": "ATtYBwLyrY5xOSwAX5ZkXmizQJzAgeq05iHTu6GoJxbphZTGU91DyV4oUayb5C4Ulxn7e1QSb-jUNjNKbRdM_TSGEh5S0t6fbD2DuqbD4rNN2H1zX3MfoJwOX3nuIeQ3LJ7IVWh2pd6K0nuwmbJJi1JbBrl-wJObPFST-Int7Bb0dXHj7SB_", "width": 300, "html_attributions": ["<a href=\"https://maps.google.com/maps/contrib/105866851443256434686\">HDFC Bank</a>"], "height": 300}], "scope": "GOOGLE", "business_status": "OPERATIONAL", "types": ["bank", "finance", "point_of_interest", "establishment"], "icon": "https://maps.gstatic.com/mapfiles/place_api/icons/v1/png_71/bank-71.png"}, {"name": "punjab national bank", "reference": "ChIJIYnuyfL9DDkRfYmMsKsD8Ug", "geometry": {"location": {"lat": 28.6930487, "lng": 77.2043289}, "viewport": {"northeast": {"lat": 28.69382784999999, "lng": 77.2057949302915}, "southwest": {"lat": 28.69071125, "lng": 77.20309696970848}}}, "place_id": "ChIJIYnuyfL9DDkRfYmMsKsD8Ug", "plus_code": {"global_code": "7JWVM6V3+6P", "compound_code": "M6V3+6P Delhi, India"}, "vicinity": "Vijaynagar, Thekedaar Surjeet Singh Marg, Block F, Vijay Nagar, Delhi", "scope": "GOOGLE", "business_status": "OPERATIONAL", "types": ["bank", "finance", "point_of_interest", "establishment"], "icon": "https://maps.gstatic.com/mapfiles/place_api/icons/v1/png_71/bank-71.png"}, {"rating": 3.6, "user_ratings_total": 28, "name": "State Bank Of India", "reference": "ChIJzWMl7fL9DDkRfNs0TOdFpNg", "geometry": {"location": {"lat": 28.6929458, "lng": 77.20454099999999}, "viewport": {"northeast": {"lat": 28.6942737302915, "lng": 77.2058761302915}, "southwest": {"lat": 28.6915757697085, "lng": 77.20317816970848}}}, "opening_hours": {"open_now": false}, "place_id": "ChIJzWMl7fL9DDkRfNs0TOdFpNg", "plus_code": {"global_code": "7JWVM6V3+5R", "compound_code": "M6V3+5R New Delhi, Delhi, India"}, "vicinity": "6A, Block H, Vijay Nagar, New Delhi", "photos": [{"photo_reference": "ATtYBwJxPvIAyIq0e40P6Qi3DLqArORDmjHG7BBDMyBZIp_PMHMAIHsmnky6CgWW5u2_5IlC9ysCVsJahbMav2wnYQOOsmrP53dcUabUTv9f32EUNF0FQyaYH8F5iIqnsAsPG9LqIoL1VsFBnFRLMFImz4MqOoRRn0lZnIjdCsyZ4HaXqb59", "width": 4160, "html_attributions": ["<a href=\"https://maps.google.com/maps/contrib/107362737580843954600\">Vibhuti Shankar</a>"], "height": 3120}], "scope": "GOOGLE", "business_status": "OPERATIONAL", "types": ["atm", "bank", "finance", "point_of_interest", "establishment"], "icon": "https://maps.gstatic.com/mapfiles/place_api/icons/v1/png_71/bank-71.png"}, {"rating": 2, "user_ratings_total": 6, "name": "Indian Overseas Bank", "reference": "ChIJu3E5MIn9DDkRcy8WKACtyTc", "geometry": {"location": {"lat": 28.6823987, "lng": 77.1995092}, "viewport": {"northeast": {"lat": 28.6837383302915, "lng": 77.2008656802915}, "southwest": {"lat": 28.6810403697085, "lng": 77.1981677197085}}}, "opening_hours": {"open_now": false}, "place_id": "ChIJu3E5MIn9DDkRcy8WKACtyTc", "plus_code": {"global_code": "7JWVM5JX+XR", "compound_code": "M5JX+XR New Delhi, Delhi, India"}, "vicinity": "2/7, Satyawati Marg, Roop Nagar, New Delhi", "photos": [{"photo_reference": "ATtYBwJvWWZ3DO1Tf2oWypNZjpMTZm8t5tsN4C_sKw28lwW1YXlnRgW0gYRZIP3T80BOhqio-KddPlo1NJHbq11s6-8O5AsA5fvzwyXhKftwTWHGysv28kYMLznet7eXgDX433ahTztyroJp6nogkyluuahDWH0kR0nArcneATCa8yZ26zZD", "width": 3456, "html_attributions": ["<a href=\"https://maps.google.com/maps/contrib/103000310249103286869\">Bhajan Singh Rai</a>"], "height": 4608}], "scope": "GOOGLE", "business_status": "OPERATIONAL", "types": ["bank", "finance", "point_of_interest", "establishment"], "icon": "https://maps.gstatic.com/mapfiles/place_api/icons/v1/png_71/bank-71.png"}, {"rating": 1, "user_ratings_total": 2, "name": "Induslnd Bank", "reference": "ChIJpVwrRPL9DDkRPeYDM7py9jM", "geometry": {"location": {"lat": 28.6945492, "lng": 77.20296979999999}, "viewport": {"northeast": {"lat": 28.6958921302915, "lng": 77.2043197302915}, "southwest": {"lat": 28.6931941697085, "lng": 77.20162176970848}}}, "place_id": "ChIJpVwrRPL9DDkRPeYDM7py9jM", "plus_code": {"global_code": "7JWVM6V3+R5", "compound_code": "M6V3+R5 Delhi, India"}, "vicinity": "Vishal Market, Block G, Mukherjee Nagar, North West Delhi", "scope": "GOOGLE", "business_status": "OPERATIONAL", "types": ["bank", "finance", "point_of_interest", "establishment"], "icon": "https://maps.gstatic.com/mapfiles/place_api/icons/v1/png_71/bank-71.png"}, {"rating": 5, "user_ratings_total": 1, "name": "Punjab National Bank", "reference": "ChIJB7SBWvL9DDkRV8j7MqHACKI", "geometry": {"location": {"lat": 28.69429, "lng": 77.203875}, "viewport": {"northeast": {"lat": 28.6956440802915, "lng": 77.20523438029151}, "southwest": {"lat": 28.6929461197085, "lng": 77.2025364197085}}}, "place_id": "ChIJB7SBWvL9DDkRV8j7MqHACKI", "plus_code": {"global_code": "7JWVM6V3+PG", "compound_code": "M6V3+PG Delhi, India"}, "vicinity": "Block G, Vijay Nagar, Delhi", "scope": "GOOGLE", "business_status": "OPERATIONAL", "types": ["bank", "finance", "point_of_interest", "establishment"], "icon": "https://maps.gstatic.com/mapfiles/place_api/icons/v1/png_71/bank-71.png"}, {"rating": 3.5, "user_ratings_total": 8, "name": "ICICI Bank Kamala Nagar, Delhi - Branch & ATM", "reference": "ChIJl21qOI_9DDkRmx9_TzbLEo4", "geometry": {"location": {"lat": 28.680664, "lng": 77.201099}, "viewport": {"northeast": {"lat": 28.6820375802915, "lng": 77.2024859802915}, "southwest": {"lat": 28.6793396197085, "lng": 77.19978801970849}}}, "opening_hours": {"open_now": false}, "place_id": "ChIJl21qOI_9DDkRmx9_TzbLEo4", "plus_code": {"global_code": "7JWVM6J2+7C", "compound_code": "M6J2+7C Delhi, India"}, "vicinity": "A -92 , Kamla Nagar, Delhi", "photos": [{"photo_reference": "ATtYBwLGQWOxLo-WAXoG-zfv0s4J8bqD96UMTBTsmIL5M2JWHz_eCXS8Zb7xmIpWYz-Sljo457bS1AJX75Ka9iouUnEC3v7xZwz9sMrRnn37FZl6JGPdmuDoSDZegni0IurBD_8qjlyuuiawXsDyQEkNkyecV02DUKlI2BuqgAy9ROqa1JDp", "width": 1080, "html_attributions": ["<a href=\"https://maps.google.com/maps/contrib/100804619639761927006\">avinash kumar</a>"], "height": 1920}], "scope": "GOOGLE", "business_status": "OPERATIONAL", "types": ["bank", "atm", "finance", "point_of_interest", "establishment"], "icon": "https://maps.gstatic.com/mapfiles/place_api/icons/v1/png_71/bank-71.png"}, {"rating": 4.5, "user_ratings_total": 2, "name": "ICICI Bank - Pratap Bagh, NewDelhi - Branch & ATM", "reference": "ChIJh-xseHUCDTkRz08yrmBtGfY", "geometry": {"location": {"lat": 28.687115, "lng": 77.19390299999999}, "viewport": {"northeast": {"lat": 28.6884329802915, "lng": 77.1951949802915}, "southwest": {"lat": 28.6857350197085, "lng": 77.1924970197085}}}, "opening_hours": {"open_now": false}, "place_id": "ChIJh-xseHUCDTkRz08yrmBtGfY", "plus_code": {"global_code": "7JWVM5PV+RH", "compound_code": "M5PV+RH New Delhi, Delhi, India"}, "vicinity": "H.No.15, Veer Nagar Jain Colony, Main GTRoad, Rana Pratap Bagh, New Delhi", "photos": [{"photo_reference": "ATtYBwKXrYoK8E7gylIlNYIp8mx6cUiFVIYeE58EwpMFye9OUYf8dyaRVlT6PP6_yfrmTi_NVidxtxj_lHvWDijKwLPIxrU4fRvX4BUWYgyQaQqPF8x50OyfWxgFPpp4C03mrpIf0xAU9MtYf7JREX3uEVSNCr_d9UAhlG-QyHkEsNgzr9Au", "width": 3480, "html_attributions": ["<a href=\"https://maps.google.com/maps/contrib/112415934814934546370\">Arnav J</a>"], "height": 4640}], "scope": "GOOGLE", "business_status": "OPERATIONAL", "types": ["bank", "atm", "finance", "point_of_interest", "establishment"], "icon": "https://maps.gstatic.com/mapfiles/place_api/icons/v1/png_71/bank-71.png"}, {"rating": 4.5, "user_ratings_total": 2, "name": "Axis Bank", "reference": "ChIJQ0skau79DDkR7eVB90cXaPw", "geometry": {"location": {"lat": 28.6944738, "lng": 77.20465879999999}, "viewport": {"northeast": {"lat": 28.69580913029149, "lng": 77.2059782802915}, "southwest": {"lat": 28.69311116970849, "lng": 77.2032803197085}}}, "opening_hours": {"open_now": false}, "place_id": "ChIJQ0skau79DDkR7eVB90cXaPw", "plus_code": {"global_code": "7JWVM6V3+QV", "compound_code": "M6V3+QV New Delhi, Delhi, India"}, "vicinity": "Premises No 2532, Hudson Lane, New Delhi", "scope": "GOOGLE", "business_status": "OPERATIONAL", "types": ["bank", "finance", "point_of_interest", "establishment"], "icon": "https://maps.gstatic.com/mapfiles/place_api/icons/v1/png_71/bank-71.png"}, {"name": "Axis Bank ATM", "reference": "ChIJy0t5bEAbDTkRhiZTfrqi4Wc", "geometry": {"location": {"lat": 28.696315, "lng": 77.200582}, "viewport": {"northeast": {"lat": 28.69766913029149, "lng": 77.20193333029151}, "southwest": {"lat": 28.6949711697085, "lng": 77.1992353697085}}}, "opening_hours": {"open_now": true}, "place_id": "ChIJy0t5bEAbDTkRhiZTfrqi4Wc", "plus_code": {"global_code": "7JWVM6W2+G6", "compound_code": "M6W2+G6 New Delhi, Delhi, India"}, "vicinity": "Delhi Armed Police Battalion, GTB Nagar, New Delhi", "scope": "GOOGLE", "business_status": "OPERATIONAL", "types": ["atm", "bank", "finance", "point_of_interest", "establishment"], "icon": "https://maps.gstatic.com/mapfiles/place_api/icons/v1/png_71/atm-71.png"}, {"name": "State Bank India Ecko Counter", "reference": "ChIJCZoXdnUCDTkRxy_kmIYYkLQ", "geometry": {"location": {"lat": 28.687067, "lng": 77.193528}, "viewport": {"northeast": {"lat": 28.68841663029149, "lng": 77.19487653029151}, "southwest": {"lat": 28.6857186697085, "lng": 77.19217856970849}}}, "opening_hours": {"open_now": false}, "place_id": "ChIJCZoXdnUCDTkRxy_kmIYYkLQ", "plus_code": {"global_code": "7JWVM5PV+RC", "compound_code": "M5PV+RC Delhi, India"}, "vicinity": "Shop No.D-4/1, Vir Nagar Jain Colony, Block D, Rana Pratap Bagh, Ashok Vihar, Delhi", "scope": "GOOGLE", "business_status": "OPERATIONAL", "types": ["bank", "finance", "point_of_interest", "establishment"], "icon": "https://maps.gstatic.com/mapfiles/place_api/icons/v1/png_71/bank-71.png"}, {"rating": 2.7, "user_ratings_total": 9, "name": "HDFC Bank", "reference": "ChIJ8UIoyo79DDkRiRKMFgf-e0g", "geometry": {"location": {"lat": 28.6832562, "lng": 77.2006263}, "viewport": {"northeast": {"lat": 28.68458223029149, "lng": 77.20193453029151}, "southwest": {"lat": 28.6818842697085, "lng": 77.1992365697085}}}, "opening_hours": {"open_now": false}, "place_id": "ChIJ8UIoyo79DDkRiRKMFgf-e0g", "plus_code": {"global_code": "7JWVM6M2+87", "compound_code": "M6M2+87 New Delhi, Delhi, India"}, "vicinity": "4/8, Model Town 3rd Main Road, Roop Nagar, New Delhi", "photos": [{"photo_reference": "ATtYBwKMhTPKbu57oLLBzR2FT91DyiSLU72k4RmYdfyRnAx1Tcjqg1n0LVHGQu2wrMMAqahRWMJOPs3QFUPDV2j0bChTgysXlyVZwbFKwWYDc9Lvj5OGTqRB4T-yief6ODoUA5WlJo5_Gn-KbsuJBNnKayXLOIEc1zc0PxpJE_opevsNjZTH", "width": 3264, "html_attributions": ["<a href=\"https://maps.google.com/maps/contrib/114707620528347885700\">Samir Aggarwal</a>"], "height": 2448}], "scope": "GOOGLE", "business_status": "OPERATIONAL", "types": ["bank", "finance", "point_of_interest", "establishment"], "icon": "https://maps.gstatic.com/mapfiles/place_api/icons/v1/png_71/bank-71.png"}, {"rating": 4, "user_ratings_total": 23, "name": "Kotak Mahindra Bank", "reference": "ChIJ82reapD9DDkRKz8o3I_jTbM", "geometry": {"location": {"lat": 28.6833173, "lng": 77.20134639999999}, "viewport": {"northeast": {"lat": 28.6847162302915, "lng": 77.20265333029151}, "southwest": {"lat": 28.6820182697085, "lng": 77.19995536970849}}}, "opening_hours": {"open_now": true}, "place_id": "ChIJ82reapD9DDkRKz8o3I_jTbM", "plus_code": {"global_code": "7JWVM6M2+8G", "compound_code": "M6M2+8G New Delhi, Delhi, India"}, "vicinity": "Plot No. 130, Near Roop Nagar Police Station, Block D, Kamla Nagar, New Delhi", "photos": [{"photo_reference": "ATtYBwK484gvoK80yUrr47PR_10pvNJwS1-rCkLw0JSYrYNL2EGHYniXkKr2LiJ_RtsKLSLX5piCRzCZvueZ4AtVRxzCMs8dtuylHfcclxArsJmJsBfhpkUbbaH7lE9IAzIwuvk0U-vQhQZgdXl_UCla4o_-JJY-ZJBXu1_vDCOkjprD-nQU", "width": 4128, "html_attributions": ["<a href=\"https://maps.google.com/maps/contrib/110090324491519899768\">Mayank Kumar</a>"], "height": 3096}], "scope": "GOOGLE", "business_status": "OPERATIONAL", "types": ["bank", "atm", "finance", "point_of_interest", "establishment"], "icon": "https://maps.gstatic.com/mapfiles/place_api/icons/v1/png_71/bank-71.png"}]}