{"status": "OK", "next_page_token": "ATtYBwJmkcL5mYK9LWLK0FtdMQp7wS94sH2OdMig-MFT7dtoscwP1u35DZ2BK-Sc_r7Hbaud_lVXChXIYjgxL5U27ReK_XqtxP0MrwwwPMsaLr5UnlEV0NdA9zddJqZxcrtirSVWdV6eJ9MyWJqG2L5_IJ0Br_JdQIcKZ78FjTozpuDKXZpHFgMW7VONYgpNonv0mbimolmIZsKFJWGtEtzgnQS5CLL2N79GCCHCP4r-g4t4YdLS0kDVvHupr703217nYNo4sGhVZJKSaeIBxKz-7JxPh0gFEF-Krimqi1spgdIsckHmJ4c6Jt7DogXLBbwiD-sJUI8pMZT2p-ceA3tb5NOPFLwfwGP1DqxmnchCy9yw6qpGXzU7MhcOMiowyOm2UCXiMSzPGqygZP0RzO8nZnbUqTn9PkZ6zJjFzYVdvwi4qEJbQU8VlgVM3EV1eWWGqYEq8BVIPvjhMfI1LAGIp9vwEmBCSUK47eAzYNnd9DVyg-shPWnUQ9tvQMB0kj9V7HgrdrjfSlGVTrIyNlDo2HS2FwId6ClhQhh7bbXWHjSGj8HBy8MSqi1HZrw4FqRxyV9sjZkNX15mbE26u3clJr3iBbcKeDU8TrkRxmOY1APaLf_SeS4lNRTtX66yUzMaJ_XG5g", "html_attributions": [], "results": [{"rating": 3.3, "user_ratings_total": 8, "name": "J&K Bank", "reference": "ChIJWYFYxXP9DDkR_yi_uUaBr-Y", "geometry": {"location": {"lat": 28.6608922, "lng": 77.2125494}, "viewport": {"northeast": {"lat": 28.6622533802915, "lng": 77.2139041302915}, "southwest": {"lat": 28.6595554197085, "lng": 77.21120616970849}}}, "opening_hours": {"open_now": false}, "place_id": "ChIJWYFYxXP9DDkR_yi_uUaBr-Y", "plus_code": {"global_code": "7JWVM667+92", "compound_code": "M667+92 Delhi, India"}, "vicinity": "2121, 2122, Bahadurgarh Road, Sadar Bazaar, Delhi", "photos": [{"photo_reference": "ATtYBwLj1lD7UaAOrSB93T8SQtkfMz30nbRfrGw4xDjEsG4aop3p5XuptpOwSHjHnFceR2J7AvdBRB6g-ccXR20nk2-TiX3AePXS4I2n-BnsubGkVQY3AKy2e2vbzsZl0OvbSOrFANRIauNwf5sabBfvFvSe6brqs_3m-4HmHIDCW8GZOuw4", "width": 3120, "html_attributions": ["<a href=\"https://maps.google.com/maps/contrib/100742888702205423358\">Gaurav Gogia, Advocate</a>"], "height": 4160}], "scope": "GOOGLE", "business_status": "OPERATIONAL", "types": ["bank", "finance", "point_of_interest", "establishment"], "icon": "https://maps.gstatic.com/mapfiles/place_api/icons/v1/png_71/bank-71.png"}, {"rating": 2.5, "user_ratings_total": 2, "name": "IndusInd Bank", "reference": "ChIJEYHZWg39DDkR2AfPxrZ3PsI", "geometry": {"location": {"lat": 28.658667, "lng": 77.21843249999999}, "viewport": {"northeast": {"lat": 28.6600871302915, "lng": 77.2197965802915}, "southwest": {"lat": 28.6573891697085, "lng": 77.2170986197085}}}, "opening_hours": {"open_now": false}, "place_id": "ChIJEYHZWg39DDkR2AfPxrZ3PsI", "plus_code": {"global_code": "7JWVM659+F9", "compound_code": "M659+F9 New Delhi, Delhi, India"}, "vicinity": "No.4070, 4075, Naya Bazar Road, Sadar Bazaar, New Delhi", "scope": "GOOGLE", "business_status": "OPERATIONAL", "types": ["bank", "finance", "point_of_interest", "establishment"], "icon": "https://maps.gstatic.com/mapfiles/place_api/icons/v1/png_71/bank-71.png"}, {"rating": 4.3, "user_ratings_total": 11, "name": "Punjab National Bank", "reference": "ChIJQ_V_ywX9DDkRYJnHI-3_DmU", "geometry": {"location": {"lat": 28.6642357, "lng": 77.2313017}, "viewport": {"northeast": {"lat": 28.66561353029149, "lng": 77.23268498029151}, "southwest": {"lat": 28.6629155697085, "lng": 77.2299870197085}}}, "opening_hours": {"open_now": false}, "place_id": "ChIJQ_V_ywX9DDkRYJnHI-3_DmU", "plus_code": {"global_code": "7JWVM67J+MG", "compound_code": "M67J+MG New Delhi, Delhi, India"}, "vicinity": "Lothian Road, Chabi Ganj, Mori Gate, New Delhi", "photos": [{"photo_reference": "ATtYBwJOcVmMqsZGok2031QA3z_W3kdqfGTYFcWuQcUq30Y9vvm4MuEW8CUghwvlOI_b9Ek1xvzMsYQEsIStABRa955wr6ajFd1HaGadQtWAbaR-hqbU8GutOA8e9zEmVCKfpr0heoyKP8_n2ChqjZsQzogvfjjRbgO9EiA-z46Gla0lMAdY", "width": 3456, "html_attributions": ["<a href=\"https://maps.google.com/maps/contrib/105000305209830166594\">Dinesh Kumar</a>"], "height": 4608}], "scope": "GOOGLE", "business_status": "OPERATIONAL", "types": ["bank", "finance", "point_of_interest", "establishment"], "icon": "https://maps.gstatic.com/mapfiles/place_api/icons/v1/png_71/bank-71.png"}, {"rating": 4.3, "user_ratings_total": 12, "name": "ICICI Bank Sadar Bazar, New Delhi - Branch & ATM", "reference": "ChIJb5UdYnH9DDkRGPnh4ohXxxs", "geometry": {"location": {"lat": 28.6611333, "lng": 77.2116999}, "viewport": {"northeast": {"lat": 28.6625285302915, "lng": 77.2130670802915}, "southwest": {"lat": 28.6598305697085, "lng": 77.21036911970849}}}, "opening_hours": {"open_now": false}, "place_id": "ChIJb5UdYnH9DDkRGPnh4ohXxxs", "plus_code": {"global_code": "7JWVM666+FM", "compound_code": "M666+FM New Delhi, Delhi, India"}, "vicinity": "No 2919 - 20,Bahadur Garh Road, Sadar Bazar, New Delhi", "photos": [{"photo_reference": "ATtYBwIdAbKZCv9wv8moqjCInq1ko5Awap5l17osuWSnuv1qxmHclBl2Vdw1N_wrL0LsJY2Sfnct-8yexH04M_u9UvMu6kwVHWASOhB78MwqCT-HmqDWDrvAMnUwpL2Zl2Hwalpt2MOO_eWA1iF-_iC2kfd1ykL7_bM72kBU2_T3V_-5UcjJ", "width": 529, "html_attributions": ["<a href=\"https://maps.google.com/maps/contrib/117909547807021449665\">Handsome Veerendra Sharma</a>"], "height": 278}], "scope": "GOOGLE", "business_status": "OPERATIONAL", "types": ["bank", "atm", "finance", "point_of_interest", "establishment"], "icon": "https://maps.gstatic.com/mapfiles/place_api/icons/v1/png_71/bank-71.png"}, {"rating": 4.3, "user_ratings_total": 3, "name": "Allahabad Bank", "reference": "ChIJqxhrNXL9DDkR7sDB9iu5coI", "geometry": {"location": {"lat": 28.66013149999999, "lng": 77.213092}, "viewport": {"northeast": {"lat": 28.66146723029149, "lng": 77.2144887802915}, "southwest": {"lat": 28.6587692697085, "lng": 77.2117908197085}}}, "opening_hours": {"open_now": false}, "place_id": "ChIJqxhrNXL9DDkR7sDB9iu5coI", "plus_code": {"global_code": "7JWVM667+36", "compound_code": "M667+36 New Delhi, Delhi, India"}, "vicinity": "Pahari Dhiraj, Sadar Bazaar, New Delhi", "photos": [{"photo_reference": "ATtYBwITRyHyXlUWgD51TivUvdzfFSBlThko6m_3pv6uW-xHfw6fx8XH8yy5ZtPjXTCVjY4auvXe_xz3qpMNzLxlnR3awrcXFYTLw8VVbJsz3cbMn_ZZZSOEdlCj1IrFEC5_ma7jZmOgJaSA5NKaxGiJMqQy7j1vy709ssvmSOeAIopxfhz9", "width": 2128, "html_attributions": ["<a href=\"https://maps.google.com/maps/contrib/103162549688314336162\">Sumit Sharma</a>"], "height": 4608}], "scope": "GOOGLE", "business_status": "OPERATIONAL", "types": ["bank", "finance", "point_of_interest", "establishment"], "icon": "https://maps.gstatic.com/mapfiles/place_api/icons/v1/png_71/bank-71.png"}, {"rating": 4.4, "user_ratings_total": 8, "name": "Induslnd Bank", "reference": "ChIJnWLXWg39DDkRdwrurGwavmw", "geometry": {"location": {"lat": 28.658506, "lng": 77.21841510000002}, "viewport": {"northeast": {"lat": 28.6598583802915, "lng": 77.2198118802915}, "southwest": {"lat": 28.6571604197085, "lng": 77.2171139197085}}}, "opening_hours": {"open_now": false}, "place_id": "ChIJnWLXWg39DDkRdwrurGwavmw", "plus_code": {"global_code": "7JWVM659+C9", "compound_code": "M659+C9 New Delhi, Delhi, India"}, "vicinity": "4075, Naya Bazar Road, Rui Mandi, Sadar Bazaar, New Delhi", "photos": [{"photo_reference": "ATtYBwK1jXFH9qjBSSMPvt_ZWtSmRBUds7T8BvyiEDNE_RQqk7J6DXnVyPvEzvx65pTyPucdBV5bwjoPs9btlpwSPvFtBexmbHcSGcHL11bL4PBJ3s4VZCMukrX3-_D0ZlpO58N9MmapGkWAG-XsKOvte9bSZ6rg7IEPCvsfyywKycpHJglk", "width": 4160, "html_attributions": ["<a href=\"https://maps.google.com/maps/contrib/109746670650247172128\">Kapil Arora</a>"], "height": 3120}], "scope": "GOOGLE", "business_status": "OPERATIONAL", "types": ["bank", "finance", "point_of_interest", "establishment"], "icon": "https://maps.gstatic.com/mapfiles/place_api/icons/v1/png_71/bank-71.png"}, {"rating": 3, "user_ratings_total": 2, "name": "HDFC Bank ATM", "reference": "ChIJMwUblnf9DDkRjf08VnB83DU", "geometry": {"location": {"lat": 28.66644, "lng": 77.20743000000002}, "viewport": {"northeast": {"lat": 28.6677913302915, "lng": 77.2087933802915}, "southwest": {"lat": 28.6650933697085, "lng": 77.20609541970849}}}, "opening_hours": {"open_now": true}, "place_id": "ChIJMwUblnf9DDkRjf08VnB83DU", "plus_code": {"global_code": "7JWVM684+HX", "compound_code": "M684+HX New Delhi, Delhi, India"}, "vicinity": "No A2, CC Colony, Rana Pratap Bagh, New Delhi", "scope": "GOOGLE", "business_status": "OPERATIONAL", "types": ["atm", "bank", "finance", "point_of_interest", "establishment"], "icon": "https://maps.gstatic.com/mapfiles/place_api/icons/v1/png_71/atm-71.png"}, {"rating": 2, "user_ratings_total": 3, "name": "SyndicateBank Delhi Nayabazar Branch", "reference": "ChIJ71ctmAj9DDkRPfpx5GG_X04", "geometry": {"location": {"lat": 28.658313, "lng": 77.219319}, "viewport": {"northeast": {"lat": 28.6596176302915, "lng": 77.2206984302915}, "southwest": {"lat": 28.6569196697085, "lng": 77.2180004697085}}}, "place_id": "ChIJ71ctmAj9DDkRPfpx5GG_X04", "plus_code": {"global_code": "7JWVM659+8P", "compound_code": "M659+8P Delhi, India"}, "vicinity": "1St Floor, 4062-63, Naya Bazar Road, Delhi", "scope": "GOOGLE", "business_status": "OPERATIONAL", "types": ["bank", "finance", "point_of_interest", "establishment"], "icon": "https://maps.gstatic.com/mapfiles/place_api/icons/v1/png_71/bank-71.png"}, {"rating": 3.1, "user_ratings_total": 22, "name": "Kotak Mahindra Bank", "reference": "ChIJ7TuWRA39DDkR83m-oretvQw", "geometry": {"location": {"lat": 28.6583895, "lng": 77.2183343}, "viewport": {"northeast": {"lat": 28.65974508029149, "lng": 77.2197765302915}, "southwest": {"lat": 28.6570471197085, "lng": 77.21707856970849}}}, "opening_hours": {"open_now": false}, "place_id": "ChIJ7TuWRA39DDkR83m-oretvQw", "plus_code": {"global_code": "7JWVM659+98", "compound_code": "M659+98 New Delhi, Delhi, India"}, "vicinity": "4078, Naya Bazar Road, Naya Bazar, Fatehpuri, Chandni Chowk, New Delhi", "photos": [{"photo_reference": "ATtYBwLIpv-W0NQpEUKSE9bgDWy3uKzwsqtAmtbTeS8P6dkqerd5pViyGtaagyX47GceOrOznWz3ouYqToipcqnKp0NU7QUlkEGioCBk3yMxbS57UHDUsrWuEIdggQS-qGQA0GbboEVDmkCnmvjJqia38IOIXQc4x0Ngw7COqbXdmFKkWeET", "width": 4160, "html_attributions": ["<a href=\"https://maps.google.com/maps/contrib/100196768223858749364\">Advocate Bharat Saini</a>"], "height": 3120}], "scope": "GOOGLE", "business_status": "OPERATIONAL", "types": ["bank", "finance", "point_of_interest", "establishment"], "icon": "https://maps.gstatic.com/mapfiles/place_api/icons/v1/png_71/bank-71.png"}, {"rating": 2.6, "user_ratings_total": 5, "name": "Allahabad Bank", "reference": "ChIJCxdpWJ39DDkRsxATVnUEK0E", "geometry": {"location": {"lat": 28.66830000000001, "lng": 77.2067258}, "viewport": {"northeast": {"lat": 28.6696221302915, "lng": 77.2080476302915}, "southwest": {"lat": 28.6669241697085, "lng": 77.2053496697085}}}, "opening_hours": {"open_now": false}, "place_id": "ChIJCxdpWJ39DDkRsxATVnUEK0E", "plus_code": {"global_code": "7JWVM694+8M", "compound_code": "M694+8M New Delhi, Delhi, India"}, "vicinity": "Shop No, 3977, Roshanara Road, Sabzi Mandi Old, New Delhi", "photos": [{"photo_reference": "ATtYBwIPDziGctS-tFAtggmgyMHRO8UAFSq-W__Ze_NpB09V9wPHsXt1sMDwbmk-gKIvbRL5ZMJ-rPp-JoV6lVXAvYdT0iy2en0IKxp98KJulwlcC_IRL_ydG8-ueDwnwXIxGshHr0PJx_VKjNV_BECJX468PZvLdypryC-ZcjNngQCe46F3", "width": 3456, "html_attributions": ["<a href=\"https://maps.google.com/maps/contrib/103000310249103286869\">Bhajan Singh Rai</a>"], "height": 4608}], "scope": "GOOGLE", "business_status": "OPERATIONAL", "types": ["bank", "atm", "finance", "point_of_interest", "establishment"], "icon": "https://maps.gstatic.com/mapfiles/place_api/icons/v1/png_71/bank-71.png"}, {"rating": 2.5, "user_ratings_total": 4, "name": "Bank Of Baroda", "reference": "ChIJvRwZjw_9DDkRHDq0bWHsORk", "geometry": {"location": {"lat": 28.660837, "lng": 77.22855799999999}, "viewport": {"northeast": {"lat": 28.6621859802915, "lng": 77.2299069802915}, "southwest": {"lat": 28.6594880197085, "lng": 77.22720901970848}}}, "opening_hours": {"open_now": false}, "place_id": "ChIJvRwZjw_9DDkRHDq0bWHsORk", "plus_code": {"global_code": "7JWVM66H+8C", "compound_code": "M66H+8C Delhi, India"}, "vicinity": "Mori Gate, New Delhi, Mori Gate, Delhi", "photos": [{"photo_reference": "ATtYBwI39-hKibjfzeu19zFiXayzYBTtTobB_t8F8wwc0PGnSV0aS9COBh1XMbJaOfyjHfbCpRTi2S3h6VHpnYzdU5F_YxA41CtqiWLtO749LDnjAN7WO_QwIMEFcs7hq4QHzJPANUiJ_SklTX_N8uignof7NQClSrKUe12QT19FB1yPf30", "width": 512, "html_attributions": ["<a href=\"https://maps.google.com/maps/contrib/115261486219307434229\">Bank Of Baroda</a>"], "height": 288}], "scope": "GOOGLE", "business_status": "OPERATIONAL", "types": ["bank", "finance", "point_of_interest", "establishment"], "icon": "https://maps.gstatic.com/mapfiles/place_api/icons/v1/png_71/bank-71.png"}, {"name": "YES Bank ATM", "reference": "ChIJtbX8fAj9DDkRlXcvehbFDsM", "geometry": {"location": {"lat": 28.6670368, "lng": 77.2331173}, "viewport": {"northeast": {"lat": 28.6683857802915, "lng": 77.23446628029151}, "southwest": {"lat": 28.6656878197085, "lng": 77.23176831970851}}}, "opening_hours": {"open_now": true}, "place_id": "ChIJtbX8fAj9DDkRlXcvehbFDsM", "plus_code": {"global_code": "7JWVM68M+R6", "compound_code": "M68M+R6 New Delhi, Delhi, India"}, "vicinity": "Metro Station, Near, Part of GF, Premises bearing No. 1418-1421, 1424 to 1427, Kashmere Gate, New Delhi", "photos": [{"photo_reference": "ATtYBwK2GSRwMNeOaBuKoQzpGoIrmDqfpNW6sBDmluXB2vVSHNxS_-IvSQVlSq98si7gJwX1u28oJjie-XTMkNJIXSeGOQ3_jCWi6NZyJeVFUyunqCkE500NC7vhHLyTPJBHg_t0x_wr6Jn2v4jkyZ-frcIXSl0eVew1CbcJff8p7CpkReMe", "width": 400, "html_attributions": ["<a href=\"https://maps.google.com/maps/contrib/112200729742172313856\">YES Bank ATM</a>"], "height": 400}], "scope": "GOOGLE", "business_status": "OPERATIONAL", "types": ["atm", "bank", "finance", "point_of_interest", "establishment"], "icon": "https://maps.gstatic.com/mapfiles/place_api/icons/v1/png_71/atm-71.png"}, {"name": "YES Bank ATM", "reference": "ChIJG_THYgj9DDkRdTHoX_632Rs", "geometry": {"location": {"lat": 28.6667065, "lng": 77.2331009}, "viewport": {"northeast": {"lat": 28.66807113029149, "lng": 77.2341417302915}, "southwest": {"lat": 28.66537316970849, "lng": 77.23144376970849}}}, "opening_hours": {"open_now": true}, "place_id": "ChIJG_THYgj9DDkRdTHoX_632Rs", "plus_code": {"global_code": "7JWVM68M+M6", "compound_code": "M68M+M6 New Delhi, Delhi, India"}, "vicinity": "Metro Rail Corporation, Delhi, Kashmere Gate, New Delhi", "photos": [{"photo_reference": "ATtYBwKR7_U0sTYakbmBqOzEjDHwmBxPEDvLk2Dfs6B-_Rf7UpB3ttrnVV9g72neT8DRTLDy8irJNkuvKXElbVFcYeje2mUKSTKQjGkcNpfknDDaRX9iSHAGl2sxgTxJzC1_IPmkL7i_kc8SkMi7sFf8mTH7Hb7Uo2ZvmbC5FuHOSJcJdZx9", "width": 400, "html_attributions": ["<a href=\"https://maps.google.com/maps/contrib/107350737743394291993\">YES Bank ATM</a>"], "height": 400}], "scope": "GOOGLE", "business_status": "OPERATIONAL", "types": ["atm", "bank", "finance", "point_of_interest", "establishment"], "icon": "https://maps.gstatic.com/mapfiles/place_api/icons/v1/png_71/atm-71.png"}, {"rating": 3.7, "user_ratings_total": 3, "name": "Adarsh Credit Co Operative Society", "reference": "ChIJH1g7zpz9DDkRvRVESDWGhbQ", "geometry": {"location": {"lat": 28.671826, "lng": 77.206496}, "viewport": {"northeast": {"lat": 28.6730594802915, "lng": 77.20767903029152}, "southwest": {"lat": 28.6703615197085, "lng": 77.20498106970851}}}, "place_id": "ChIJH1g7zpz9DDkRvRVESDWGhbQ", "plus_code": {"global_code": "7JWVM6C4+PH", "compound_code": "M6C4+PH New Delhi, Delhi, India"}, "vicinity": "2915, GT Road, Kharia Mohalla, Sabzi Mandi Old, New Delhi", "scope": "GOOGLE", "business_status": "OPERATIONAL", "types": ["bank", "finance", "point_of_interest", "establishment"], "icon": "https://maps.gstatic.com/mapfiles/place_api/icons/v1/png_71/bank-71.png"}, {"rating": 3.2, "user_ratings_total": 11, "name": "Oriental Bank of Commerce ATM", "reference": "ChIJAQAAAG_9DDkRZuDIzTHBd_I", "geometry": {"location": {"lat": 28.65888380000001, "lng": 77.21303259999999}, "viewport": {"northeast": {"lat": 28.6602518802915, "lng": 77.2143093302915}, "southwest": {"lat": 28.6575539197085, "lng": 77.21161136970849}}}, "opening_hours": {"open_now": true}, "place_id": "ChIJAQAAAG_9DDkRZuDIzTHBd_I", "plus_code": {"global_code": "7JWVM657+H6", "compound_code": "M657+H6 New Delhi, Delhi, India"}, "vicinity": "Bara Tooti Chowk, Dungermal Surana Marg, Rui Mandi, Sadar Bazar, New Delhi", "photos": [{"photo_reference": "ATtYBwILKCkz1RoZCp8jnrfkYheeLgbzlNK1hUyCdDdMc-nzXqQsEOV8FtaIUKptHvyEVjKf_niudGepMdvYLMPf3Jiaeju81RuVT2GypKqtJNTKoE-FILUPNhWxIwDAFNP9tQxY4ffkW4HSN4GNIDFbqHgCimmLhPDZmagDbaZWsM5DUgL9", "width": 4160, "html_attributions": ["<a href=\"https://maps.google.com/maps/contrib/115272745396534958828\">Sukriti Upadhyay</a>"], "height": 3120}], "scope": "GOOGLE", "business_status": "OPERATIONAL", "types": ["atm", "bank", "finance", "point_of_interest", "establishment"], "icon": "https://maps.gstatic.com/mapfiles/place_api/icons/v1/png_71/bank-71.png"}, {"rating": 1, "user_ratings_total": 1, "name": "YES Bank ATM", "reference": "ChIJG8N_bHH9DDkRVEgq1mZT894", "geometry": {"location": {"lat": 28.6625553, "lng": 77.20858779999999}, "viewport": {"northeast": {"lat": 28.6636526302915, "lng": 77.20991088029149}, "southwest": {"lat": 28.6609546697085, "lng": 77.20721291970848}}}, "opening_hours": {"open_now": true}, "place_id": "ChIJG8N_bHH9DDkRVEgq1mZT894", "plus_code": {"global_code": "7JWVM675+2C", "compound_code": "M675+2C New Delhi, Delhi, India"}, "vicinity": "Shop No, 3274, Bahadurgarh Road, Sadar Bazaar, New Delhi", "photos": [{"photo_reference": "ATtYBwI9VjJsshgUIaormNBV1zHmTYs5ZpA-bFEJClXlsp75CSdHVwswiS115iFZIorHmaYjMIUtaajfNjgwf86_WcLJYGAcn8Kl6Q5bvCgAzTws0NPzp4XODcp6HHhZb80ybgh88DknPcmrSSnuFmrqYr3nTBeWlDC_DvsdzI8X554K0off", "width": 400, "html_attributions": ["<a href=\"https://maps.google.com/maps/contrib/116369155539070776182\">YES Bank ATM</a>"], "height": 400}], "scope": "GOOGLE", "business_status": "OPERATIONAL", "types": ["atm", "bank", "finance", "point_of_interest", "establishment"], "icon": "https://maps.gstatic.com/mapfiles/place_api/icons/v1/png_71/atm-71.png"}, {"rating": 3.6, "user_ratings_total": 8, "name": "Union Bank of India", "reference": "ChIJy-AFHRL9DDkRseohX_qxmf0", "geometry": {"location": {"lat": 28.6577491, "lng": 77.2233698}, "viewport": {"northeast": {"lat": 28.6590924802915, "lng": 77.22475948029151}, "southwest": {"lat": 28.6563945197085, "lng": 77.2220615197085}}}, "opening_hours": {"open_now": false}, "place_id": "ChIJy-AFHRL9DDkRseohX_qxmf0", "plus_code": {"global_code": "7JWVM65F+38", "compound_code": "M65F+38 New Delhi, Delhi, India"}, "vicinity": "192, Church Mission Road Near Fatehpuri Masjid, Khari Baoli, New Delhi", "photos": [{"photo_reference": "ATtYBwLo3Hkk0pQKZXthrmspgMl1v43hD_MTJToHd47iupTyDZUiOS5BzlAYWeHPlPoTHeZWBPsYvbbmHL8Cehx2z4FMSr7Z-WYQoa85huif7C83gy7UaSIAD3H81wqFe5HcmT8oCY6pmyTWpsJaVAgYFL4c2OgBx2R2qlpPbHd1j1cT73lz", "width": 4608, "html_attributions": ["<a href=\"https://maps.google.com/maps/contrib/105000305209830166594\">Dinesh Kumar</a>"], "height": 3456}], "scope": "GOOGLE", "business_status": "OPERATIONAL", "types": ["bank", "finance", "point_of_interest", "establishment"], "icon": "https://maps.gstatic.com/mapfiles/place_api/icons/v1/png_71/bank-71.png"}, {"rating": 2.5, "user_ratings_total": 11, "name": "State Bank of India", "reference": "ChIJu5PkFnL9DDkR3vt_2X9As_Y", "geometry": {"location": {"lat": 28.6590346, "lng": 77.2127227}, "viewport": {"northeast": {"lat": 28.6603712802915, "lng": 77.2141177302915}, "southwest": {"lat": 28.6576733197085, "lng": 77.2114197697085}}}, "opening_hours": {"open_now": false}, "place_id": "ChIJu5PkFnL9DDkR3vt_2X9As_Y", "plus_code": {"global_code": "7JWVM657+J3", "compound_code": "M657+J3 New Delhi, Delhi, India"}, "vicinity": "Bara Tooti, Sadar Bazaar, New Delhi", "photos": [{"photo_reference": "ATtYBwJLD-cy2zO3Z9HrLLZtMNYv2kAUng-kiwWJefpdJAvV5X84Zgm1dyrywsj1smZYjqhr6d2S_d0yw8mFaIpY22T-GGrG2pDNadI5J5HJcvaG_d-GZijh_-IvdR4VA3J6-zQsqbBlYjhRV9Y_ZsoUoSO_XAu4TuD-Juh9ojur6HFt_3jH", "width": 1920, "html_attributions": ["<a href=\"https://maps.google.com/maps/contrib/106751954465507832022\">Asad Reza ARK</a>"], "height": 1080}], "scope": "GOOGLE", "business_status": "OPERATIONAL", "types": ["bank", "finance", "point_of_interest", "establishment"], "icon": "https://maps.gstatic.com/mapfiles/place_api/icons/v1/png_71/bank-71.png"}, {"rating": 5, "user_ratings_total": 1, "name": "SyndicateBank Delhi Raj Niwas Marg (St Xavier) Branch", "reference": "ChIJga4bDn79DDkRQrIOG7WG7tg", "geometry": {"location": {"lat": 28.671555, "lng": 77.222912}, "viewport": {"northeast": {"lat": 28.6729126802915, "lng": 77.22418528029151}, "southwest": {"lat": 28.6702147197085, "lng": 77.2214873197085}}}, "place_id": "ChIJga4bDn79DDkRQrIOG7WG7tg", "plus_code": {"global_code": "7JWVM6CF+J5", "compound_code": "M6CF+J5 Delhi, India"}, "vicinity": "St.Xavier'S School, Raj Niwas Marg, Chowk, Delhi", "scope": "GOOGLE", "business_status": "OPERATIONAL", "types": ["bank", "finance", "point_of_interest", "establishment"], "icon": "https://maps.gstatic.com/mapfiles/place_api/icons/v1/png_71/bank-71.png"}, {"name": "CANARA BANK (formerly Syndicate Bank)", "reference": "ChIJATQPgvX9DDkRncYY9IqW4N4", "geometry": {"location": {"lat": 28.6724155, "lng": 77.2224684}, "viewport": {"northeast": {"lat": 28.6737644802915, "lng": 77.22381738029151}, "southwest": {"lat": 28.6710665197085, "lng": 77.22111941970849}}}, "place_id": "ChIJATQPgvX9DDkRncYY9IqW4N4", "plus_code": {"global_code": "7JWVM6CC+XX", "compound_code": "M6CC+XX New Delhi, Delhi, India"}, "vicinity": "NO. 04 ST.XAVIER'S SCHOOL, Raj Niwas Marg, New Delhi", "scope": "GOOGLE", "business_status": "OPERATIONAL", "types": ["bank", "finance", "point_of_interest", "establishment"], "icon": "https://maps.gstatic.com/mapfiles/place_api/icons/v1/png_71/bank-71.png"}]}