{"status": "OK", "html_attributions": [], "results": [{"rating": 4.6, "user_ratings_total": 5, "name": "Axis Bank", "reference": "ChIJkdvcx9XmDDkRKdh4GfW6Rms", "geometry": {"location": {"lat": 28.4934651, "lng": 77.2903558}, "viewport": {"northeast": {"lat": 28.4951629302915, "lng": 77.29184658029152}, "southwest": {"lat": 28.4924649697085, "lng": 77.2891486197085}}}, "opening_hours": {"open_now": false}, "place_id": "ChIJkdvcx9XmDDkRKdh4GfW6Rms", "plus_code": {"global_code": "7JWVF7VR+94", "compound_code": "F7VR+94 Faridabad, Haryana, India"}, "vicinity": "SN 13 & 14, 19 & 20, Charmwood Plaza, Sector 39, Faridabad", "photos": [{"photo_reference": "ATtYBwKy2nGoFKK5-Vb3MKRvzqskkutacX91mmELb8QAyXdFMVjDx3QMEnJMDbbjBHY3RUPuEOEVPEDXTujb2W2_95S45emppMr47sx1i7LYjh2gTp1xsAfCIAXOD1z_WCYSAsYefaeFnyI0eibr6P48NXxzugs5ivEcIuyJcVzCKiYXQKWi", "width": 1080, "html_attributions": ["<a href=\"https://maps.google.com/maps/contrib/102844556084036446577\">Dinesh Chandra Sanwal</a>"], "height": 1920}], "scope": "GOOGLE", "business_status": "OPERATIONAL", "types": ["bank", "finance", "point_of_interest", "establishment"], "icon": "https://maps.gstatic.com/mapfiles/place_api/icons/v1/png_71/bank-71.png"}, {"rating": 2.7, "user_ratings_total": 23, "name": "Punjab National Bank", "reference": "ChIJS9Fu79PgDDkR89Ffqu8P3Vg", "geometry": {"location": {"lat": 28.4946271, "lng": 77.2902999}, "viewport": {"northeast": {"lat": 28.4958982302915, "lng": 77.2915828802915}, "southwest": {"lat": 28.4932002697085, "lng": 77.2888849197085}}}, "opening_hours": {"open_now": false}, "place_id": "ChIJS9Fu79PgDDkR89Ffqu8P3Vg", "plus_code": {"global_code": "7JWVF7VR+V4", "compound_code": "F7VR+V4 Faridabad, Haryana, India"}, "vicinity": "Shop No. 68 -71, Charms Wood Plaza, Eros Garden, Surajkund, Faridabad", "photos": [{"photo_reference": "ATtYBwJaKZitaRL5C2Bdx9OpI2qocG-1UZGNq1cdZeVr-vGKqQP9cenDlvj9V1rLDQYT6miApW9B7WIctQ9NbGpa5LkieNBwf3nYwt8BjIkgnKhb1fms52zJjD0dNPjjADOEUAtjV3blx7ANZCMRDDRHfQ0qqk6Olq90bFVCONPNieJUTcHg", "width": 1920, "html_attributions": ["<a href=\"https://maps.google.com/maps/contrib/109472170544629061142\">Md Hayat</a>"], "height": 1080}], "scope": "GOOGLE", "business_status": "OPERATIONAL", "types": ["bank", "finance", "point_of_interest", "establishment"], "icon": "https://maps.gstatic.com/mapfiles/place_api/icons/v1/png_71/bank-71.png"}, {"name": "PNB ATM", "reference": "ChIJVVVVFi3nDDkRf9Krf66Y4a8", "geometry": {"location": {"lat": 28.482881, "lng": 77.2881037}, "viewport": {"northeast": {"lat": 28.4841811802915, "lng": 77.2897473302915}, "southwest": {"lat": 28.48148321970849, "lng": 77.28704936970848}}}, "opening_hours": {"open_now": true}, "place_id": "ChIJVVVVFi3nDDkRf9Krf66Y4a8", "plus_code": {"global_code": "7JWVF7MQ+56", "compound_code": "F7MQ+56 Faridabad, Haryana, India"}, "vicinity": "Suraj Kund Badkhal Road, Lakewood city, Shiv Durga Vihar, Faridabad", "photos": [{"photo_reference": "ATtYBwJ3S4woIUfukOax1ZkPRUea5h7UXT3jWe7cMYuyFiJPyU3dv9sPGTFzWgO5ZU1Sig208DjDZs6TrmKEKa_lbQwknazNwROJTc6f7jNHEHMx7I_3eK4Y1AIoBiUeFJ9sT7q5mT-mWWnz4gnoRvwU7YQRZ9dYxlfFa_Pb2jS54QTOAJct", "width": 3024, "html_attributions": ["<a href=\"https://maps.google.com/maps/contrib/102820466693681498487\">Rajesh Singh</a>"], "height": 4032}], "scope": "GOOGLE", "business_status": "OPERATIONAL", "types": ["bank", "finance", "point_of_interest", "establishment"], "icon": "https://maps.gstatic.com/mapfiles/place_api/icons/v1/png_71/bank-71.png"}, {"rating": 5, "user_ratings_total": 2, "name": "ICICI BANK ATM", "reference": "ChIJsxfbu9XmDDkRzU83205LcvY", "geometry": {"location": {"lat": 28.4945405, "lng": 77.2904181}, "viewport": {"northeast": {"lat": 28.4958147802915, "lng": 77.2917033302915}, "southwest": {"lat": 28.49311681970849, "lng": 77.28900536970849}}}, "opening_hours": {"open_now": true}, "place_id": "ChIJsxfbu9XmDDkRzU83205LcvY", "plus_code": {"global_code": "7JWVF7VR+R5", "compound_code": "F7VR+R5 Faridabad, Haryana, India"}, "vicinity": "Charmwood Plaza, Surajkund, Faridabad", "photos": [{"photo_reference": "ATtYBwJCz8TjTiWpEmUJJFP0N8IDGfvZmLIEAtImq6tWY_dEQxILEGfStbEXcm3REBdLgsgjmKMpkn9Oke0ZXvUHAU1VPaGatbUkQP-cQdVCl9DGaGT-dZN1FTQwAJaxFcmILaheWhvBODxiQCSdZa6xhBpsHugYHiNjixJAS8zEsLzOXfgB", "width": 4128, "html_attributions": ["<a href=\"https://maps.google.com/maps/contrib/103469482858076299846\">Sanu Kumar</a>"], "height": 2160}], "scope": "GOOGLE", "business_status": "OPERATIONAL", "types": ["atm", "bank", "finance", "point_of_interest", "establishment"], "icon": "https://maps.gstatic.com/mapfiles/place_api/icons/v1/png_71/atm-71.png"}, {"rating": 3.9, "user_ratings_total": 19, "name": "ICICI Bank Charmwood Plaza, Faridabad - Branch & ATM", "reference": "ChIJzybdu9XmDDkRSUa7c1OD36E", "geometry": {"location": {"lat": 28.4945337, "lng": 77.2904279}, "viewport": {"northeast": {"lat": 28.4958082302915, "lng": 77.2917130302915}, "southwest": {"lat": 28.4931102697085, "lng": 77.2890150697085}}}, "opening_hours": {"open_now": false}, "place_id": "ChIJzybdu9XmDDkRSUa7c1OD36E", "plus_code": {"global_code": "7JWVF7VR+R5", "compound_code": "F7VR+R5 Faridabad, Haryana, India"}, "vicinity": "Surajkund Shop No. G 1, 2, 3, 4 And Lg 4 & 5, Charmwood Plaza, Faridabad", "photos": [{"photo_reference": "ATtYBwKF7G0KxQEoNRwJvlmkmF5Nx_rF6vd1M0X1eO07ko36nAIxGyhho_oxnDHpD7MiJBpbItL0Iakp1FYFrfzX7TNlNFGeXvuG2T4nDTCY9nCl_FntWiH3ws7WzIFFnkdNf-6Q_UP7F4nvfktzmPBzvJU9dWoLmIhK_WIc9F3nfNUQowj1", "width": 4000, "html_attributions": ["<a href=\"https://maps.google.com/maps/contrib/116865262437230704541\">Vyakhya Edu</a>"], "height": 2250}], "scope": "GOOGLE", "business_status": "OPERATIONAL", "types": ["bank", "atm", "finance", "point_of_interest", "establishment"], "icon": "https://maps.gstatic.com/mapfiles/place_api/icons/v1/png_71/bank-71.png"}, {"rating": 2.4, "user_ratings_total": 12, "name": "State Bank of India", "reference": "ChIJ__8_uNXmDDkRPXuFPu35K9E", "geometry": {"location": {"lat": 28.49465, "lng": 77.2907489}, "viewport": {"northeast": {"lat": 28.4958192302915, "lng": 77.2919455302915}, "southwest": {"lat": 28.4931212697085, "lng": 77.2892475697085}}}, "opening_hours": {"open_now": false}, "place_id": "ChIJ__8_uNXmDDkRPXuFPu35K9E", "plus_code": {"global_code": "7JWVF7VR+V7", "compound_code": "F7VR+V7 Faridabad, Haryana, India"}, "vicinity": "9, Park Avenue, Charmwood Village, Sector 39, Faridabad", "photos": [{"photo_reference": "ATtYBwIitlP3x7VE7D98d0i4G4IJGh_KcR1cwRVe5cMSW7X_srxO1g0f89Fp8qxznC9cYE-om5MC6gd3BZA6GgICYQImNuA_sOOsYcl3d06NNkrVeOT1iN0Ah-Vp2zKtTtl4TsSVJV83SlJj9daIKsK54zi4SRCPtDRMoZinegAcC9RwbYAM", "width": 1080, "html_attributions": ["<a href=\"https://maps.google.com/maps/contrib/101439946860627404600\">Juned Ansari</a>"], "height": 1920}], "scope": "GOOGLE", "business_status": "OPERATIONAL", "types": ["atm", "bank", "finance", "point_of_interest", "establishment"], "icon": "https://maps.gstatic.com/mapfiles/place_api/icons/v1/png_71/bank-71.png"}, {"rating": 3.1, "user_ratings_total": 27, "name": "HDFC Bank", "reference": "ChIJaVVrairnDDkRLjH1NFDsHqM", "geometry": {"location": {"lat": 28.4948264, "lng": 77.2913975}, "viewport": {"northeast": {"lat": 28.4962184302915, "lng": 77.29267893029152}, "southwest": {"lat": 28.4935204697085, "lng": 77.2899809697085}}}, "opening_hours": {"open_now": false}, "place_id": "ChIJaVVrairnDDkRLjH1NFDsHqM", "plus_code": {"global_code": "7JWVF7VR+WH", "compound_code": "F7VR+WH Faridabad, Haryana, India"}, "vicinity": "Shop No 2 to 5, Charmwood Bazar, Suraj Kund Road, Faridabad", "photos": [{"photo_reference": "ATtYBwLg3CCcJJeH_CPpoj1Jh8BYVmC-cuuu4jyciVUUA0Mjb0GzxvL_moFIIbK4ywFom7JEO6e6442hGI6vsRQ-CB_-AKvhhWZ0au_NXvFsjby0hsHM9Vu17nxe62RWW22_8tJTh3fcupqQsrhg4hB4GtDuToiLQgwLrAvnajuKKsZQRK1v", "width": 300, "html_attributions": ["<a href=\"https://maps.google.com/maps/contrib/112812760142523344972\">HDFC Bank</a>"], "height": 300}], "scope": "GOOGLE", "business_status": "OPERATIONAL", "types": ["bank", "finance", "point_of_interest", "establishment"], "icon": "https://maps.gstatic.com/mapfiles/place_api/icons/v1/png_71/bank-71.png"}, {"rating": 5, "user_ratings_total": 1, "name": "HDFC Bank ATM", "reference": "ChIJeTuOLtbmDDkRNhZnXzKykfM", "geometry": {"location": {"lat": 28.4932739, "lng": 77.2926901}, "viewport": {"northeast": {"lat": 28.4947811302915, "lng": 77.2957672}, "southwest": {"lat": 28.4920831697085, "lng": 77.2916644}}}, "opening_hours": {"open_now": true}, "place_id": "ChIJeTuOLtbmDDkRNhZnXzKykfM", "plus_code": {"global_code": "7JWVF7VV+83", "compound_code": "F7VV+83 Faridabad, Haryana, India"}, "vicinity": "Shop No, 3, Dayal Bagh Road, Sector 39, Faridabad", "photos": [{"photo_reference": "ATtYBwIhn31YESHW7BX1NatvUZIFXWqxsYx-nEoUopbGDcIZ0OqEUUoBhNw0zs3_Un-BcSwe5FnH8s_-_RJY9ZlcBTuRPSbKPL7frYYp_yWZ7UInVvyI4Eqw_bCO5yYejBctdrJWJ2R37-TiXBC2imthz8lxblIHXAI3yQiBCMF2_EYQtNw", "width": 1512, "html_attributions": ["<a href=\"https://maps.google.com/maps/contrib/100157347253852107852\">Pawan Kumar</a>"], "height": 2688}], "scope": "GOOGLE", "business_status": "OPERATIONAL", "types": ["atm", "bank", "finance", "point_of_interest", "establishment"], "icon": "https://maps.gstatic.com/mapfiles/place_api/icons/v1/png_71/atm-71.png"}, {"name": "Axis Bank ATM", "reference": "ChIJd0CI_xrhDDkRTRUj47YjWx8", "geometry": {"location": {"lat": 28.49108429999999, "lng": 77.2803316}, "viewport": {"northeast": {"lat": 28.4924455802915, "lng": 77.2817372302915}, "southwest": {"lat": 28.4897476197085, "lng": 77.27903926970849}}}, "opening_hours": {"open_now": true}, "place_id": "ChIJd0CI_xrhDDkRTRUj47YjWx8", "plus_code": {"global_code": "7JWVF7RJ+C4", "compound_code": "F7RJ+C4 New Delhi, Delhi, India"}, "vicinity": "No A, 260, Lal Kuan, New Delhi", "scope": "GOOGLE", "business_status": "OPERATIONAL", "types": ["atm", "bank", "finance", "point_of_interest", "establishment"], "icon": "https://maps.gstatic.com/mapfiles/place_api/icons/v1/png_71/atm-71.png"}, {"rating": 2.8, "user_ratings_total": 6, "name": "Bank of Maharashtra Dayal Bagh", "reference": "ChIJ_dPEorPnDDkRZaoh4xxECcY", "geometry": {"location": {"lat": 28.4938415, "lng": 77.2899774}, "viewport": {"northeast": {"lat": 28.4952429302915, "lng": 77.2913715302915}, "southwest": {"lat": 28.4925449697085, "lng": 77.2886735697085}}}, "place_id": "ChIJ_dPEorPnDDkRZaoh4xxECcY", "plus_code": {"global_code": "7JWVF7VQ+GX", "compound_code": "F7VQ+GX Faridabad, Haryana, India"}, "vicinity": "Shop No 55-62, Charmwood Plaza. Erose Garden Near Suraj Kund, Dayal Bagh Colony, Faridabad", "scope": "GOOGLE", "business_status": "OPERATIONAL", "types": ["bank", "finance", "point_of_interest", "establishment"], "icon": "https://maps.gstatic.com/mapfiles/place_api/icons/v1/png_71/bank-71.png"}, {"name": "Axis Bank ATM", "reference": "ChIJCTC-WN7nDDkR9O4LIYXjy10", "geometry": {"location": {"lat": 28.49345, "lng": 77.29033}, "viewport": {"northeast": {"lat": 28.4949013802915, "lng": 77.29176713029149}, "southwest": {"lat": 28.4922034197085, "lng": 77.28906916970848}}}, "opening_hours": {"open_now": true}, "place_id": "ChIJCTC-WN7nDDkR9O4LIYXjy10", "plus_code": {"global_code": "7JWVF7VR+94", "compound_code": "F7VR+94 Faridabad, Haryana, India"}, "vicinity": "SN 13 & 14, 19 & 20, Charmwood Plaza, Sector 39, Faridabad", "scope": "GOOGLE", "business_status": "OPERATIONAL", "types": ["atm", "bank", "finance", "point_of_interest", "establishment"], "icon": "https://maps.gstatic.com/mapfiles/place_api/icons/v1/png_71/atm-71.png"}, {"name": "ICICI BANK ATM", "reference": "ChIJ13KbRQXnDDkRZi8iKSi_AV8", "geometry": {"location": {"lat": 28.4945408, "lng": 77.29041769999999}, "viewport": {"northeast": {"lat": 28.4958150802915, "lng": 77.2917028802915}, "southwest": {"lat": 28.49311711970849, "lng": 77.28900491970849}}}, "opening_hours": {"open_now": true}, "place_id": "ChIJ13KbRQXnDDkRZi8iKSi_AV8", "plus_code": {"global_code": "7JWVF7VR+R5", "compound_code": "F7VR+R5 Faridabad, Haryana, India"}, "vicinity": "G 1, 2, 34 & Lg 4 & 5, Charmwood Plaza, Surajkund, Faridabad", "scope": "GOOGLE", "business_status": "OPERATIONAL", "types": ["bank", "finance", "point_of_interest", "establishment"], "icon": "https://maps.gstatic.com/mapfiles/place_api/icons/v1/png_71/bank-71.png"}, {"name": "HDFC Bank ATM", "reference": "ChIJBZ17zULnDDkR98T1n2Do_gI", "geometry": {"location": {"lat": 28.482687, "lng": 77.288414}, "viewport": {"northeast": {"lat": 28.4840625302915, "lng": 77.2897690802915}, "southwest": {"lat": 28.4813645697085, "lng": 77.2870711197085}}}, "opening_hours": {"open_now": true}, "place_id": "ChIJBZ17zULnDDkR98T1n2Do_gI", "plus_code": {"global_code": "7JWVF7MQ+39", "compound_code": "F7MQ+39 Faridabad, Haryana, India"}, "vicinity": "Near Malik Electronics, Plot, Street Number 1, Lakkarpur, Shiv Durga Vihar, Faridabad", "photos": [{"photo_reference": "ATtYBwLdkSKmCrNLEW22oRHzdvVSSUtkirJ01uk4IblXJ-mG1LTo6oCNKz2MDvYx5-hQ5vJuOWP4YpI9eh3WWqeS0c_Z7s919oVXXTe9uCDGKbOBtxVX78wLx9JEen4LyHth29rId6Okyt7LXk3kSikmhOeO40LsNPtj27jXGOrpc9SvcKB6", "width": 3024, "html_attributions": ["<a href=\"https://maps.google.com/maps/contrib/102820466693681498487\">Rajesh Singh</a>"], "height": 4032}], "scope": "GOOGLE", "business_status": "OPERATIONAL", "types": ["atm", "bank", "finance", "point_of_interest", "establishment"], "icon": "https://maps.gstatic.com/mapfiles/place_api/icons/v1/png_71/atm-71.png"}, {"name": "Maharana Credit of India Nidhi Ltd", "reference": "ChIJVwNNAyrnDDkRlQ-hrGO8L1w", "geometry": {"location": {"lat": 28.4920411, "lng": 77.2919289}, "viewport": {"northeast": {"lat": 28.4934075802915, "lng": 77.2932480802915}, "southwest": {"lat": 28.4907096197085, "lng": 77.2905501197085}}}, "place_id": "ChIJVwNNAyrnDDkRlQ-hrGO8L1w", "vicinity": "# A, 64, LGF, Dayal Bagh Road, Surajkund, Faridabad", "scope": "GOOGLE", "business_status": "OPERATIONAL", "types": ["bank", "finance", "point_of_interest", "establishment"], "icon": "https://maps.gstatic.com/mapfiles/place_api/icons/v1/png_71/bank-71.png"}, {"name": "Ajay Computer", "reference": "ChIJDwxgKSnnDDkR6No77jE82wE", "geometry": {"location": {"lat": 28.4866459, "lng": 77.2918741}, "viewport": {"northeast": {"lat": 28.4879357302915, "lng": 77.29318218029151}, "southwest": {"lat": 28.4852377697085, "lng": 77.2904842197085}}}, "opening_hours": {"open_now": true}, "place_id": "ChIJDwxgKSnnDDkR6No77jE82wE", "plus_code": {"global_code": "7JWVF7PR+MP", "compound_code": "F7PR+MP Faridabad, Haryana, India"}, "vicinity": "C- 15, Lakkarpur, Shiv Durga Vihar, Faridabad", "photos": [{"photo_reference": "ATtYBwK9ZirgT_5hsPifrDfhcVOhNf1P2A1apSZ8yapW3PQ_1wjPfGPQZB1cdLPnBSthtShwe0abIg7Muv5sRgMYfFgrK962vjuIyrFzJx1I-j-12QphJBh1XSfRIdyv7RyNHnbG-GRCxHNL_GQNrKgqQ4BagSYluQ41k2Fx7adQg__Xo3tQ", "width": 960, "html_attributions": ["<a href=\"https://maps.google.com/maps/contrib/109150980416244892094\">Ajay Computer</a>"], "height": 1280}], "scope": "GOOGLE", "business_status": "OPERATIONAL", "types": ["bank", "finance", "travel_agency", "point_of_interest", "establishment"], "icon": "https://maps.gstatic.com/mapfiles/place_api/icons/v1/png_71/bank-71.png"}, {"name": "HDFC Bank ATM", "reference": "ChIJcS6t2FLnDDkRC5PTALyEWqI", "geometry": {"location": {"lat": 28.4948264, "lng": 77.2913975}, "viewport": {"northeast": {"lat": 28.4962184302915, "lng": 77.29267893029152}, "southwest": {"lat": 28.4935204697085, "lng": 77.2899809697085}}}, "opening_hours": {"open_now": true}, "place_id": "ChIJcS6t2FLnDDkRC5PTALyEWqI", "plus_code": {"global_code": "7JWVF7VR+WH", "compound_code": "F7VR+WH Faridabad, Haryana, India"}, "vicinity": "Shop No, 2 to 5, Suraj Kund Road, Charmwood Village, Bazar, Faridabad", "photos": [{"photo_reference": "ATtYBwJO6JwDbV5aRt0tnyg3xsL3Al04vRFHHEH6OVfmFyTmMaExIrv2Uo8tjCMqtuXOPDfJNCY9_1DRa2G6tX9nU_hvD3B-j2uQIQgtYHl_JCJvYM7qpR9lVpnhbCq4WK2E1l6MqeE1xweMa4Lb3QxNcJtnkIfpwLCG3jIHRhQn3B-FLVcm", "width": 250, "html_attributions": ["<a href=\"https://maps.google.com/maps/contrib/108665480083632594402\">HDFC Bank ATM</a>"], "height": 250}], "scope": "GOOGLE", "business_status": "OPERATIONAL", "types": ["atm", "bank", "finance", "point_of_interest", "establishment"], "icon": "https://maps.gstatic.com/mapfiles/place_api/icons/v1/png_71/atm-71.png"}, {"rating": 4, "user_ratings_total": 1, "name": "SyndicateBank Faridabad Charmwood Branch", "reference": "ChIJX0hLYa3nDDkR1w66HYPo6EU", "geometry": {"location": {"lat": 28.4870541, "lng": 77.2922459}, "viewport": {"northeast": {"lat": 28.4883893302915, "lng": 77.2935829802915}, "southwest": {"lat": 28.4856913697085, "lng": 77.29088501970848}}}, "place_id": "ChIJX0hLYa3nDDkR1w66HYPo6EU", "plus_code": {"global_code": "7JWVF7PR+RV", "compound_code": "F7PR+RV Faridabad, Haryana, India"}, "vicinity": "No Ugf-24,Charmwood Plaza,Eros Garden, Suraj Kund Road, Charmwood Village, Faridabad", "scope": "GOOGLE", "business_status": "OPERATIONAL", "types": ["bank", "finance", "point_of_interest", "establishment"], "icon": "https://maps.gstatic.com/mapfiles/place_api/icons/v1/png_71/bank-71.png"}, {"rating": 5, "user_ratings_total": 2, "name": "sbi atm", "reference": "ChIJSRrkMNPmDDkRq1FXgRoIjgU", "geometry": {"location": {"lat": 28.4999368, "lng": 77.2870701}, "viewport": {"northeast": {"lat": 28.5013018802915, "lng": 77.2884195302915}, "southwest": {"lat": 28.4986039197085, "lng": 77.28572156970849}}}, "opening_hours": {"open_now": true}, "place_id": "ChIJSRrkMNPmDDkRq1FXgRoIjgU", "plus_code": {"global_code": "7JWVF7XP+XR", "compound_code": "F7XP+XR New Delhi, Delhi, India"}, "vicinity": "Block F, Vishwakarma Colony, Pul Pehlad Pur, New Delhi", "photos": [{"photo_reference": "ATtYBwLl4ycA9zFLCTBVduN_KqHUmdDIfXlebggyNNAQrHOQdTV9WEG_GDOh6azP8LGK94QEodUWviIqAfPWpgEnmNyDrCiVeC9Fl39IOrUhSW9LKxBrbRqVHYZu16cOnErrAzESRVnO17-7pRGVru6IYJD0jn8An9lKyNFNckmEwMqQWLZh", "width": 1080, "html_attributions": ["<a href=\"https://maps.google.com/maps/contrib/101439946860627404600\">Juned Ansari</a>"], "height": 1920}], "scope": "GOOGLE", "business_status": "OPERATIONAL", "types": ["bank", "atm", "finance", "point_of_interest", "establishment"], "icon": "https://maps.gstatic.com/mapfiles/place_api/icons/v1/png_71/bank-71.png"}]}