{"status": "OK", "next_page_token": "ATtYBwL8lzJ9a_tsZMr4PktuDAYyWh6TPHBr2EqTeSHX7k5pBNH5UyphEjpQHBqSVah4A-LSSeOo2rSWZxU9LUHK1_0_eUNnoQDif63Vjqxw6SGpLrtOrdGgdWUKQkIsRcap7hf995E3dUbw4l-N6MWP9GZNmwaHlG375LC4ke15V07jSd1qcCyTQEsRAjJGLF6JD1ZgzDTF6644IwFu_CD0qzTMaoArtImWPefic-tphyG8S7iFNb9R5W7kC3CIVcfJxP0ZbF-pMYucKskvAL_lx321Dpo7FREyhybkAkFrB2TJjqBVDLDIO0uTm8pEziQl_Q4HrKH0L6g0xLL6ZN4ZEtRO_FPJYEu6ODKlbTx0V4Y_1o83S0q8H_SdKkK7vPG24ZWGImWLg7X1ijcDpgtAYvpoaIDjZcolYSLqstme8zfkmKM8", "html_attributions": [], "results": [{"rating": 4, "user_ratings_total": 29, "name": "Jamia Co-operative Bank", "reference": "ChIJMffLIorjDDkRBjqY8PXDE8M", "geometry": {"location": {"lat": 28.565993, "lng": 77.284921}, "viewport": {"northeast": {"lat": 28.5673714302915, "lng": 77.2862183302915}, "southwest": {"lat": 28.5646734697085, "lng": 77.2835203697085}}}, "opening_hours": {"open_now": false}, "place_id": "ChIJMffLIorjDDkRBjqY8PXDE8M", "plus_code": {"global_code": "7JWVH78M+9X", "compound_code": "H78M+9X New Delhi, Delhi, India"}, "vicinity": "334-E, BATLA HOUSE, Batla House, Jamia Nagar, New Delhi", "photos": [{"photo_reference": "ATtYBwKLzK8G6jGbkHDRaNrHEkMQaFOU7z0en1rKoiQgyN9UTLOqDu4rPnwvYwF08JJ7QKW_4diiEy9uMR0CDPD3poUl4QQOEwkNtF0tsFKG4kaN0FR6E0eMpx1k8m7zcC_pu7xeZPec8CjyD4Im7p0zfPGpkn9Oe2eK8YGp7nDpUHIVBzAv", "width": 1080, "html_attributions": ["<a href=\"https://maps.google.com/maps/contrib/108625424179825777406\">Johny Dep</a>"], "height": 1920}], "scope": "GOOGLE", "business_status": "OPERATIONAL", "types": ["bank", "atm", "finance", "point_of_interest", "establishment"], "icon": "https://maps.gstatic.com/mapfiles/place_api/icons/v1/png_71/bank-71.png"}, {"rating": 4.3, "user_ratings_total": 3, "name": "HDFC Bank ATM", "reference": "ChIJnV1mSd_jDDkRr02-f5TGx_o", "geometry": {"location": {"lat": 28.5668576, "lng": 77.2817635}, "viewport": {"northeast": {"lat": 28.5682194302915, "lng": 77.2831187802915}, "southwest": {"lat": 28.5655214697085, "lng": 77.2804208197085}}}, "opening_hours": {"open_now": true}, "place_id": "ChIJnV1mSd_jDDkRr02-f5TGx_o", "plus_code": {"global_code": "7JWVH78J+PP", "compound_code": "H78J+PP New Delhi, Delhi, India"}, "vicinity": "Plot No R 278 Sir Syad Road, Jamia Nagar, Zakir Nagar Near Islah masjid, New Delhi", "photos": [{"photo_reference": "ATtYBwKcwR_cSIp39xQ_Q5-hPrvV87V4ulf-7dHJLfhUqu2j2r9UsJN_AG8jBSQW84lbuGOtHGxyx5iru-9g_-3rCE1D_pTkKUEnKTHQuipWxTLbC2OrAJ72ck1WOL3iXrkI8C1Q24i73WQMJCw2kGIZz4KfEJ7xMe_M4OoyqlHXauAmD9Hi", "width": 950, "html_attributions": ["<a href=\"https://maps.google.com/maps/contrib/117720137461545629580\">Imran Nafis</a>"], "height": 716}], "scope": "GOOGLE", "business_status": "OPERATIONAL", "types": ["atm", "bank", "finance", "point_of_interest", "establishment"], "icon": "https://maps.gstatic.com/mapfiles/place_api/icons/v1/png_71/atm-71.png"}, {"rating": 3, "user_ratings_total": 1, "name": "Axis Bank ATM", "reference": "ChIJhQczwonjDDkReX_nmZtoeLQ", "geometry": {"location": {"lat": 28.5667885, "lng": 77.2853161}, "viewport": {"northeast": {"lat": 28.5681453802915, "lng": 77.28664783029151}, "southwest": {"lat": 28.5654474197085, "lng": 77.2839498697085}}}, "opening_hours": {"open_now": true}, "place_id": "ChIJhQczwonjDDkReX_nmZtoeLQ", "plus_code": {"global_code": "7JWVH78P+P4", "compound_code": "H78P+P4 New Delhi, Delhi, India"}, "vicinity": "Plot No, near Max Health Medicos, P114, Batla House, Okhla, New Delhi", "photos": [{"photo_reference": "ATtYBwIizQ3QTKwS2kXZURCxANYrsoDTX-GnJRR6jJxOtyrTa-QN7C681U45_hc9PH18IhDcxmp8yL2BnVFf8c_5DBhmzN0Y6Nu9lT0y5knWDuRvm_seko13qWxbtO21xuV315DAXLnPV5XDbchmgTliW2qI-vAkpm8Ddrs-m6NmgAJG_laq", "width": 408, "html_attributions": ["<a href=\"https://maps.google.com/maps/contrib/117720908734065879876\">Asif Ansari</a>"], "height": 306}], "scope": "GOOGLE", "business_status": "OPERATIONAL", "types": ["atm", "bank", "finance", "point_of_interest", "establishment"], "icon": "https://maps.gstatic.com/mapfiles/place_api/icons/v1/png_71/atm-71.png"}, {"rating": 3.3, "user_ratings_total": 8, "name": "Jamia Co-operative Bank And Atm", "reference": "ChIJTx52gY7jDDkRQ4PBJwyhXFM", "geometry": {"location": {"lat": 28.5662588, "lng": 77.2782111}, "viewport": {"northeast": {"lat": 28.5675818802915, "lng": 77.2795182302915}, "southwest": {"lat": 28.5648839197085, "lng": 77.2768202697085}}}, "place_id": "ChIJTx52gY7jDDkRQ4PBJwyhXFM", "plus_code": {"global_code": "7JWVH78H+G7", "compound_code": "H78H+G7 New Delhi, Delhi, India"}, "vicinity": "NFC,, 59-B, Ashoka Park Road, Jogabai Extension, Okhla, New Delhi", "scope": "GOOGLE", "business_status": "OPERATIONAL", "types": ["bank", "finance", "point_of_interest", "establishment"], "icon": "https://maps.gstatic.com/mapfiles/place_api/icons/v1/png_71/bank-71.png"}, {"rating": 3.6, "user_ratings_total": 10, "name": "State Bank of India", "reference": "ChIJL5bUT4njDDkRHbrOJqLV5g8", "geometry": {"location": {"lat": 28.567083, "lng": 77.2812867}, "viewport": {"northeast": {"lat": 28.5684404802915, "lng": 77.28261263029151}, "southwest": {"lat": 28.56574251970849, "lng": 77.2799146697085}}}, "opening_hours": {"open_now": true}, "place_id": "ChIJL5bUT4njDDkRHbrOJqLV5g8", "plus_code": {"global_code": "7JWVH78J+RG", "compound_code": "H78J+RG New Delhi, Delhi, India"}, "vicinity": "near JAMIA CO-OPERATIVE BANK, JOGA BAI, JAMIA NAGAR,OKHLA, near JAMIA CO-OPERATIVE BANK, New Delhi", "scope": "GOOGLE", "business_status": "OPERATIONAL", "types": ["bank", "finance", "point_of_interest", "establishment"], "icon": "https://maps.gstatic.com/mapfiles/place_api/icons/v1/png_71/bank-71.png"}, {"name": "HDFC Bank ATM", "reference": "ChIJJwAAlI_jDDkRgqrOVR-q-bo", "geometry": {"location": {"lat": 28.5665077, "lng": 77.2816332}, "viewport": {"northeast": {"lat": 28.5678740302915, "lng": 77.28299153029151}, "southwest": {"lat": 28.5651760697085, "lng": 77.2802935697085}}}, "opening_hours": {"open_now": true}, "place_id": "ChIJJwAAlI_jDDkRgqrOVR-q-bo", "plus_code": {"global_code": "7JWVH78J+JM", "compound_code": "H78J+JM New Delhi, Delhi, India"}, "vicinity": "H 119, Street Number 20, Okhla, New Delhi", "scope": "GOOGLE", "business_status": "OPERATIONAL", "types": ["atm", "bank", "finance", "point_of_interest", "establishment"], "icon": "https://maps.gstatic.com/mapfiles/place_api/icons/v1/png_71/atm-71.png"}, {"rating": 2.6, "user_ratings_total": 11, "name": "Bank of India", "reference": "ChIJ33g-1HfkDDkRyPtvNQzVwkA", "geometry": {"location": {"lat": 28.5700181, "lng": 77.2867622}, "viewport": {"northeast": {"lat": 28.5713368802915, "lng": 77.2880943302915}, "southwest": {"lat": 28.5686389197085, "lng": 77.2853963697085}}}, "opening_hours": {"open_now": false}, "place_id": "ChIJ33g-1HfkDDkRyPtvNQzVwkA", "plus_code": {"global_code": "7JWVH7CP+2P", "compound_code": "H7CP+2P New Delhi, Delhi, India"}, "vicinity": "Administrative Block Complex I, Phase I,New Okhla Ind.Estate, Okhala, New Delhi", "scope": "GOOGLE", "business_status": "OPERATIONAL", "types": ["bank", "finance", "point_of_interest", "establishment"], "icon": "https://maps.gstatic.com/mapfiles/place_api/icons/v1/png_71/bank-71.png"}, {"rating": 4.2, "user_ratings_total": 45, "name": "J&K Bank", "reference": "ChIJdaJ3PYrjDDkRJeEAIlqIhXY", "geometry": {"location": {"lat": 28.5657523, "lng": 77.28502639999999}, "viewport": {"northeast": {"lat": 28.5670779802915, "lng": 77.2863479802915}, "southwest": {"lat": 28.5643800197085, "lng": 77.28365001970847}}}, "opening_hours": {"open_now": false}, "place_id": "ChIJdaJ3PYrjDDkRJeEAIlqIhXY", "plus_code": {"global_code": "7JWVH78P+82", "compound_code": "H78P+82 New Delhi, Delhi, India"}, "vicinity": "Zakir Nagar Main Road, Batla House, Jamia Nagar, Okhla, New Delhi", "photos": [{"photo_reference": "ATtYBwKo9NbX85WqJ2yZMPGomdUkvBsEa8eNP1wT0-Ju6I11VM0E0jiqtZhbg8NkH626mhO97uuCGkcVZoAkoEKYQpbD8oSqgK36McSTM0wehsTBPAUnHO03sY25QbNVKlu31RiLyPHXgREdHJpNs4XeIyEn2NzeM5dCZa78yUi7cxlwzJtD", "width": 4160, "html_attributions": ["<a href=\"https://maps.google.com/maps/contrib/105989103845690029336\">Obaidur Rahman</a>"], "height": 3120}], "scope": "GOOGLE", "business_status": "OPERATIONAL", "types": ["bank", "atm", "finance", "point_of_interest", "establishment"], "icon": "https://maps.gstatic.com/mapfiles/place_api/icons/v1/png_71/bank-71.png"}, {"rating": 5, "user_ratings_total": 1, "name": "Axis Bank ATM", "reference": "ChIJcbHIHorjDDkRdSF1jHjDkcA", "geometry": {"location": {"lat": 28.5659043, "lng": 77.2869039}, "viewport": {"northeast": {"lat": 28.5672419302915, "lng": 77.2882479302915}, "southwest": {"lat": 28.5645439697085, "lng": 77.2855499697085}}}, "opening_hours": {"open_now": true}, "place_id": "ChIJcbHIHorjDDkRdSF1jHjDkcA", "plus_code": {"global_code": "7JWVH78P+9Q", "compound_code": "H78P+9Q New Delhi, Delhi, India"}, "vicinity": "Shop No, E19, Batla House, Jamia Nagar, Okhla, New Delhi", "scope": "GOOGLE", "business_status": "OPERATIONAL", "types": ["atm", "bank", "finance", "point_of_interest", "establishment"], "icon": "https://maps.gstatic.com/mapfiles/place_api/icons/v1/png_71/atm-71.png"}, {"rating": 4.7, "user_ratings_total": 3, "name": "Axis Bank ATM", "reference": "ChIJh-6PznXkDDkR_hpBgqNeqj0", "geometry": {"location": {"lat": 28.5662467, "lng": 77.2888686}, "viewport": {"northeast": {"lat": 28.5676129802915, "lng": 77.29024728029151}, "southwest": {"lat": 28.5649150197085, "lng": 77.28754931970849}}}, "opening_hours": {"open_now": true}, "place_id": "ChIJh-6PznXkDDkR_hpBgqNeqj0", "plus_code": {"global_code": "7JWVH78Q+FG", "compound_code": "H78Q+FG New Delhi, Delhi, India"}, "vicinity": "opposite Khaliullahe Masjid, No J2/A, opposite Khaliullahe Masjid, Batla House, Jamia Nagar, New Delhi", "photos": [{"photo_reference": "ATtYBwJtL1hmvS4PcM9y-Z6-F2-g8D1VeYF_Vf_a141qLabVe9zM9zNOTV3WbOpXj_MPwMVCkHJKjBjISVkEIgbMYSkeX3k0SpmR0XaeD7vsy_Yd3-UkQV-AjbWc2WgM-9QCwr_uQ5oqQQJI-kUsUrpQ2BdU695L8O0It4Zn7jTpw0gRHeiV", "width": 3120, "html_attributions": ["<a href=\"https://maps.google.com/maps/contrib/107995641406968379717\">Muhammad Adil</a>"], "height": 4160}], "scope": "GOOGLE", "business_status": "OPERATIONAL", "types": ["atm", "bank", "finance", "point_of_interest", "establishment"], "icon": "https://maps.gstatic.com/mapfiles/place_api/icons/v1/png_71/atm-71.png"}, {"rating": 3.5, "user_ratings_total": 39, "name": "Indian Bank", "reference": "ChIJSWgfuozjDDkRp7cGXoocBp4", "geometry": {"location": {"lat": 28.5612444, "lng": 77.2797253}, "viewport": {"northeast": {"lat": 28.5625096802915, "lng": 77.2810750802915}, "southwest": {"lat": 28.5598117197085, "lng": 77.2783771197085}}}, "opening_hours": {"open_now": false}, "place_id": "ChIJSWgfuozjDDkRp7cGXoocBp4", "plus_code": {"global_code": "7JWVH76H+FV", "compound_code": "H76H+FV New Delhi, Delhi, India"}, "vicinity": "Okhla, New Delhi", "photos": [{"photo_reference": "ATtYBwK15GXMT7qVb2z6Nr1bLrBSb44CVPx_iD97E2O8FNrIpgGQZDDt2DTUd-rTcd2D3_aCTfXuTivRlkJsi3aBjl-YXrpT9Go763QunfLFZgyAoTcQTuILEb3Y068x0pxML9GAvvhQIAiIsNhmRySfnNWwBEHC0H2wGtWsqTyenq_DcL9q", "width": 4160, "html_attributions": ["<a href=\"https://maps.google.com/maps/contrib/111170530998952691490\">Doraemon 2676</a>"], "height": 3120}], "scope": "GOOGLE", "business_status": "OPERATIONAL", "types": ["bank", "finance", "point_of_interest", "establishment"], "icon": "https://maps.gstatic.com/mapfiles/place_api/icons/v1/png_71/bank-71.png"}, {"rating": 1, "user_ratings_total": 2, "name": "Axis Bank ATM", "reference": "ChIJF_eaYxYFDTkRwf-VMzrohcc", "geometry": {"location": {"lat": 28.562134, "lng": 77.28569329999999}, "viewport": {"northeast": {"lat": 28.5634775802915, "lng": 77.2870461802915}, "southwest": {"lat": 28.5607796197085, "lng": 77.28434821970849}}}, "opening_hours": {"open_now": true}, "place_id": "ChIJF_eaYxYFDTkRwf-VMzrohcc", "plus_code": {"global_code": "7JWVH76P+V7", "compound_code": "H76P+V7 New Delhi, Delhi, India"}, "vicinity": "near Balaji Fashion Studio, Plot No 47 New Friends Colony, near Balaji Fashion Studio, Okhla, New Delhi", "scope": "GOOGLE", "business_status": "OPERATIONAL", "types": ["atm", "bank", "finance", "point_of_interest", "establishment"], "icon": "https://maps.gstatic.com/mapfiles/place_api/icons/v1/png_71/atm-71.png"}, {"rating": 2, "user_ratings_total": 2, "name": "Nma", "reference": "ChIJ7RT2OY3jDDkRBKxpi7qZli4", "geometry": {"location": {"lat": 28.5609628, "lng": 77.27678689999999}, "viewport": {"northeast": {"lat": 28.5623047802915, "lng": 77.2781360302915}, "southwest": {"lat": 28.5596068197085, "lng": 77.2754380697085}}}, "place_id": "ChIJ7RT2OY3jDDkRBKxpi7qZli4", "plus_code": {"global_code": "7JWVH76G+9P", "compound_code": "H76G+9P New Delhi, Delhi, India"}, "vicinity": "MMA Road, New Friends Colony, New Delhi", "scope": "GOOGLE", "business_status": "OPERATIONAL", "types": ["bank", "finance", "point_of_interest", "establishment"], "icon": "https://maps.gstatic.com/mapfiles/place_api/icons/v1/png_71/bank-71.png"}, {"rating": 3.1, "user_ratings_total": 9, "name": "Indian Overseas Bank", "reference": "ChIJayrwx5PjDDkRYLxenL-knU0", "geometry": {"location": {"lat": 28.5638113, "lng": 77.27148009999999}, "viewport": {"northeast": {"lat": 28.5651234302915, "lng": 77.27275558029149}, "southwest": {"lat": 28.56242546970849, "lng": 77.27005761970848}}}, "opening_hours": {"open_now": false}, "place_id": "ChIJayrwx5PjDDkRYLxenL-knU0", "plus_code": {"global_code": "7JWVH77C+GH", "compound_code": "H77C+GH New Delhi, Delhi, India"}, "vicinity": "near Bansal Hospital, A-2, near Bansal Hospital, CV Raman Marg, New Friends Colony, New Delhi", "photos": [{"photo_reference": "ATtYBwIsiGiMOvg3rBbEYJe9nkkxfu1mL24gU92-w56pS9arVk7eBlFGL87pfVXnPtfyjMsmZ9vOyh5aGAV8AsKa6eBZneeTTc3iPF4pLcu8vYk2WOfzYz9cn5-OkppP5e7AqsQ5vsmBXzlLxYD6TgkPjjWOrrJXZSottV-cizwZ6KomjKUX", "width": 1536, "html_attributions": ["<a href=\"https://maps.google.com/maps/contrib/112754760137382704445\">TOFIQUE KHAN VLOG</a>"], "height": 2048}], "scope": "GOOGLE", "business_status": "OPERATIONAL", "types": ["bank", "finance", "point_of_interest", "establishment"], "icon": "https://maps.gstatic.com/mapfiles/place_api/icons/v1/png_71/bank-71.png"}, {"rating": 3, "user_ratings_total": 3, "name": "HDFC Bank ATM", "reference": "ChIJjxOI_5njDDkRPHpum68megM", "geometry": {"location": {"lat": 28.571705, "lng": 77.268411}, "viewport": {"northeast": {"lat": 28.5729875802915, "lng": 77.2697905802915}, "southwest": {"lat": 28.5702896197085, "lng": 77.26709261970849}}}, "opening_hours": {"open_now": true}, "place_id": "ChIJjxOI_5njDDkRPHpum68megM", "plus_code": {"global_code": "7JWVH7C9+M9", "compound_code": "H7C9+M9 New Delhi, Delhi, India"}, "vicinity": "HDFC Bank ATM PN 108, Taimoor Nagar, Opposite, New Friends Colony, New Delhi", "photos": [{"photo_reference": "ATtYBwLHmuxYP_8-dfngvOC8x7VCLzttpYkjCoipAM5ObhoBrrfBHeVZexo8ixnXmjSo9bYhNClWZlRlFRpGA4yfqyg7e4n0SKypCrQnoZywoT2vOwSfH_85XxChza1hCeVVgjLzzooabB46E4hQLhF91ZORrvXB2nVILnTikIyinmtN-D8Q", "width": 300, "html_attributions": ["<a href=\"https://maps.google.com/maps/contrib/113713804426350226897\">HDFC Bank ATM</a>"], "height": 300}], "scope": "GOOGLE", "business_status": "OPERATIONAL", "types": ["atm", "bank", "finance", "point_of_interest", "establishment"], "icon": "https://maps.gstatic.com/mapfiles/place_api/icons/v1/png_71/atm-71.png"}, {"rating": 3.3, "user_ratings_total": 11, "name": "HDFC Bank", "reference": "ChIJjaKerJjjDDkRao5p4Z5Nhfk", "geometry": {"location": {"lat": 28.571705, "lng": 77.268411}, "viewport": {"northeast": {"lat": 28.5729875802915, "lng": 77.2697905802915}, "southwest": {"lat": 28.5702896197085, "lng": 77.26709261970849}}}, "opening_hours": {"open_now": false}, "place_id": "ChIJjaKerJjjDDkRao5p4Z5Nhfk", "plus_code": {"global_code": "7JWVH7C9+M9", "compound_code": "H7C9+M9 New Delhi, Delhi, India"}, "vicinity": "7B/3 Taimoor Nagar, Maharani Bagh, New Delhi", "photos": [{"photo_reference": "ATtYBwK2MZlv67c77K3G9_5psvbk5CMCAvrswbW1yLrZCLwA1mJUmSBNDj9K_-JeHCb0Dkggg5I0yr10Ov5mogZYJrWh5oMTmFxJPINNHnjWl5nC-lrA8rs4NeYY6zqLmhUO2RINeehyRm5ti36R4sYhsJ2QmhOt7i14a6C4XY2ub5F3U33u", "width": 1000, "html_attributions": ["<a href=\"https://maps.google.com/maps/contrib/112128228456813529875\">HDFC Bank</a>"], "height": 563}], "scope": "GOOGLE", "business_status": "OPERATIONAL", "types": ["bank", "finance", "point_of_interest", "establishment"], "icon": "https://maps.gstatic.com/mapfiles/place_api/icons/v1/png_71/bank-71.png"}, {"rating": 5, "user_ratings_total": 11, "name": "BANKING SERVICES", "reference": "ChIJu6xrB5PjDDkRpy9pjS6nTRg", "geometry": {"location": {"lat": 28.562585, "lng": 77.27176}, "viewport": {"northeast": {"lat": 28.5638761802915, "lng": 77.2731421302915}, "southwest": {"lat": 28.56117821970849, "lng": 77.2704441697085}}}, "opening_hours": {"open_now": false}, "place_id": "ChIJu6xrB5PjDDkRpy9pjS6nTRg", "plus_code": {"global_code": "7JWVH77C+2P", "compound_code": "H77C+2P New Delhi, Delhi, India"}, "vicinity": "D-823, New Friends Colony, South Delhi., New Delhi", "photos": [{"photo_reference": "ATtYBwLJTDBJHYa1TP82zrK4CjZNYUAQm6UQim1SrWMdfqOSyZl5NSv5OPKVr2oQUtvOUzZbWhzLngwezhQSPuYZGpjWFs5fMY8-JEiSh0xwxs0zSB_qRO1hl1YGTEo3P7UUbWWAdtUj9vM9eu1ttFda7ifXncluBJ3JatzyMTdkiuvUIuBw", "width": 536, "html_attributions": ["<a href=\"https://maps.google.com/maps/contrib/113144912607778189729\">BANKING SERVICES</a>"], "height": 274}], "scope": "GOOGLE", "business_status": "OPERATIONAL", "types": ["bank", "finance", "point_of_interest", "establishment"], "icon": "https://maps.gstatic.com/mapfiles/place_api/icons/v1/png_71/bank-71.png"}, {"rating": 5, "user_ratings_total": 1, "name": "HDFC Bank ATM", "reference": "ChIJBRUqwJbjDDkRhN1ocpw0_uo", "geometry": {"location": {"lat": 28.5666, "lng": 77.26783}, "viewport": {"northeast": {"lat": 28.5679656802915, "lng": 77.2691638302915}, "southwest": {"lat": 28.56526771970849, "lng": 77.2664658697085}}}, "opening_hours": {"open_now": true}, "place_id": "ChIJBRUqwJbjDDkRhN1ocpw0_uo", "plus_code": {"global_code": "7JWVH789+J4", "compound_code": "H789+J4 New Delhi, Delhi, India"}, "vicinity": "D 965, Gr Flr, New Friends Colony, New Delhi", "photos": [{"photo_reference": "ATtYBwLGyZRHS3hwMeTRm9wxmJsT3SrbXtVD44r4QabGA2Nuwdhbz_NpNu8DCwbBIb2T4aGtFS8guoyDJ7GSJxYzav0B3yGAfNze5QrjdbGiK3SaOMoRcBzBalxVkKdccjPuS9zhMWJRSu9q0fqYT_2ORBcJ8qLoQuzzBmZTO6xs6fZVbRkU", "width": 300, "html_attributions": ["<a href=\"https://maps.google.com/maps/contrib/102817568835684088922\">HDFC Bank ATM</a>"], "height": 300}], "scope": "GOOGLE", "business_status": "OPERATIONAL", "types": ["atm", "bank", "finance", "point_of_interest", "establishment"], "icon": "https://maps.gstatic.com/mapfiles/place_api/icons/v1/png_71/atm-71.png"}, {"rating": 3.2, "user_ratings_total": 19, "name": "State Bank of India", "reference": "ChIJA5uVe5fjDDkRnjDYx3UJEFM", "geometry": {"location": {"lat": 28.5702692, "lng": 77.2668393}, "viewport": {"northeast": {"lat": 28.5715873802915, "lng": 77.2682115802915}, "southwest": {"lat": 28.5688894197085, "lng": 77.2655136197085}}}, "opening_hours": {"open_now": false}, "place_id": "ChIJA5uVe5fjDDkRnjDYx3UJEFM", "plus_code": {"global_code": "7JWVH7C8+4P", "compound_code": "H7C8+4P New Delhi, Delhi, India"}, "vicinity": "7-B, CV Raman Marg, Block D, Friends Colony East, New Friends Colony, New Delhi", "photos": [{"photo_reference": "ATtYBwI_v0Ejj27Y1Axgcs40DwEALOFqSIPgHT-yZ4CZbPE19WlWwbs-igQKijjInh4BNWLPpTZIx73yZiK5W4boqDec7EDhJ8dESy9F1bp1dFzV6yFrO6P0EgVR7HYdAN0JIWUsf_F8G8UogL3rHSMp8LVc-e0YDga0NWWVPpI5T14Ky0Yq", "width": 4160, "html_attributions": ["<a href=\"https://maps.google.com/maps/contrib/103740159060313675288\">Mohit Dock</a>"], "height": 3120}], "scope": "GOOGLE", "business_status": "OPERATIONAL", "types": ["bank", "finance", "point_of_interest", "establishment"], "icon": "https://maps.gstatic.com/mapfiles/place_api/icons/v1/png_71/bank-71.png"}, {"rating": 4, "user_ratings_total": 26, "name": "Union Bank of India", "reference": "ChIJ8-Zp23TkDDkRrYa4iT4JH88", "geometry": {"location": {"lat": 28.562447, "lng": 77.289987}, "viewport": {"northeast": {"lat": 28.5638242802915, "lng": 77.2913331302915}, "southwest": {"lat": 28.5611263197085, "lng": 77.2886351697085}}}, "opening_hours": {"open_now": false}, "place_id": "ChIJ8-Zp23TkDDkRrYa4iT4JH88", "plus_code": {"global_code": "7JWVH76Q+XX", "compound_code": "H76Q+XX New Delhi, Delhi, India"}, "vicinity": "Ground Floor, Z-326/3, Jamia Nagar, Okhla, New Delhi", "photos": [{"photo_reference": "ATtYBwLUelc_6Uaye40DDnsZPumolREAIO7zUqJT0tcP01KvdGqrO8KXZ7amdZ0aRQNL6VdSske-NYPa1fuQ273YqtMDxaXVH6w-ZPZLB36rd94LqPE56lAgGc-E7BogOK0rRbCBoel6_O1PrPzjJbGB_sjlXLW9PJjXcd5vbop5FnP9JMtP", "width": 1080, "html_attributions": ["<a href=\"https://maps.google.com/maps/contrib/113715341780716470950\">Faraz Anwar Official</a>"], "height": 1920}], "scope": "GOOGLE", "business_status": "OPERATIONAL", "types": ["bank", "finance", "point_of_interest", "establishment"], "icon": "https://maps.gstatic.com/mapfiles/place_api/icons/v1/png_71/bank-71.png"}]}