{"status": "OK", "html_attributions": [], "results": [{"name": "Axis Bank ATM", "reference": "ChIJITh0USjO4DsRa0mlnKnuJNE", "geometry": {"location": {"lat": 28.7702291, "lng": 77.279324}, "viewport": {"northeast": {"lat": 28.77154568029149, "lng": 77.28068028029152}, "southwest": {"lat": 28.7688477197085, "lng": 77.2779823197085}}}, "opening_hours": {"open_now": true}, "place_id": "ChIJITh0USjO4DsRa0mlnKnuJNE", "plus_code": {"global_code": "7JWVQ7CH+3P", "compound_code": "Q7CH+3P Ghaziabad, Uttar Pradesh, India"}, "vicinity": "Khasra No, 111, Som Bazar Road, Loni, Ghaziabad", "scope": "GOOGLE", "business_status": "OPERATIONAL", "types": ["atm", "bank", "finance", "point_of_interest", "establishment"], "icon": "https://maps.gstatic.com/mapfiles/place_api/icons/v1/png_71/atm-71.png"}, {"rating": 5, "user_ratings_total": 1, "name": "Axis Bank ATM", "reference": "ChIJufYZZHr_DDkRWcJ3bxumCxE", "geometry": {"location": {"lat": 28.76723, "lng": 77.28026}, "viewport": {"northeast": {"lat": 28.7685964802915, "lng": 77.2815965802915}, "southwest": {"lat": 28.76589851970851, "lng": 77.2788986197085}}}, "opening_hours": {"open_now": true}, "place_id": "ChIJufYZZHr_DDkRWcJ3bxumCxE", "plus_code": {"global_code": "7JWVQ78J+V4", "compound_code": "Q78J+V4 Ghaziabad, Uttar Pradesh, India"}, "vicinity": "Shop No 3 Pusta, Khora Colony, Ghaziabad", "scope": "GOOGLE", "business_status": "OPERATIONAL", "types": ["atm", "bank", "finance", "point_of_interest", "establishment"], "icon": "https://maps.gstatic.com/mapfiles/place_api/icons/v1/png_71/atm-71.png"}, {"rating": 5, "user_ratings_total": 1, "name": "Axis Bank ATM", "reference": "ChIJ3VW2wQv5DDkRos0jjLpZ7gA", "geometry": {"location": {"lat": 28.77336439999999, "lng": 77.28073119999999}, "viewport": {"northeast": {"lat": 28.7747834302915, "lng": 77.28206018029151}, "southwest": {"lat": 28.7720854697085, "lng": 77.27936221970849}}}, "opening_hours": {"open_now": true}, "place_id": "ChIJ3VW2wQv5DDkRos0jjLpZ7gA", "plus_code": {"global_code": "7JWVQ7FJ+87", "compound_code": "Q7FJ+87 Pavi Sadakpur, Uttar Pradesh, India"}, "vicinity": "No 660K, Pawi, Pavi Sadakpur", "scope": "GOOGLE", "business_status": "OPERATIONAL", "types": ["atm", "bank", "finance", "point_of_interest", "establishment"], "icon": "https://maps.gstatic.com/mapfiles/place_api/icons/v1/png_71/atm-71.png"}, {"rating": 2, "user_ratings_total": 2, "name": "OLA CAB PAYMENT CENTER", "reference": "ChIJCxzXli7_DDkRBt8H2BG2-T8", "geometry": {"location": {"lat": 28.77438360000001, "lng": 77.27982940000001}, "viewport": {"northeast": {"lat": 28.7757209802915, "lng": 77.28117903029151}, "southwest": {"lat": 28.7730230197085, "lng": 77.27848106970849}}}, "place_id": "ChIJCxzXli7_DDkRBt8H2BG2-T8", "plus_code": {"global_code": "7JWVQ7FH+QW", "compound_code": "Q7FH+QW Pavi Sadakpur, Uttar Pradesh, India"}, "vicinity": "OPP, GHODE WALA GATE, Pavi Sadakpur", "scope": "GOOGLE", "business_status": "OPERATIONAL", "types": ["bank", "finance", "point_of_interest", "establishment"], "icon": "https://maps.gstatic.com/mapfiles/place_api/icons/v1/png_71/bank-71.png"}, {"name": "Axis Bank ATM", "reference": "ChIJuz1YEzr_DDkRyedYqzTCIxQ", "geometry": {"location": {"lat": 28.7646, "lng": 77.27946}, "viewport": {"northeast": {"lat": 28.7659494302915, "lng": 77.28081133029151}, "southwest": {"lat": 28.7632514697085, "lng": 77.27811336970849}}}, "opening_hours": {"open_now": true}, "place_id": "ChIJuz1YEzr_DDkRyedYqzTCIxQ", "plus_code": {"global_code": "7JWVQ77H+RQ", "compound_code": "Q77H+RQ Ghaziabad, Uttar Pradesh, India"}, "vicinity": "A 5, Radhey Shyam Park, Loni, Ghaziabad", "scope": "GOOGLE", "business_status": "OPERATIONAL", "types": ["atm", "bank", "finance", "point_of_interest", "establishment"], "icon": "https://maps.gstatic.com/mapfiles/place_api/icons/v1/png_71/atm-71.png"}, {"name": "Fino Payments Bank", "reference": "ChIJQb4NBKL_DDkRo1UQVn43RXA", "geometry": {"location": {"lat": 28.770165, "lng": 77.27318129999999}, "viewport": {"northeast": {"lat": 28.7715139802915, "lng": 77.2745302802915}, "southwest": {"lat": 28.7688160197085, "lng": 77.27183231970848}}}, "place_id": "ChIJQb4NBKL_DDkRo1UQVn43RXA", "plus_code": {"global_code": "7JWVQ7CF+37", "compound_code": "Q7CF+37 Ghaziabad, Uttar Pradesh, India"}, "vicinity": "Pooja Colony, Loni, Ghaziabad", "scope": "GOOGLE", "business_status": "OPERATIONAL", "types": ["bank", "finance", "insurance_agency", "point_of_interest", "establishment"], "icon": "https://maps.gstatic.com/mapfiles/place_api/icons/v1/png_71/bank-71.png"}, {"name": "Mohd Shahbaz", "reference": "ChIJOQxzQB7_DDkRhX6whr7ngAw", "geometry": {"location": {"lat": 28.7758716, "lng": 77.2833397}, "viewport": {"northeast": {"lat": 28.7772126802915, "lng": 77.2845319802915}, "southwest": {"lat": 28.7745147197085, "lng": 77.2818340197085}}}, "opening_hours": {"open_now": false}, "place_id": "ChIJOQxzQB7_DDkRhX6whr7ngAw", "plus_code": {"global_code": "7JWVQ7GM+88", "compound_code": "Q7GM+88 Ghaziabad, Uttar Pradesh, India"}, "vicinity": "HOUSE NUMBER 177 GALI NO 3 PAVI SADAKPUR, Loni, Ghaziabad", "photos": [{"photo_reference": "ATtYBwJjwF5rStv_g4d1_ldqaDGx1MFlE8ypZ4zDeWCwfuVd8G3FiEUgLwqttecumpZIhk0sRODVyS2EoWKXx7nypSEcCe1jDr49mnQDe_Q4XriZvWFp0s5Y2rGfeCHsLSLLlWB3-p-BSiOgLb1MLwaSG1cx6d0AHSNcB-Z8EQZVl6HyTn1U", "width": 1024, "html_attributions": ["<a href=\"https://maps.google.com/maps/contrib/105952831824575823159\">Mohd Shahbaz</a>"], "height": 1280}], "scope": "GOOGLE", "business_status": "OPERATIONAL", "types": ["bank", "finance", "point_of_interest", "establishment"], "icon": "https://maps.gstatic.com/mapfiles/place_api/icons/v1/png_71/bank-71.png"}, {"rating": 1, "user_ratings_total": 1, "name": "Axis Bank ATM", "reference": "ChIJe77IlQP_DDkRMZFKAW9kVWo", "geometry": {"location": {"lat": 28.75833, "lng": 77.27906999999999}, "viewport": {"northeast": {"lat": 28.7596972302915, "lng": 77.2804144302915}, "southwest": {"lat": 28.7569992697085, "lng": 77.2777164697085}}}, "opening_hours": {"open_now": true}, "place_id": "ChIJe77IlQP_DDkRMZFKAW9kVWo", "plus_code": {"global_code": "7JWVQ75H+8J", "compound_code": "Q75H+8J Ghaziabad, Uttar Pradesh, India"}, "vicinity": "House No 137, Loni, Ghaziabad", "scope": "GOOGLE", "business_status": "OPERATIONAL", "types": ["atm", "bank", "finance", "point_of_interest", "establishment"], "icon": "https://maps.gstatic.com/mapfiles/place_api/icons/v1/png_71/atm-71.png"}]}