{"status": "OK", "html_attributions": [], "results": [{"permanently_closed": true, "name": "Madarsa Tajveedul Quraan Otoon", "reference": "ChIJ7dZjbRs5DTkRiBZrG6pOfeQ", "geometry": {"location": {"lat": 28.2495989, "lng": 76.8780092}, "viewport": {"northeast": {"lat": 28.2511785802915, "lng": 76.8793766302915}, "southwest": {"lat": 28.24848061970849, "lng": 76.8766786697085}}}, "place_id": "ChIJ7dZjbRs5DTkRiBZrG6pOfeQ", "plus_code": {"global_code": "7JWR6VXH+R6", "compound_code": "6VXH+R6 Utoon, Haryana, India"}, "vicinity": "", "photos": [{"photo_reference": "CmRaAAAAPc1L41upD85mfczwEi1ia5x27nPPaFLsOUnSW84Zt9B5jsyD3bgFvhOeQ00cGpBUnxKf4Y82P5Vzqgu0mGa6FLMcd7OCmP1LYwJVeGJerFs70Q7vlZORgIb4br1FinZXEhCAzw8Gho3zdavMREZe4fkeGhQSVNj7CF38Way4eAhMItGpnj9kGA", "width": 3120, "html_attributions": ["<a href=\"https://maps.google.com/maps/contrib/111956299375354946160\">Juber Ahmed</a>"], "height": 4160}], "scope": "GOOGLE", "business_status": "CLOSED_TEMPORARILY", "types": ["school", "point_of_interest", "establishment"], "icon": "https://maps.gstatic.com/mapfiles/place_api/icons/v1/png_71/school-71.png"}, {"permanently_closed": true, "name": "Madarsa Tajveedul Quraan", "reference": "ChIJNV29Dew5DTkRWUN_sK0BzQ8", "geometry": {"location": {"lat": 28.2506474, "lng": 76.8777826}, "viewport": {"northeast": {"lat": 28.2519900302915, "lng": 76.87926423029151}, "southwest": {"lat": 28.2492920697085, "lng": 76.8765662697085}}}, "place_id": "ChIJNV29Dew5DTkRWUN_sK0BzQ8", "plus_code": {"global_code": "7JWR7V2H+74", "compound_code": "7V2H+74 Utoon, Haryana, India"}, "vicinity": "", "photos": [{"photo_reference": "CmRaAAAAxIyngXWi3NMGao6uJmZ2Asw6bMDnsaoGIS1YM6GYBt6S8hasSsrNT1qvhWhgZ3h8SA7NabBOQ0wCsq7sDCzvVEsZqISRyalLx1b27EaVp81w-f1JM6_CTdNOcnqtlfMrEhC_OC4d3SpYcRyWdDbvptQbGhQ_bxokjW_hRWc1nAbAflYYEuJDCA", "width": 3120, "html_attributions": ["<a href=\"https://maps.google.com/maps/contrib/111956299375354946160\">Juber Ahmed</a>"], "height": 4160}], "scope": "GOOGLE", "business_status": "CLOSED_TEMPORARILY", "types": ["school", "point_of_interest", "establishment"], "icon": "https://maps.gstatic.com/mapfiles/place_api/icons/v1/png_71/school-71.png"}, {"permanently_closed": true, "name": "Dharambir joon", "reference": "ChIJkxQ7crw5DTkRZruHleybR54", "geometry": {"location": {"lat": 28.2573109, "lng": 76.89090360000002}, "viewport": {"northeast": {"lat": 28.2586219802915, "lng": 76.8926744302915}, "southwest": {"lat": 28.2559240197085, "lng": 76.8899764697085}}}, "place_id": "ChIJkxQ7crw5DTkRZruHleybR54", "plus_code": {"global_code": "7JWR7V4R+W9", "compound_code": "7V4R+W9 Pathradi, Haryana, India"}, "vicinity": "Haryana", "scope": "GOOGLE", "business_status": "CLOSED_TEMPORARILY", "types": ["school", "point_of_interest", "establishment"], "icon": "https://maps.gstatic.com/mapfiles/place_api/icons/v1/png_71/school-71.png"}]}