{"status": "OK", "next_page_token": "CqQCGAEAAAsyzaLCIbTspzZZduW2vTLa7DRfTr8QcilpopujCkEZduAS2fKLjBReEaiwNZhzz1XtWQb2UxDGH8zhYYOs5G1O3KlBZINj93_GZ2e_V3_657JCsK9n6_zs6vXGvqpKuLNPPY3bprDK8BIoq0ToF_Nd2FJoQA649rYxv6W0qGEA5mC6GehvuKLfggXWHqAszPfeOxI51RirtA4u97zDYlWfmNgxNZOekxmuhd5RolQUeubMA8RXuRSGEgEEJPhwvR53dHo87edBj2d3CJPuwfQe_YscYktFxeIEfDExcqbYQzUc0zvyNUNgI-5yzP-OKhmCASQRxAlHe9Iu7WCTs9cwZBpCXXbuMfHu6woPhh4VTuQOhY2Z2hg3akmy1wiOFBIQETPaiPsR3TrWPaVpOAHKBRoUYiHVbNdh8Mk6Shbvk_eKGXi8jZA", "html_attributions": [], "results": [{"rating": 4.5, "user_ratings_total": 2, "permanently_closed": true, "name": "F-Tec computer centre", "reference": "ChIJKykzDZMwDTkRibi8ZDZJyEs", "geometry": {"location": {"lat": 28.2095169, "lng": 76.94846559999999}, "viewport": {"northeast": {"lat": 28.2108745802915, "lng": 76.9498158802915}, "southwest": {"lat": 28.20817661970849, "lng": 76.94711791970849}}}, "place_id": "ChIJKykzDZMwDTkRibi8ZDZJyEs", "plus_code": {"global_code": "7JWR6W5X+R9", "compound_code": "6W5X+R9 Tauru, Haryana, India"}, "vicinity": "lakhpat chowk tauru", "scope": "GOOGLE", "business_status": "CLOSED_TEMPORARILY", "types": ["school", "point_of_interest", "establishment"], "icon": "https://maps.gstatic.com/mapfiles/place_api/icons/v1/png_71/school-71.png"}, {"rating": 4, "user_ratings_total": 4, "permanently_closed": true, "name": "Modern Academy Senior Secondary School", "reference": "ChIJremH3JMwDTkRqJDspk0cGSQ", "geometry": {"location": {"lat": 28.2125025, "lng": 76.948781}, "viewport": {"northeast": {"lat": 28.2140001802915, "lng": 76.95021628029151}, "southwest": {"lat": 28.2113022197085, "lng": 76.9475183197085}}}, "place_id": "ChIJremH3JMwDTkRqJDspk0cGSQ", "plus_code": {"global_code": "7JWR6W7X+2G", "compound_code": "6W7X+2G Bhiwadi, Rajasthan, India"}, "vicinity": "Ram Chowk, Bhiwadi", "photos": [{"photo_reference": "CmRaAAAAdgNcWTqDKi6qUArvcfHCsl7Y1L3pLNvw3N5pZql_R50YqdKMgjorTOAOmpYLQrXQ5pwbFNHqIGDWFcsXZTX0tuJq0VsA25b__OKt3hkb2Z4nlMjGgqXxgVzdsceSu4mgEhANKIGsZUlBL5jnsHeuWOJEGhR7l6jrQz5vsHis1NB_hbMVSwpORQ", "width": 2048, "html_attributions": ["<a href=\"https://maps.google.com/maps/contrib/107418185707447405961\">Modern Academy Senior Secondary School</a>"], "height": 1158}], "scope": "GOOGLE", "business_status": "CLOSED_TEMPORARILY", "types": ["school", "point_of_interest", "establishment"], "icon": "https://maps.gstatic.com/mapfiles/place_api/icons/v1/png_71/school-71.png"}, {"rating": 4.3, "user_ratings_total": 27, "permanently_closed": true, "name": "Swami Vivekanand Public School", "reference": "ChIJzQBdhpIwDTkRII7czKJ3Zoc", "geometry": {"location": {"lat": 28.2100414, "lng": 76.953788}, "viewport": {"northeast": {"lat": 28.21144393029151, "lng": 76.9550366802915}, "southwest": {"lat": 28.2087459697085, "lng": 76.9523387197085}}}, "place_id": "ChIJzQBdhpIwDTkRII7czKJ3Zoc", "plus_code": {"global_code": "7JWR6X63+2G", "compound_code": "6X63+2G Tauru, Haryana, India"}, "vicinity": "Tauru", "photos": [{"photo_reference": "CmRaAAAAxA34z8ZSu0ymJy6RCnkaRaxZv3wkr6Ow0cbehqqhDY-TYvLfRme125rt8a-SsmJAphj3Yuda0Zxg5YkfmYQt2n7J2PWl0R01j2o86Xa_UEAT-la41RqiNAGL0GRwOHO6EhD-a8J9z5e4o-fSqUOVPKI_GhR2cVfoewIbt7npJtnim7yh5fPqOg", "width": 1800, "html_attributions": ["<a href=\"https://maps.google.com/maps/contrib/113201805783600146472\">Sachin Malik</a>"], "height": 1200}], "scope": "GOOGLE", "business_status": "CLOSED_TEMPORARILY", "types": ["school", "point_of_interest", "establishment"], "icon": "https://maps.gstatic.com/mapfiles/place_api/icons/v1/png_71/school-71.png"}, {"rating": 3.8, "user_ratings_total": 9, "permanently_closed": true, "name": "G C Senior Secondary School", "reference": "ChIJn4kxI5owDTkR_vCSisBsR98", "geometry": {"location": {"lat": 28.220355, "lng": 76.94771899999999}, "viewport": {"northeast": {"lat": 28.2216294802915, "lng": 76.94889923029149}, "southwest": {"lat": 28.2189315197085, "lng": 76.94620126970848}}}, "place_id": "ChIJn4kxI5owDTkR_vCSisBsR98", "plus_code": {"global_code": "7JWR6WCX+43", "compound_code": "6WCX+43 Tauru, Haryana, India"}, "vicinity": "Ward No 3, Mewat, SH-28, Bilaspur Road, Tauru, Tauru", "photos": [{"photo_reference": "CmRaAAAAByhb3tj54emS_B8fi5EO-ikhjOSvAsbSwIfBWR1D_cZwa2fKjwwfqhuhh2KmA7Imyv17hjdHDbqygRzVCIseFItQ_FbfItdBzeqJwup7h5NW2sIkCW7siK95OTcl7-rPEhBHWKH88cjHHDkC10D7x3VRGhSOvsB8VBHj2JXD2BW-lO6eQ2nmkA", "width": 994, "html_attributions": ["<a href=\"https://maps.google.com/maps/contrib/112272450105908060682\">Hemant 99</a>"], "height": 680}], "scope": "GOOGLE", "business_status": "CLOSED_TEMPORARILY", "types": ["school", "point_of_interest", "establishment"], "icon": "https://maps.gstatic.com/mapfiles/place_api/icons/v1/png_71/school-71.png"}, {"rating": 5, "user_ratings_total": 1, "permanently_closed": true, "name": "Apna Bachpan Play School", "reference": "ChIJscFtzL8wDTkRe3fyevbbJys", "geometry": {"location": {"lat": 28.2090965, "lng": 76.9402308}, "viewport": {"northeast": {"lat": 28.2105230802915, "lng": 76.9415757302915}, "southwest": {"lat": 28.2078251197085, "lng": 76.9388777697085}}}, "place_id": "ChIJscFtzL8wDTkRe3fyevbbJys", "plus_code": {"global_code": "7JWR6W5R+J3", "compound_code": "6W5R+J3 Tauru, Haryana, India"}, "vicinity": "Tauru", "scope": "GOOGLE", "business_status": "CLOSED_TEMPORARILY", "types": ["school", "point_of_interest", "establishment"], "icon": "https://maps.gstatic.com/mapfiles/place_api/icons/v1/png_71/school-71.png"}, {"rating": 5, "user_ratings_total": 1, "permanently_closed": true, "name": "Spring Daisy Play School", "reference": "ChIJpRXLBr8wDTkRK4FTzYApwac", "geometry": {"location": {"lat": 28.2087795, "lng": 76.93812489999999}, "viewport": {"northeast": {"lat": 28.2103074802915, "lng": 76.9394647302915}, "southwest": {"lat": 28.20760951970849, "lng": 76.93676676970848}}}, "place_id": "ChIJpRXLBr8wDTkRK4FTzYApwac", "plus_code": {"global_code": "7JWR6W5Q+G6", "compound_code": "6W5Q+G6 Tauru, Haryana, India"}, "vicinity": "Tauru", "photos": [{"photo_reference": "CmRaAAAA06enbiWZf9RxhSMJFmRfcUojW9GQCEoTswU7HrNWevvvoHqdg7IfiZnpDLmGzBkuudwuaPLaNvDJ8FapjuqeXnuhrp5X8zrHBZzTtLPx0lLbvZyNDlowkLK3UDa_Ur37EhAlXekjHzLokhxYmJwh83dWGhSTijpjQIBrde0DTaoPPKyWG1_Veg", "width": 3000, "html_attributions": ["<a href=\"https://maps.google.com/maps/contrib/116580117288134586834\">Banti Kumar</a>"], "height": 4000}], "scope": "GOOGLE", "business_status": "CLOSED_TEMPORARILY", "types": ["school", "point_of_interest", "establishment"], "icon": "https://maps.gstatic.com/mapfiles/place_api/icons/v1/png_71/school-71.png"}, {"rating": 5, "user_ratings_total": 2, "permanently_closed": true, "name": "Slp Public School", "reference": "ChIJVyelP5IwDTkRtdbAJOtF8-U", "geometry": {"location": {"lat": 28.2112836, "lng": 76.9374248}, "viewport": {"northeast": {"lat": 28.2125599802915, "lng": 76.9385345802915}, "southwest": {"lat": 28.2098620197085, "lng": 76.9358366197085}}}, "place_id": "ChIJVyelP5IwDTkRtdbAJOtF8-U", "plus_code": {"global_code": "7JWR6W6P+GX", "compound_code": "6W6P+GX Tauru, Haryana, India"}, "vicinity": "radha nagar, Tauru", "photos": [{"photo_reference": "CmRaAAAA8Fe69guEOLmV2GPTqL_SEyG1htzfmtdYBGNHe46F5L2yufbAPvxVaA2kAB-ErNGRURxDqRLXfh7aEQxU8dNX2L0dBwWGS6-9Yze0SATWtaellcuRXYdZfYRS0XVZ5AvBEhAMIc6kZCBqRGXn8LpirMYrGhST3roTzqskfmUNoYFnDJm9QakrwQ", "width": 3264, "html_attributions": ["<a href=\"https://maps.google.com/maps/contrib/116148319625129075351\">Sumit Panchal ji</a>"], "height": 2448}], "scope": "GOOGLE", "business_status": "CLOSED_TEMPORARILY", "types": ["school", "point_of_interest", "establishment"], "icon": "https://maps.gstatic.com/mapfiles/place_api/icons/v1/png_71/school-71.png"}, {"permanently_closed": true, "name": "Grren Dale Public School", "reference": "ChIJH7ih95QwDTkRN0GreAditZc", "geometry": {"location": {"lat": 28.2096392, "lng": 76.94495719999999}, "viewport": {"northeast": {"lat": 28.2109788802915, "lng": 76.9463070802915}, "southwest": {"lat": 28.2082809197085, "lng": 76.94360911970848}}}, "place_id": "ChIJH7ih95QwDTkRN0GreAditZc", "plus_code": {"global_code": "7JWR6W5V+VX", "compound_code": "6W5V+VX Tauru, Haryana, India"}, "vicinity": "Tauru, Gurgaon, Haryana, Gurgaon", "scope": "GOOGLE", "business_status": "CLOSED_TEMPORARILY", "types": ["school", "point_of_interest", "establishment"], "icon": "https://maps.gstatic.com/mapfiles/place_api/icons/v1/png_71/school-71.png"}, {"rating": 4.4, "user_ratings_total": 31, "name": "Green Dales Public School", "reference": "ChIJKQb3ZJQwDTkRm7KJtEwzxms", "geometry": {"location": {"lat": 28.210445, "lng": 76.9456995}, "viewport": {"northeast": {"lat": 28.2114079802915, "lng": 76.94709618029151}, "southwest": {"lat": 28.2087100197085, "lng": 76.9443982197085}}}, "opening_hours": {"open_now": false}, "place_id": "ChIJKQb3ZJQwDTkRm7KJtEwzxms", "plus_code": {"global_code": "7JWR6W6W+57", "compound_code": "6W6W+57 Tauru, Haryana, India"}, "vicinity": "State Highway 28, Tauru", "photos": [{"photo_reference": "CmRaAAAANdGTFDG6o9jW_p777_E6WXZSyRhQOpy4FD5QJZf1apzsknDqj8atEcSTlwdjwnvBMkNYZ27OWk0aGDcU8rNljCrZK8Y5lluePpKbIjSb41SJB9GZin33PljhkJ2meQ6zEhBw3wFbTERihTLuVskA4GcsGhQiqGDNX-x5B4uh7hfRyNzziVkm2Q", "width": 3120, "html_attributions": ["<a href=\"https://maps.google.com/maps/contrib/116456317229016920924\">Abhishek Yadav</a>"], "height": 4160}], "scope": "GOOGLE", "business_status": "OPERATIONAL", "types": ["school", "point_of_interest", "establishment"], "icon": "https://maps.gstatic.com/mapfiles/place_api/icons/v1/png_71/school-71.png"}, {"permanently_closed": true, "name": "Bharat Singh Park", "reference": "ChIJtYWhF5QwDTkRp-tRJBT2DwY", "geometry": {"location": {"lat": 28.2119356, "lng": 76.94574089999999}, "viewport": {"northeast": {"lat": 28.2132844802915, "lng": 76.9470541302915}, "southwest": {"lat": 28.2105865197085, "lng": 76.94435616970848}}}, "place_id": "ChIJtYWhF5QwDTkRp-tRJBT2DwY", "plus_code": {"global_code": "7JWR6W6W+Q7", "compound_code": "6W6W+Q7 Tauru, Haryana, India"}, "vicinity": "Tauru", "photos": [{"photo_reference": "CmRaAAAATEsYMK-tOZ_IY4cuOTo9bGgUOY3ikddTyV7bK6ogbbd04KK8aayzireAcimen5w8Ep5rG_l8hWvLnU8eva9xVRFccKNcVw-XEQk2PbLSEE6Rqu3kK_-UboMB1LXmqrkWEhBlLO2-bx96b8qXRiPjm_2iGhQW-h9mhX4McSIbgW-sRCzMlqZbdg", "width": 2592, "html_attributions": ["<a href=\"https://maps.google.com/maps/contrib/103544374120190664590\">gaurav singh</a>"], "height": 1944}], "scope": "GOOGLE", "business_status": "CLOSED_TEMPORARILY", "types": ["school", "point_of_interest", "establishment"], "icon": "https://maps.gstatic.com/mapfiles/place_api/icons/v1/png_71/school-71.png"}, {"rating": 4.4, "user_ratings_total": 8, "permanently_closed": true, "name": "Hind High School", "reference": "ChIJT9KJC5QwDTkRCBQ-JYaRvA8", "geometry": {"location": {"lat": 28.2116421, "lng": 76.94666409999999}, "viewport": {"northeast": {"lat": 28.2128070802915, "lng": 76.94790288029151}, "southwest": {"lat": 28.2101091197085, "lng": 76.94520491970849}}}, "place_id": "ChIJT9KJC5QwDTkRCBQ-JYaRvA8", "plus_code": {"global_code": "7JWR6W6W+MM", "compound_code": "6W6W+MM Tauru, Haryana, India"}, "vicinity": "State Highway 28, Tauru", "photos": [{"photo_reference": "CmRaAAAA0VzdlZFoU4trlP6AXq_pNdWinDKuzSAgFVPgsaZTInfspzOGoETOraZro6ufHK9R99nGc8y2IYzOWWYWoAkT3Ae7iM8HHM7ED6ApCPqzuXxD4mnuymAQ-lv2DLZm1fXqEhCRqaAdpFeJ8OiGf1-Z01_fGhTq0LM4zBb43KzmuyUu-RwuI50SRw", "width": 1920, "html_attributions": ["<a href=\"https://maps.google.com/maps/contrib/113202116942768732313\">technical Soniji</a>"], "height": 1080}], "scope": "GOOGLE", "business_status": "CLOSED_TEMPORARILY", "types": ["school", "point_of_interest", "establishment"], "icon": "https://maps.gstatic.com/mapfiles/place_api/icons/v1/png_71/school-71.png"}, {"permanently_closed": true, "name": "Govt. Middle School , Didhara", "reference": "ChIJ5TyFP44xDTkRBYh1KF6S01Y", "geometry": {"location": {"lat": 28.208776, "lng": 76.9329818}, "viewport": {"northeast": {"lat": 28.21006203029151, "lng": 76.93433903029151}, "southwest": {"lat": 28.2073640697085, "lng": 76.93164106970849}}}, "place_id": "ChIJ5TyFP44xDTkRBYh1KF6S01Y", "plus_code": {"global_code": "7JWR6W5M+G5", "compound_code": "6W5M+G5 Nijampur Tauru, Haryana, India"}, "vicinity": "Nijampur Tauru", "scope": "GOOGLE", "business_status": "CLOSED_TEMPORARILY", "types": ["school", "point_of_interest", "establishment"], "icon": "https://maps.gstatic.com/mapfiles/place_api/icons/v1/png_71/school-71.png"}, {"permanently_closed": true, "name": "Vanshika Educational Institute", "reference": "ChIJr8xUiZMwDTkRfA4uf6TFKWA", "geometry": {"location": {"lat": 28.2111006, "lng": 76.94738190000001}, "viewport": {"northeast": {"lat": 28.2124505302915, "lng": 76.9487271802915}, "southwest": {"lat": 28.2097525697085, "lng": 76.94602921970849}}}, "place_id": "ChIJr8xUiZMwDTkRfA4uf6TFKWA", "plus_code": {"global_code": "7JWR6W6W+CX", "compound_code": "6W6W+CX Tauru, Haryana, India"}, "vicinity": "jatwada, mohalla, Tauru", "scope": "GOOGLE", "business_status": "CLOSED_TEMPORARILY", "types": ["school", "point_of_interest", "establishment"], "icon": "https://maps.gstatic.com/mapfiles/place_api/icons/v1/png_71/school-71.png"}, {"permanently_closed": true, "name": "Vikash", "reference": "ChIJ1_4c3wIxDTkRReUVWIy7PUI", "geometry": {"location": {"lat": 28.2055492, "lng": 76.945683}, "viewport": {"northeast": {"lat": 28.2068363802915, "lng": 76.9470305802915}, "southwest": {"lat": 28.2041384197085, "lng": 76.94433261970849}}}, "place_id": "ChIJ1_4c3wIxDTkRReUVWIy7PUI", "plus_code": {"global_code": "7JWR6W4W+67", "compound_code": "6W4W+67 Tauru, Haryana, India"}, "vicinity": "Unnamed Road, Tauru", "scope": "GOOGLE", "business_status": "CLOSED_TEMPORARILY", "types": ["school", "point_of_interest", "establishment"], "icon": "https://maps.gstatic.com/mapfiles/place_api/icons/v1/png_71/school-71.png"}, {"permanently_closed": true, "name": "Government Girl School, Tauru", "reference": "ChIJ69Da7fMxDTkR34wiefxjbfY", "geometry": {"location": {"lat": 28.21338939999999, "lng": 76.94675149999999}, "viewport": {"northeast": {"lat": 28.2144685802915, "lng": 76.94799798029149}, "southwest": {"lat": 28.21177061970849, "lng": 76.94530001970848}}}, "place_id": "ChIJ69Da7fMxDTkR34wiefxjbfY", "plus_code": {"global_code": "7JWR6W7W+9P", "compound_code": "6W7W+9P Tauru, Haryana, India"}, "vicinity": "Tauru", "scope": "GOOGLE", "business_status": "CLOSED_TEMPORARILY", "types": ["school", "point_of_interest", "establishment"], "icon": "https://maps.gstatic.com/mapfiles/place_api/icons/v1/png_71/school-71.png"}, {"permanently_closed": true, "name": "G.D.Public School Tauru", "reference": "ChIJ___LppMwDTkRGTd1QdIWOZg", "geometry": {"location": {"lat": 28.210427, "lng": 76.94884499999999}, "viewport": {"northeast": {"lat": 28.2117476802915, "lng": 76.95022673029152}, "southwest": {"lat": 28.2090497197085, "lng": 76.9475287697085}}}, "place_id": "ChIJ___LppMwDTkRGTd1QdIWOZg", "plus_code": {"global_code": "7JWR6W6X+5G", "compound_code": "6W6X+5G Tauru, Haryana, India"}, "vicinity": "Ward No. 10, ward no 10, Tauru", "scope": "GOOGLE", "business_status": "CLOSED_TEMPORARILY", "types": ["school", "point_of_interest", "establishment"], "icon": "https://maps.gstatic.com/mapfiles/place_api/icons/v1/png_71/school-71.png"}, {"rating": 3.5, "user_ratings_total": 10, "permanently_closed": true, "name": "Sarvodaya sr. sec. school", "reference": "ChIJgbfeQLgwDTkRhQp1iGt5Lps", "geometry": {"location": {"lat": 28.2073415, "lng": 76.93133859999999}, "viewport": {"northeast": {"lat": 28.2086890302915, "lng": 76.93275553029149}, "southwest": {"lat": 28.2059910697085, "lng": 76.93005756970848}}}, "place_id": "ChIJgbfeQLgwDTkRhQp1iGt5Lps", "plus_code": {"global_code": "7JWR6W4J+WG", "compound_code": "6W4J+WG Didara, Haryana, India"}, "vicinity": "Didara", "scope": "GOOGLE", "business_status": "CLOSED_TEMPORARILY", "types": ["school", "point_of_interest", "establishment"], "icon": "https://maps.gstatic.com/mapfiles/place_api/icons/v1/png_71/school-71.png"}, {"rating": 3, "user_ratings_total": 2, "name": "Sarvodaya Sr. Sec. School Didara Tauru Haryana", "reference": "ChIJKxZsQLgwDTkR1xE75V00s4A", "geometry": {"location": {"lat": 28.2071515, "lng": 76.931238}, "viewport": {"northeast": {"lat": 28.2084980302915, "lng": 76.9327025802915}, "southwest": {"lat": 28.2058000697085, "lng": 76.9300046197085}}}, "place_id": "ChIJKxZsQLgwDTkR1xE75V00s4A", "plus_code": {"global_code": "7JWR6W4J+VF", "compound_code": "6W4J+VF Didara, Haryana, India"}, "vicinity": "Tauru Bypass Road, Didara", "photos": [{"photo_reference": "CmRaAAAAQRFQDfvlXKE7pqNE8M8g2K3wnsK3CipPwyASRJ7P6szXleFDprgjDWUg8X1M0HpyTgZOcmejm0y7xJXwDlA2UlIfVqoZA3xWZqAeUQ4FQmu73rEXg_trRAT034_nbrZ5EhAI0jWvWehSHXzFF9ypEDk8GhTLdV8HRGHwOR73lOcUXohDbs58wA", "width": 1458, "html_attributions": ["<a href=\"https://maps.google.com/maps/contrib/105497238699689410811\">Yunus Khan</a>"], "height": 2592}], "scope": "GOOGLE", "business_status": "OPERATIONAL", "types": ["school", "point_of_interest", "establishment"], "icon": "https://maps.gstatic.com/mapfiles/place_api/icons/v1/png_71/school-71.png"}, {"name": "Jalilpur shyampur", "reference": "ChIJy3kC1VUxDTkRsE1W6dPgz3E", "geometry": {"location": {"lat": 28.2084574, "lng": 76.9306821}, "viewport": {"northeast": {"lat": 28.2097730302915, "lng": 76.93203583029151}, "southwest": {"lat": 28.2070750697085, "lng": 76.9293378697085}}}, "place_id": "ChIJy3kC1VUxDTkRsE1W6dPgz3E", "plus_code": {"global_code": "7JWR6W5J+97", "compound_code": "6W5J+97 Chundhika, Haryana, India"}, "vicinity": "National Highway 919, Chundhika", "photos": [{"photo_reference": "CmRaAAAAmayIMvQcd93AEylmrsabRY3sPCk0Jld_qNVO8bnHXQBY8wYmSg8lfbnH_CK8AyI7-ZwDDBkIQakAZcZi1djc6ipCFJNqNLIYdCLnpJhACVVe1a8UCE4e0EYeVyaFuWEDEhCYDRBr70JbXAIxGDEoippHGhRF9SL-gG1LP4xFXWq_mowyGfFOWw", "width": 1800, "html_attributions": ["<a href=\"https://maps.google.com/maps/contrib/116750948728389442121\">chhotu rajput</a>"], "height": 4000}], "scope": "GOOGLE", "business_status": "OPERATIONAL", "types": ["school", "point_of_interest", "establishment"], "icon": "https://maps.gstatic.com/mapfiles/place_api/icons/v1/png_71/school-71.png"}, {"permanently_closed": true, "name": "Bhiwadi Modern Public School", "reference": "ChIJfcjv_ZIwDTkRRogR_UqrV88", "geometry": {"location": {"lat": 28.2098747, "lng": 76.94995279999999}, "viewport": {"northeast": {"lat": 28.2110371302915, "lng": 76.9513643802915}, "southwest": {"lat": 28.2083391697085, "lng": 76.94866641970847}}}, "place_id": "ChIJfcjv_ZIwDTkRRogR_UqrV88", "plus_code": {"global_code": "7JWR6W5X+WX", "compound_code": "6W5X+WX Tauru, Haryana, India"}, "vicinity": "Jaurasi - Atta Road, Tauru", "scope": "GOOGLE", "business_status": "CLOSED_TEMPORARILY", "types": ["school", "point_of_interest", "establishment"], "icon": "https://maps.gstatic.com/mapfiles/place_api/icons/v1/png_71/school-71.png"}]}