{"status": "OK", "next_page_token": "CsQDuAEAAMB1AtgZE0cB1T0cuAxzffuju2oOnL6HdrEkRnPHppXXJdOfiQc4jJTDP-wllYf_ifxgWhWtgBxMMJnKMhCpR2Z2oSd9XMuzqeai9szqOSIcsC4nV0pJJpZ_CMRGm4RQMPrl02T1fGAFzkaR2-eEjBHwvRTlrJAnj8J3ChGgjB-IvVqHkPkH9AKLk8vwgPyEC36cOKeNhgNkZhmH-_DPK3BiZVXGgbhb0yQk5DWSlz6anC3fsQ8XJ8SNziZKMoLgnx7VjG1RmdUUvlnhfiruQvfddWJWqe477FccagEmRDiAOIAdGlgmBHucEkbWDtz4e5y4gwHaRjPPJYaUpiZQU7S7dZ2ZObsfRMmGW7YhbFiiMuiyoDYwAfBa9XyT_Hc9b_jSRJYkNy291qmS2_QbZ7RqIVprFiCvENvejtGDk5faj9G_2rr6LCb7PQscLOpVkd3xEUK3YfseM5TLx1Ys8Nk_w_DObzZdMkYUxOZkkNwGw5mlNFJmIrTpQBE_G44MZ73xCnfL8zLzzzWJLv2OASLE1GleCA_wtnK2JXZ1gv1PEixM6TI6JhmvzqlQwr017dYG3Ltpc9xKWGiHKRbJHcoSEMSct8yqFVYI_Fd8eDG9WYEaFMFY2uHQ0TrrOF9N82zDNfQ3yjlw", "html_attributions": [], "results": [{"name": "Kidzee naharpur manesar", "reference": "ChIJ53UUakQ9DTkRx9Xrs8t0lTQ", "geometry": {"location": {"lat": 28.3773286, "lng": 76.93740369999999}, "viewport": {"northeast": {"lat": 28.3786624302915, "lng": 76.93864708029149}, "southwest": {"lat": 28.3759644697085, "lng": 76.93594911970848}}}, "place_id": "ChIJ53UUakQ9DTkRx9Xrs8t0lTQ", "plus_code": {"global_code": "7JWR9WGP+WX", "compound_code": "9WGP+WX Gurugram, Haryana, India"}, "vicinity": "Unnamed Road, Gurugram", "photos": [{"photo_reference": "CmRaAAAAiqM0OPk0IGsTIuZChZCSmAx6mubwWTHvwXwURwkWY8e9HOEx31H9NygwMvUBM3jfI8q8TRznQx3x6eM1cWyUIqmJdo5Rv6XiClriseFHi3pMBExnl5hldcD2UtjzN-n_EhBJdvZFB8xUB9fuQhjyzqKxGhSmRkuv4vxvLjQZG1FJL12qzAxGcw", "width": 4608, "html_attributions": ["<a href=\"https://maps.google.com/maps/contrib/106166200094619483160\">Devinder Singh</a>"], "height": 3456}], "scope": "GOOGLE", "business_status": "OPERATIONAL", "types": ["school", "point_of_interest", "establishment"], "icon": "https://maps.gstatic.com/mapfiles/place_api/icons/v1/png_71/school-71.png"}, {"rating": 5, "user_ratings_total": 4, "permanently_closed": true, "name": "Vector Academy", "reference": "ChIJT7M5sTk8DTkRT9pqztHcGSk", "geometry": {"location": {"lat": 28.36658, "lng": 76.948015}, "viewport": {"northeast": {"lat": 28.3679281802915, "lng": 76.94944643029152}, "southwest": {"lat": 28.3652302197085, "lng": 76.9467484697085}}}, "place_id": "ChIJT7M5sTk8DTkRT9pqztHcGSk", "plus_code": {"global_code": "7JWR9W8X+J6", "compound_code": "9W8X+J6 Gurugram, Haryana, India"}, "vicinity": "Near Ompee World School, Plot No. 78, Sector 1, Imt Manesar, Gurugram", "photos": [{"photo_reference": "CmRaAAAASjyEu9a_t9sn_e2H7DXu1RMpb5sMAbHNwd1qUn4vrWdh6vT8UhAGYnzBM8hg53WjE68WQtEykvKCHCWosCyzXvtq6XO_i8OeQ_-PIEALiRmKflO9f3kFQrOtG8BZJvIaEhDQs51FKjXdlTZYOUyN4vIqGhRTe2NSowOLF5ISrDUAxUugjghHUQ", "width": 1040, "html_attributions": ["<a href=\"https://maps.google.com/maps/contrib/113374889095659771766\">Vector Academy</a>"], "height": 650}], "scope": "GOOGLE", "business_status": "CLOSED_TEMPORARILY", "types": ["school", "point_of_interest", "establishment"], "icon": "https://maps.gstatic.com/mapfiles/place_api/icons/v1/png_71/school-71.png"}, {"rating": 4.1, "user_ratings_total": 33, "name": "Dronacharya Public School Naharpur", "reference": "ChIJM6ovqsg9DTkRoZu-R2YPa1k", "geometry": {"location": {"lat": 28.3779796, "lng": 76.9366132}, "viewport": {"northeast": {"lat": 28.3793445802915, "lng": 76.9379922802915}, "southwest": {"lat": 28.3766466197085, "lng": 76.93529431970848}}}, "opening_hours": {"open_now": true}, "place_id": "ChIJM6ovqsg9DTkRoZu-R2YPa1k", "plus_code": {"global_code": "7JWR9WHP+5J", "compound_code": "9WHP+5J Gurugram, Haryana, India"}, "vicinity": "Naharpur Kasan, Gurugram", "photos": [{"photo_reference": "CmRaAAAARBgLwZcvxTLGIQMzYXhDPD1OwWx4YVQ0U7TgSGnsmcYkNmavcFPf_Z2CxiNyGEp2z8psdJhLoC9egtRCEn53kY5iRvRuODSdQ7CBoJ9DywPRKU2fZvOUf9p_vZadb7yNEhDGoQMdirEKCb0crLKgdzgSGhRoClIQRIqspcHijCvbmBoJR3YWjQ", "width": 960, "html_attributions": ["<a href=\"https://maps.google.com/maps/contrib/113595450548912585355\">Deepak yadav</a>"], "height": 1280}], "scope": "GOOGLE", "business_status": "OPERATIONAL", "types": ["school", "point_of_interest", "establishment"], "icon": "https://maps.gstatic.com/mapfiles/place_api/icons/v1/png_71/school-71.png"}, {"rating": 5, "user_ratings_total": 7, "permanently_closed": true, "name": "IKIGAI, School of Excellence | Play School in Manesar", "reference": "ChIJVfOM8kw8DTkRDk8TP5WHZPI", "geometry": {"location": {"lat": 28.3657595, "lng": 76.94845699999999}, "viewport": {"northeast": {"lat": 28.3671732802915, "lng": 76.9498072802915}, "southwest": {"lat": 28.3644753197085, "lng": 76.94710931970849}}}, "place_id": "ChIJVfOM8kw8DTkRDk8TP5WHZPI", "plus_code": {"global_code": "7JWR9W8X+89", "compound_code": "9W8X+89 Imt Manesar, Gurugram, Haryana, India"}, "vicinity": "Plot No - 173, Sector - 1, Manesar, 122050, Imt Manesar", "scope": "GOOGLE", "business_status": "CLOSED_TEMPORARILY", "types": ["school", "point_of_interest", "establishment"], "icon": "https://maps.gstatic.com/mapfiles/place_api/icons/v1/png_71/school-71.png"}, {"name": "Abhishek Baitha", "reference": "ChIJLaTMb-Y9DTkR9siw7RZSczo", "geometry": {"location": {"lat": 28.3613921, "lng": 76.9405708}, "viewport": {"northeast": {"lat": 28.3627562802915, "lng": 76.94188843029151}, "southwest": {"lat": 28.3600583197085, "lng": 76.9391904697085}}}, "place_id": "ChIJLaTMb-Y9DTkR9siw7RZSczo", "plus_code": {"global_code": "7JWR9W6R+H6", "compound_code": "9W6R+H6 Gurugram, Haryana, India"}, "vicinity": "Azad Chowk, Gurugram", "scope": "GOOGLE", "business_status": "OPERATIONAL", "types": ["school", "point_of_interest", "establishment"], "icon": "https://maps.gstatic.com/mapfiles/place_api/icons/v1/png_71/school-71.png"}, {"permanently_closed": true, "name": "JANGID MENTION", "reference": "ChIJw26acG09DTkRdW7fFeIrQhE", "geometry": {"location": {"lat": 28.3773112, "lng": 76.9345116}, "viewport": {"northeast": {"lat": 28.3786637302915, "lng": 76.9358678302915}, "southwest": {"lat": 28.3759657697085, "lng": 76.9331698697085}}}, "place_id": "ChIJw26acG09DTkRdW7fFeIrQhE", "plus_code": {"global_code": "7JWR9WGM+WR", "compound_code": "9WGM+WR Gurugram, Haryana, India"}, "vicinity": "Unnamed Road, Imt Manesar, Gurugram", "scope": "GOOGLE", "business_status": "CLOSED_TEMPORARILY", "types": ["school", "point_of_interest", "establishment"], "icon": "https://maps.gstatic.com/mapfiles/place_api/icons/v1/png_71/school-71.png"}, {"permanently_closed": true, "name": "Padhuan Market", "reference": "ChIJkR1YWkE9DTkRjS1XZUEqZUA", "geometry": {"location": {"lat": 28.37699, "lng": 76.9337598}, "viewport": {"northeast": {"lat": 28.3783291302915, "lng": 76.93510133029152}, "southwest": {"lat": 28.3756311697085, "lng": 76.9324033697085}}}, "place_id": "ChIJkR1YWkE9DTkRjS1XZUEqZUA", "plus_code": {"global_code": "7JWR9WGM+QG", "compound_code": "9WGM+QG Gurugram, Haryana, India"}, "vicinity": "Unnamed Road, Imt Manesar, Gurugram", "scope": "GOOGLE", "business_status": "CLOSED_TEMPORARILY", "types": ["school", "point_of_interest", "establishment"], "icon": "https://maps.gstatic.com/mapfiles/place_api/icons/v1/png_71/school-71.png"}, {"rating": 5, "user_ratings_total": 1, "permanently_closed": true, "name": "Government Primary School, Naharpur Kasan", "reference": "ChIJoQJMqsg9DTkRyJFB3Ka1YOQ", "geometry": {"location": {"lat": 28.3781228, "lng": 76.93574300000002}, "viewport": {"northeast": {"lat": 28.3794158302915, "lng": 76.9370932302915}, "southwest": {"lat": 28.3767178697085, "lng": 76.93439526970849}}}, "place_id": "ChIJoQJMqsg9DTkRyJFB3Ka1YOQ", "plus_code": {"global_code": "7JWR9WHP+67", "compound_code": "9WHP+67 Naharpur Kasan, Haryana, India"}, "vicinity": "Naharpur Kasan", "scope": "GOOGLE", "business_status": "CLOSED_TEMPORARILY", "types": ["school", "point_of_interest", "establishment"], "icon": "https://maps.gstatic.com/mapfiles/place_api/icons/v1/png_71/school-71.png"}, {"rating": 4.7, "user_ratings_total": 21, "name": "Royal PG & Guest House (Imt Manesar)", "reference": "ChIJG18wxV49DTkRuLZEl0a8qOA", "geometry": {"location": {"lat": 28.3673415, "lng": 76.95015839999999}, "viewport": {"northeast": {"lat": 28.3686149302915, "lng": 76.9515045802915}, "southwest": {"lat": 28.3659169697085, "lng": 76.94880661970849}}}, "opening_hours": {"open_now": true}, "place_id": "ChIJG18wxV49DTkRuLZEl0a8qOA", "plus_code": {"global_code": "7JWR9X82+W3", "compound_code": "9X82+W3 Gurugram, Haryana, India"}, "vicinity": "Sector 1, Imt Manesar, Gurugram", "photos": [{"photo_reference": "CmRaAAAA67_VvkaMtTUb-aFDdPT0htexWXvqtK5KaX9v5CRQU3NXbcuaRVB4uOzCm4IQp3UwQ9H2xBheGNXz_jgYmvupo5rmGpXco1SJGj8QqvKXGky_yYXNiagdN7FvvXFL4uIlEhAZaPrgqlxhCBUNp6nWC24OGhR37Bt_8HdWO7i0uTd1rn5RuIvbvw", "width": 720, "html_attributions": ["<a href=\"https://maps.google.com/maps/contrib/111701293014131335323\">Aman Ror</a>"], "height": 960}], "scope": "GOOGLE", "business_status": "OPERATIONAL", "types": ["lodging", "school", "point_of_interest", "establishment"], "icon": "https://maps.gstatic.com/mapfiles/place_api/icons/v1/png_71/lodging-71.png"}, {"rating": 5, "user_ratings_total": 1, "permanently_closed": true, "name": "Government Primary School Of Naharpur", "reference": "ChIJG7n8HV09DTkRrmI_Dkl3y94", "geometry": {"location": {"lat": 28.3784618, "lng": 76.9355296}, "viewport": {"northeast": {"lat": 28.3797542302915, "lng": 76.9367505302915}, "southwest": {"lat": 28.3770562697085, "lng": 76.93405256970848}}}, "place_id": "ChIJG7n8HV09DTkRrmI_Dkl3y94", "plus_code": {"global_code": "7JWR9WHP+96", "compound_code": "9WHP+96 Naharpur Kasan, Haryana, India"}, "vicinity": "Naharpur Kasan", "scope": "GOOGLE", "business_status": "CLOSED_TEMPORARILY", "types": ["primary_school", "school", "point_of_interest", "establishment"], "icon": "https://maps.gstatic.com/mapfiles/place_api/icons/v1/png_71/school-71.png"}, {"permanently_closed": true, "name": "Government Primary School", "reference": "ChIJXf_mYj49DTkRjCd0rjDE4Y4", "geometry": {"location": {"lat": 28.3784618, "lng": 76.9355296}, "viewport": {"northeast": {"lat": 28.3797542302915, "lng": 76.9367505302915}, "southwest": {"lat": 28.3770562697085, "lng": 76.93405256970848}}}, "place_id": "ChIJXf_mYj49DTkRjCd0rjDE4Y4", "plus_code": {"global_code": "7JWR9WHP+96", "compound_code": "9WHP+96 Naharpur Kasan, Haryana, India"}, "vicinity": "Naharpur Kasan", "photos": [{"photo_reference": "CmRaAAAA4Lw5c2SxhI8RYExf0Su7dtRJ7CHb096wziC5nIXQURIcCdkZY7ptReJF0mBLdFcejLDbip1X4IvmQe-nfpB7UDDHrmTXF_Gykqz0s-mqsKfPRQmFESLKki09o5bE6iJMEhCRfRZpRreZVVVEgY6t87cgGhR-KU6PtD8z5A56D5_oCRfIiWP4Ww", "width": 4032, "html_attributions": ["<a href=\"https://maps.google.com/maps/contrib/115513297596047441745\">Ajay Yadav</a>"], "height": 1960}], "scope": "GOOGLE", "business_status": "CLOSED_TEMPORARILY", "types": ["school", "point_of_interest", "establishment"], "icon": "https://maps.gstatic.com/mapfiles/place_api/icons/v1/png_71/school-71.png"}, {"permanently_closed": true, "name": "Rainbow School", "reference": "ChIJ4zvSRv09DTkRJNDuBdnso9g", "geometry": {"location": {"lat": 28.3615233, "lng": 76.94439419999999}, "viewport": {"northeast": {"lat": 28.3631614302915, "lng": 76.9457481302915}, "southwest": {"lat": 28.3604634697085, "lng": 76.94305016970848}}}, "place_id": "ChIJ4zvSRv09DTkRJNDuBdnso9g", "plus_code": {"global_code": "7JWR9W6V+JQ", "compound_code": "9W6V+JQ Gurugram, Haryana, India"}, "vicinity": "Unnamed Road, Imt Manesar, Gurugram", "scope": "GOOGLE", "business_status": "CLOSED_TEMPORARILY", "types": ["school", "point_of_interest", "establishment"], "icon": "https://maps.gstatic.com/mapfiles/place_api/icons/v1/png_71/school-71.png"}, {"permanently_closed": true, "name": "Shiv mandir Singh niwash", "reference": "ChIJf9E7WYI9DTkRDI61smwDMv8", "geometry": {"location": {"lat": 28.3718039, "lng": 76.92916029999999}, "viewport": {"northeast": {"lat": 28.37323373029151, "lng": 76.9305105302915}, "southwest": {"lat": 28.3705357697085, "lng": 76.92781256970848}}}, "place_id": "ChIJf9E7WYI9DTkRDI61smwDMv8", "plus_code": {"global_code": "7JWR9WCH+PM", "compound_code": "9WCH+PM Gurugram, Haryana, India"}, "vicinity": "Sector 5, Imt Manesar, Gurugram", "scope": "GOOGLE", "business_status": "CLOSED_TEMPORARILY", "types": ["school", "point_of_interest", "establishment"], "icon": "https://maps.gstatic.com/mapfiles/place_api/icons/v1/png_71/school-71.png"}, {"permanently_closed": true, "name": "Rose computer it soluation", "reference": "ChIJx453J-c9DTkRKf_YVT6QSig", "geometry": {"location": {"lat": 28.37715439999999, "lng": 76.93228909999999}, "viewport": {"northeast": {"lat": 28.3785400802915, "lng": 76.9336189302915}, "southwest": {"lat": 28.37584211970849, "lng": 76.93092096970848}}}, "place_id": "ChIJx453J-c9DTkRKf_YVT6QSig", "plus_code": {"global_code": "7JWR9WGJ+VW", "compound_code": "9WGJ+VW Gurugram, Haryana, India"}, "vicinity": "Unnamed Road, Imt Manesar, Gurugram", "scope": "GOOGLE", "business_status": "CLOSED_TEMPORARILY", "types": ["school", "point_of_interest", "establishment"], "icon": "https://maps.gstatic.com/mapfiles/place_api/icons/v1/png_71/school-71.png"}, {"rating": 4.5, "user_ratings_total": 2, "name": "Fitness Point", "reference": "ChIJSWHHIko8DTkRADxjyLY1nNM", "geometry": {"location": {"lat": 28.3621774, "lng": 76.9473232}, "viewport": {"northeast": {"lat": 28.3634948802915, "lng": 76.94867193029151}, "southwest": {"lat": 28.3607969197085, "lng": 76.9459739697085}}}, "place_id": "ChIJSWHHIko8DTkRADxjyLY1nNM", "plus_code": {"global_code": "7JWR9W6W+VW", "compound_code": "9W6W+VW Gurugram, Haryana, India"}, "vicinity": "Plot no 482, Sector 1 Main Road, Imt Manesar, Gurugram", "scope": "GOOGLE", "business_status": "OPERATIONAL", "types": ["secondary_school", "school", "point_of_interest", "establishment"], "icon": "https://maps.gstatic.com/mapfiles/place_api/icons/v1/png_71/school-71.png"}, {"permanently_closed": true, "name": "Kanak tution classes", "reference": "ChIJLc8RbCc9DTkR2X5uw99Gvdw", "geometry": {"location": {"lat": 28.362073, "lng": 76.9473275}, "viewport": {"northeast": {"lat": 28.3634534802915, "lng": 76.94867683029152}, "southwest": {"lat": 28.3607555197085, "lng": 76.9459788697085}}}, "place_id": "ChIJLc8RbCc9DTkR2X5uw99Gvdw", "plus_code": {"global_code": "7JWR9W6W+RW", "compound_code": "9W6W+RW Gurugram, Haryana, India"}, "vicinity": "Sector 1 Main Road, Imt Manesar, Gurugram", "scope": "GOOGLE", "business_status": "CLOSED_TEMPORARILY", "types": ["school", "point_of_interest", "establishment"], "icon": "https://maps.gstatic.com/mapfiles/place_api/icons/v1/png_71/school-71.png"}, {"name": "Petals Preschool", "reference": "ChIJfydFxqc9DTkROwf-1VTASpU", "geometry": {"location": {"lat": 28.3631337, "lng": 76.9489935}, "viewport": {"northeast": {"lat": 28.36433403029151, "lng": 76.95034053029151}, "southwest": {"lat": 28.3616360697085, "lng": 76.94764256970849}}}, "place_id": "ChIJfydFxqc9DTkROwf-1VTASpU", "plus_code": {"global_code": "7JWR9W7X+7H", "compound_code": "9W7X+7H Gurugram, Haryana, India"}, "vicinity": "Plot Number 386, IMT Sector 1c, Manesar, Gurugram", "scope": "GOOGLE", "business_status": "OPERATIONAL", "types": ["school", "point_of_interest", "establishment"], "icon": "https://maps.gstatic.com/mapfiles/place_api/icons/v1/png_71/school-71.png"}, {"permanently_closed": true, "name": "Frindes Public School", "reference": "ChIJtXyF9M89DTkRazRC18nVcQU", "geometry": {"location": {"lat": 28.3775077, "lng": 76.9310325}, "viewport": {"northeast": {"lat": 28.3787780302915, "lng": 76.9323838302915}, "southwest": {"lat": 28.3760800697085, "lng": 76.92968586970849}}}, "place_id": "ChIJtXyF9M89DTkRazRC18nVcQU", "plus_code": {"global_code": "7JWR9WHJ+2C", "compound_code": "9WHJ+2C Gurugram, Haryana, India"}, "vicinity": "Frindes public school, Manesar, Gurugram", "photos": [{"photo_reference": "CmRaAAAAENjo1SP6HUnGwfZbVx0DLcVKS0yPSMr_eg69m-UK5rHANimGTPGOmg0oQdCWQf3U-hAhAgFcueR1uvpnzLrVggKBEt-eqWWpR4NQwf3x4qNeAb6lXXap4LXPrzX_rxAbEhAxhP0_uEvC8SOjTnJBdIeyGhSZUB3mBELYSMMhLXqqFP3RN1NxPA", "width": 640, "html_attributions": ["<a href=\"https://maps.google.com/maps/contrib/103355624943936156347\">Faizan Alam</a>"], "height": 640}], "scope": "GOOGLE", "business_status": "CLOSED_TEMPORARILY", "types": ["school", "point_of_interest", "establishment"], "icon": "https://maps.gstatic.com/mapfiles/place_api/icons/v1/png_71/school-71.png"}, {"permanently_closed": true, "name": "Dav Trading Company", "reference": "ChIJrXrdSTY8DTkRnlm0ttsoN28", "geometry": {"location": {"lat": 28.359037, "lng": 76.93978299999999}, "viewport": {"northeast": {"lat": 28.3603582802915, "lng": 76.94113223029149}, "southwest": {"lat": 28.35766031970849, "lng": 76.93843426970848}}}, "place_id": "ChIJrXrdSTY8DTkRnlm0ttsoN28", "plus_code": {"global_code": "7JWR9W5Q+JW", "compound_code": "9W5Q+JW Gurugram, Haryana, India"}, "vicinity": "No - 8, Sector 1B, Imt Manesar, Gurugram", "scope": "GOOGLE", "business_status": "CLOSED_TEMPORARILY", "types": ["school", "point_of_interest", "establishment"], "icon": "https://maps.gstatic.com/mapfiles/place_api/icons/v1/png_71/school-71.png"}, {"permanently_closed": true, "name": "Monu kaminicasan", "reference": "ChIJ4bJjBVI9DTkRkjs4UTZKcNo", "geometry": {"location": {"lat": 28.3814047, "lng": 76.938379}, "viewport": {"northeast": {"lat": 28.3827539302915, "lng": 76.93973163029152}, "southwest": {"lat": 28.3800559697085, "lng": 76.93703366970851}}}, "place_id": "ChIJ4bJjBVI9DTkRkjs4UTZKcNo", "plus_code": {"global_code": "7JWR9WJQ+H9", "compound_code": "9WJQ+H9 Naharpur Kasan, Haryana, India"}, "vicinity": "Naharpur Kasan", "scope": "GOOGLE", "business_status": "CLOSED_TEMPORARILY", "types": ["school", "point_of_interest", "establishment"], "icon": "https://maps.gstatic.com/mapfiles/place_api/icons/v1/png_71/school-71.png"}]}