{"status": "OK", "html_attributions": [], "results": [{"permanently_closed": true, "name": "Vatika Lifestyle Nursery School", "reference": "ChIJR4k7jnQ9DTkRBjphSOfxnmM", "geometry": {"location": {"lat": 28.3952016, "lng": 76.9691004}, "viewport": {"northeast": {"lat": 28.3965638802915, "lng": 76.97055333029151}, "southwest": {"lat": 28.3938659197085, "lng": 76.9678553697085}}}, "place_id": "ChIJR4k7jnQ9DTkRBjphSOfxnmM", "plus_code": {"global_code": "7JWR9XW9+3J", "compound_code": "9XW9+3J Gurugram, Haryana, India"}, "vicinity": "Sector 83, Gurugram", "scope": "GOOGLE", "business_status": "CLOSED_TEMPORARILY", "types": ["school", "point_of_interest", "establishment"], "icon": "https://maps.gstatic.com/mapfiles/place_api/icons/v1/png_71/school-71.png"}, {"rating": 5, "user_ratings_total": 19, "permanently_closed": true, "name": "iGrow Montessori, Play School", "reference": "ChIJod5CSHQ9DTkRR9ktXL3UVzo", "geometry": {"location": {"lat": 28.3952137, "lng": 76.96907829999999}, "viewport": {"northeast": {"lat": 28.3964961302915, "lng": 76.9703550302915}, "southwest": {"lat": 28.3937981697085, "lng": 76.9676570697085}}}, "place_id": "ChIJod5CSHQ9DTkRR9ktXL3UVzo", "plus_code": {"global_code": "7JWR9XW9+3J", "compound_code": "9XW9+3J Gurugram, Haryana, India"}, "vicinity": "33A, Homes Avenue Road, Sector 83, Gurugram", "photos": [{"photo_reference": "CmRaAAAAzhDUlGco7iH25uT5LI7EcpCOfC83nvOVCvXXIS0WN_bWCIy5rfhMYMIOl3b3gI7feKvH4D9Cbd3rifEeQE3LW6MrOU5HkhXKQ0Tn6wvDmiDmGANoNvRzpawyIaNiwPh1EhDxJv2mRYvOEJT_j1UpAYfnGhQHvOlNCR6Anf8Sn7jLYrQ65fbYLw", "width": 4096, "html_attributions": ["<a href=\"https://maps.google.com/maps/contrib/112278835574452124125\">Raj Kamal Khare</a>"], "height": 2304}], "scope": "GOOGLE", "business_status": "CLOSED_TEMPORARILY", "types": ["school", "point_of_interest", "establishment"], "icon": "https://maps.gstatic.com/mapfiles/place_api/icons/v1/png_71/school-71.png"}, {"permanently_closed": true, "name": "try", "reference": "ChIJOfZkmF49DTkRPx1RXhdwUyA", "geometry": {"location": {"lat": 28.3925798, "lng": 76.9675199}, "viewport": {"northeast": {"lat": 28.3939712802915, "lng": 76.96891558029151}, "southwest": {"lat": 28.3912733197085, "lng": 76.9662176197085}}}, "place_id": "ChIJOfZkmF49DTkRPx1RXhdwUyA", "plus_code": {"global_code": "7JWR9XV9+22", "compound_code": "9XV9+22 Gurugram, Haryana, India"}, "vicinity": "sapphire mall, Sector 82, Gurugram", "scope": "GOOGLE", "business_status": "CLOSED_TEMPORARILY", "types": ["school", "point_of_interest", "establishment"], "icon": "https://maps.gstatic.com/mapfiles/place_api/icons/v1/png_71/school-71.png"}, {"rating": 4.8, "user_ratings_total": 6, "permanently_closed": true, "name": "Bachpan Play School, Sector - 82, gurgaon", "reference": "ChIJvxXKsfc9DTkReGrucV3VPhc", "geometry": {"location": {"lat": 28.3908989, "lng": 76.9661436}, "viewport": {"northeast": {"lat": 28.3922604302915, "lng": 76.96748438029151}, "southwest": {"lat": 28.38956246970849, "lng": 76.9647864197085}}}, "place_id": "ChIJvxXKsfc9DTkReGrucV3VPhc", "plus_code": {"global_code": "7JWR9XR8+9F", "compound_code": "9XR8+9F Gurugram, Haryana, India"}, "vicinity": "Plot No . 08, GF Block E 1.1, Vatika India Next, Sector 82, Gurugram", "photos": [{"photo_reference": "CmRaAAAA6dbw3qBqZ88W_GvGmJE4bW5TPsznxPkVcSqWDmMmSgCxPI9JkQng_z1OslLsIkyxRmXn-2ZNqEB8xPifMAjAy_otp8o_3IOZh03gc3G-LfBTqW-6_0swx4ZKW-jbGcLuEhD3uPnB6Hkrf80BNiFGIT9hGhTZFwxP8Ex3Pq05VRaLB1IH_9G2gQ", "width": 2448, "html_attributions": ["<a href=\"https://maps.google.com/maps/contrib/116186106714807317748\">Anil Omurty</a>"], "height": 3264}], "scope": "GOOGLE", "business_status": "CLOSED_TEMPORARILY", "types": ["school", "point_of_interest", "establishment"], "icon": "https://maps.gstatic.com/mapfiles/place_api/icons/v1/png_71/school-71.png"}, {"rating": 5, "user_ratings_total": 3, "name": "Sri Chaitanya School", "reference": "ChIJ6VwoiCo9DTkRR0ZII-sXqHU", "geometry": {"location": {"lat": 28.3967499, "lng": 76.9681535}, "viewport": {"northeast": {"lat": 28.3980146302915, "lng": 76.9695006802915}, "southwest": {"lat": 28.3953166697085, "lng": 76.9668027197085}}}, "place_id": "ChIJ6VwoiCo9DTkRR0ZII-sXqHU", "plus_code": {"global_code": "7JWR9XW9+M7", "compound_code": "9XW9+M7 Gurugram, Haryana, India"}, "vicinity": "Opposite Primrose Floors, Street No: K-6, Sector-83 Vatika India Next, Gurugram", "scope": "GOOGLE", "business_status": "OPERATIONAL", "types": ["school", "point_of_interest", "establishment"], "icon": "https://maps.gstatic.com/mapfiles/place_api/icons/v1/png_71/school-71.png"}, {"rating": 4, "user_ratings_total": 3, "permanently_closed": true, "name": "Chikkara Public School", "reference": "ChIJrTJCEGk9DTkRQZExdXMAH0E", "geometry": {"location": {"lat": 28.4021837, "lng": 76.9836304}, "viewport": {"northeast": {"lat": 28.4035806802915, "lng": 76.98492223029152}, "southwest": {"lat": 28.40088271970849, "lng": 76.98222426970851}}}, "place_id": "ChIJrTJCEGk9DTkRQZExdXMAH0E", "plus_code": {"global_code": "7JWRCX2M+VF", "compound_code": "CX2M+VF Gurugram, Haryana, India"}, "vicinity": "Kherki Daula, Sector 84, Gurugram", "scope": "GOOGLE", "business_status": "CLOSED_TEMPORARILY", "types": ["school", "point_of_interest", "establishment"], "icon": "https://maps.gstatic.com/mapfiles/place_api/icons/v1/png_71/school-71.png"}, {"rating": 4.3, "user_ratings_total": 4, "permanently_closed": true, "name": "Yoga classes", "reference": "ChIJUbb_KGo9DTkRCGpcrkbyjZk", "geometry": {"location": {"lat": 28.4021841, "lng": 76.9836299}, "viewport": {"northeast": {"lat": 28.4035809802915, "lng": 76.9849220302915}, "southwest": {"lat": 28.4008830197085, "lng": 76.9822240697085}}}, "place_id": "ChIJUbb_KGo9DTkRCGpcrkbyjZk", "plus_code": {"global_code": "7JWRCX2M+VF", "compound_code": "CX2M+VF Gurugram, Haryana, India"}, "vicinity": "Vpo, Kherki Daula, Gurugram", "scope": "GOOGLE", "business_status": "CLOSED_TEMPORARILY", "types": ["school", "point_of_interest", "establishment"], "icon": "https://maps.gstatic.com/mapfiles/place_api/icons/v1/png_71/school-71.png"}, {"rating": 5, "user_ratings_total": 8, "permanently_closed": true, "name": "Les Caterpillars Day Care & Activity Centre", "reference": "ChIJw_bslAo9DTkRGoHpcUe1A5o", "geometry": {"location": {"lat": 28.3909599, "lng": 76.9656262}, "viewport": {"northeast": {"lat": 28.3922720302915, "lng": 76.9670002802915}, "southwest": {"lat": 28.38957406970849, "lng": 76.9643023197085}}}, "place_id": "ChIJw_bslAo9DTkRGoHpcUe1A5o", "plus_code": {"global_code": "7JWR9XR8+97", "compound_code": "9XR8+97 Gurugram, Haryana, India"}, "vicinity": "E1 #37, Vatika Sovereign Next, Vatika Sector Road, Sector 82A, Gurugram", "photos": [{"photo_reference": "CmRaAAAAPwoc1MkVFDzjlGiWjsiZUJqr4q5KB39no7ZVkynX0I_wbD0M3g1bP8Suckk5bZFZu4GRtuQaVjliwI_aBBdno5JgH_MDTLzzm179798-phl4mlHQsoFcq1sl73RHsejvEhADfwnqu22yJdRGMvOUm2k6GhSsvRqiw6Ltz7xS4xw6RjQjQ7sM5A", "width": 1080, "html_attributions": ["<a href=\"https://maps.google.com/maps/contrib/108790467974485800905\">Les Caterpillars Day Care &amp; Activity Centre</a>"], "height": 810}], "scope": "GOOGLE", "business_status": "CLOSED_TEMPORARILY", "types": ["school", "point_of_interest", "establishment"], "icon": "https://maps.gstatic.com/mapfiles/place_api/icons/v1/png_71/school-71.png"}, {"name": "Government Senior Secondary School", "reference": "ChIJRYZV5mk9DTkRjcaeIpkTtVY", "geometry": {"location": {"lat": 28.4016968, "lng": 76.9868077}, "viewport": {"northeast": {"lat": 28.4030320802915, "lng": 76.98815578029149}, "southwest": {"lat": 28.4003341197085, "lng": 76.98545781970849}}}, "place_id": "ChIJRYZV5mk9DTkRjcaeIpkTtVY", "vicinity": "Kherki Daula", "scope": "GOOGLE", "types": ["school", "premise", "establishment"], "icon": "https://maps.gstatic.com/mapfiles/place_api/icons/v1/png_71/school-71.png"}]}