{"status": "OK", "next_page_token": "CqQCGAEAAMW1m5W5B8_XWyHKITdC7Btsc4joO2qkrjRqL72UuUCSpbMb4gVim0FPEkIZGjqHXNvGwOTetWtT1fS3DSpfRj9PUsdDLQiuiSgb2sVq2bFNpIztq-elxB-g_t9oHarj4c4HZjPrQ5a3uCkQYwyw1K1Yhib1HvgWW4Z8HZuMbG5b3aYGGuMjXfL_lQ8y2zX_WZwvjFaqIhsTGLj1ddovIfNFMMTlwbLHjanKO_lHbTDf8JsAoVNpK3hI2342eVL8frn1AcPggbY2QKphPBb3crUr_BCwXzOwcN9zM22v1X36ZhWpOT68owsr79H0k3a3WPIFjULPmxGFaarcPdUQz5qtO8We30Rm8_Q_S3FQ4YLy0APxOnS_Mjb-NhMBxfM-ORIQIpoJYrw0mvqqLq3JDs4FZRoUZLSCB5MehXsOJhtmWKjk_A3oSYM", "html_attributions": [], "results": [{"rating": 4.4, "user_ratings_total": 5, "permanently_closed": true, "name": "Modern Public School", "reference": "ChIJ-wLpqGk9DTkRwZriMMJz2bc", "geometry": {"location": {"lat": 28.4025125, "lng": 76.98473899999999}, "viewport": {"northeast": {"lat": 28.40386358029151, "lng": 76.98608138029151}, "southwest": {"lat": 28.4011656197085, "lng": 76.9833834197085}}}, "place_id": "ChIJ-wLpqGk9DTkRwZriMMJz2bc", "plus_code": {"global_code": "7JWRCX3M+2V", "compound_code": "CX3M+2V Gurugram, Haryana, India"}, "vicinity": "Kherki Daula, Gurugram", "photos": [{"photo_reference": "CmRaAAAAV0Q8wTZ6XpYf-8v3wT6JMJbN5p-W5xgrFz4FcIJ4qfIaXeM7KCfdW1acZgi-QWTNWH23H8qI3ZBXEc9MxjRYCZdd19l8Oakz_eB2kN4DJ3kYveq3gZgFFaC2OkOdpNSQEhCmuEp42MoIVs1NckKHxLngGhQoGPZpUuHi8pvz3fuZUaUhUrvq1g", "width": 4000, "html_attributions": ["<a href=\"https://maps.google.com/maps/contrib/107219565478991208824\">Modern Public School</a>"], "height": 3000}], "scope": "GOOGLE", "business_status": "CLOSED_TEMPORARILY", "types": ["school", "point_of_interest", "establishment"], "icon": "https://maps.gstatic.com/mapfiles/place_api/icons/v1/png_71/school-71.png"}, {"rating": 4.6, "user_ratings_total": 20, "permanently_closed": true, "name": "KIDZEE PreSchool", "reference": "ChIJP46Ue2k9DTkRI0VjrPyPVxc", "geometry": {"location": {"lat": 28.4006159, "lng": 76.9840069}, "viewport": {"northeast": {"lat": 28.4020047302915, "lng": 76.9853544302915}, "southwest": {"lat": 28.3993067697085, "lng": 76.98265646970847}}}, "place_id": "ChIJP46Ue2k9DTkRI0VjrPyPVxc", "plus_code": {"global_code": "7JWRCX2M+6J", "compound_code": "CX2M+6J Gurugram, Haryana, India"}, "vicinity": "Kherki Daula, Sector 84, Gurugram", "photos": [{"photo_reference": "CmRaAAAAyggf-8eMr9gEVDdnHXQgDz6ThGEC3brQ7e3uSy5QLsR1VEob-k_7nc6SWHuyFmOtocYydXP7DTQwpw-F98pFTSz63r1c6eusIK-ZEqJPcDZlm0xdCDfPgwXS989SWUskEhDFwGJ17LqKnf5Ubvl9b8lGGhTKrnZs-nlxYAmLeY18mDsfxhInvQ", "width": 1280, "html_attributions": ["<a href=\"https://maps.google.com/maps/contrib/100665384719265812817\">Kidzee PreSchool, Sec-84, Kherki Daula, Gurugram</a>"], "height": 960}], "scope": "GOOGLE", "business_status": "CLOSED_TEMPORARILY", "types": ["school", "point_of_interest", "establishment"], "icon": "https://maps.gstatic.com/mapfiles/place_api/icons/v1/png_71/school-71.png"}, {"rating": 4.8, "user_ratings_total": 12, "permanently_closed": true, "name": "New Era Public School", "reference": "ChIJ____v189DTkRL-JBsmdxaho", "geometry": {"location": {"lat": 28.416413, "lng": 76.9887877}, "viewport": {"northeast": {"lat": 28.4177612802915, "lng": 76.9901380802915}, "southwest": {"lat": 28.4150633197085, "lng": 76.9874401197085}}}, "place_id": "ChIJ____v189DTkRL-JBsmdxaho", "plus_code": {"global_code": "7JWRCX8Q+HG", "compound_code": "CX8Q+HG Gurugram, Haryana, India"}, "vicinity": "Mohammadpur, Jharsa, Gurugram", "photos": [{"photo_reference": "CmRaAAAANAr_4hTtpOlayqyj3C0QuI1UxDPeNGh0zUehoJuKtLFuOoZFKAd4_drYJTB4rvmlqWCgSA-WWljU-XbGxmcR_LVHmNyR1YoCqWYfZpJ2Sk3FZ1K3gi6q6Acz-QoC_L4aEhDWKHBjvrragaUujsRGMTElGhSK2vqIcRTY66rqfDdskoRJw4FHyw", "width": 1080, "html_attributions": ["<a href=\"https://maps.google.com/maps/contrib/100560803863083645495\">Ritesh Kumar</a>"], "height": 1920}], "scope": "GOOGLE", "business_status": "CLOSED_TEMPORARILY", "types": ["school", "point_of_interest", "establishment"], "icon": "https://maps.gstatic.com/mapfiles/place_api/icons/v1/png_71/school-71.png"}, {"rating": 4.3, "user_ratings_total": 25, "name": "MatriKiran High School", "reference": "ChIJee4tFnE9DTkReR3MEWhAvsc", "geometry": {"location": {"lat": 28.4005104, "lng": 76.9714122}, "viewport": {"northeast": {"lat": 28.4015884802915, "lng": 76.9727938802915}, "southwest": {"lat": 28.39889051970849, "lng": 76.9700959197085}}}, "opening_hours": {"open_now": false}, "place_id": "ChIJee4tFnE9DTkReR3MEWhAvsc", "plus_code": {"global_code": "7JWRCX2C+6H", "compound_code": "CX2C+6H Gurugram, Haryana, India"}, "vicinity": "Sector 83 21, Matrikiran Avenue, Vatika India Next, Gurugram", "photos": [{"photo_reference": "CmRaAAAAOoG21gR2oocrHzYEouEBoCrmmaGMK2awbLhaN53kzmf2TUNNWNiMEOABnQs8WNueKFeyle5tualeA9nX318fjbCjE5bp2N4ZELDYzKGLSVvrbczUcd44IT5Y-j6DmNviEhCKFm5ZgibQ4aejH-3LnqdhGhRAQXSlkwW5iNb0lVOGhlj5rIElAw", "width": 3264, "html_attributions": ["<a href=\"https://maps.google.com/maps/contrib/105623545028476310649\">vijay thakur</a>"], "height": 2448}], "scope": "GOOGLE", "business_status": "OPERATIONAL", "types": ["secondary_school", "school", "point_of_interest", "establishment"], "icon": "https://maps.gstatic.com/mapfiles/place_api/icons/v1/png_71/school-71.png"}, {"rating": 5, "user_ratings_total": 14, "name": "Dietitian & Aerobics Trainer - Dt. Amar", "reference": "ChIJC-1IFywYDTkRgkVT_jVigXM", "geometry": {"location": {"lat": 28.401066, "lng": 76.9701334}, "viewport": {"northeast": {"lat": 28.4023571302915, "lng": 76.9715392302915}, "southwest": {"lat": 28.3996591697085, "lng": 76.96884126970849}}}, "opening_hours": {"open_now": true}, "place_id": "ChIJC-1IFywYDTkRgkVT_jVigXM", "plus_code": {"global_code": "7JWRCX2C+C3", "compound_code": "CX2C+C3 Gurugram, Haryana, India"}, "vicinity": "B1, Gurgaon 21, 603, Sector 83, Gurugram", "photos": [{"photo_reference": "CmRaAAAAr2y_VpvxNgcsC0g3LlUC9ITIvyTU9R66DrOhxpFvxxJfDq_x4JtiFqHWLCkG96U87H4GclbU5Ov19Mm2bEr-DAJauGYzKc4S8fZeCKENbs5rv8GtVUId9wo_2OdRRSEXEhCFNsgeKcOyks3qtqjkh3Z8GhSwZbHvsCix031YHrDsnaFllSMC3w", "width": 560, "html_attributions": ["<a href=\"https://maps.google.com/maps/contrib/107202508300112296554\">Dietitian &amp; Aerobics Trainer - Dt. Amar</a>"], "height": 315}], "scope": "GOOGLE", "business_status": "OPERATIONAL", "types": ["school", "health", "point_of_interest", "establishment"], "icon": "https://maps.gstatic.com/mapfiles/place_api/icons/v1/png_71/generic_business-71.png"}, {"rating": 4.5, "user_ratings_total": 51, "name": "Rajiv Gandhi High School sector 105", "reference": "ChIJsU8pjV4XDTkRIEqjDovkA0k", "geometry": {"location": {"lat": 28.4133113, "lng": 76.98467839999999}, "viewport": {"northeast": {"lat": 28.4143763802915, "lng": 76.98603713029149}, "southwest": {"lat": 28.4116784197085, "lng": 76.98333916970849}}}, "opening_hours": {"open_now": false}, "place_id": "ChIJsU8pjV4XDTkRIEqjDovkA0k", "plus_code": {"global_code": "7JWRCX7M+8V", "compound_code": "CX7M+8V Gurugram, Haryana, India"}, "vicinity": "B-7, Ward 30, Block B, Rajendra Park, Sector 105, Gurugram", "photos": [{"photo_reference": "CmRaAAAAVmWzbtpAiCJR2THgvSlktMrchm_3trP8h1okGVbqVN2tgngmPWe4oc8PGJr1Xl_505zaOF52Yl4G1GWcBbIo3-HwtgrbffjL-hVDebQ4bbsFLnj_Ze3z0TDWdNrXnyyDEhC38jevzZGqT6ij4K_-_SzMGhQsp1DgRn7cCj8cBxe_kZOmrHkGXQ", "width": 3264, "html_attributions": ["<a href=\"https://maps.google.com/maps/contrib/115269834752677651443\">Dheeraj Kumar</a>"], "height": 2448}], "scope": "GOOGLE", "business_status": "OPERATIONAL", "types": ["school", "point_of_interest", "establishment"], "icon": "https://maps.gstatic.com/mapfiles/place_api/icons/v1/png_71/school-71.png"}, {"rating": 4, "user_ratings_total": 10, "permanently_closed": true, "name": "THE N.S.P. School", "reference": "ChIJh6AuRTw9DTkRaqjS_Ld13NI", "geometry": {"location": {"lat": 28.4152768, "lng": 76.9830589}, "viewport": {"northeast": {"lat": 28.4167177802915, "lng": 76.9844079802915}, "southwest": {"lat": 28.4140198197085, "lng": 76.98171001970849}}}, "place_id": "ChIJh6AuRTw9DTkRaqjS_Ld13NI", "plus_code": {"global_code": "7JWRCX8M+46", "compound_code": "CX8M+46 Gurugram, Haryana, India"}, "vicinity": "Unnamed Road, Muhammadpur, Sector 36, Gurugram", "photos": [{"photo_reference": "CmRaAAAAiAgL2RbczDlXrMtKkJQe1HfAOlghY24ZJnIwn9gleIkKZzwKdlsk9B62OdoN_t27_zum3QOcEQw42ORGIsJbGkE-3E2kwKMESQGQoeLZ9WJy3ery_pbkUmsBem12TMX8EhB4B0l321fbzCWUJ45AdQiAGhS0TI2UgDDpzyYoITc5535JgBT4KA", "width": 4128, "html_attributions": ["<a href=\"https://maps.google.com/maps/contrib/109318840679823979995\">Nafesingh School</a>"], "height": 3096}], "scope": "GOOGLE", "business_status": "CLOSED_TEMPORARILY", "types": ["school", "point_of_interest", "establishment"], "icon": "https://maps.gstatic.com/mapfiles/place_api/icons/v1/png_71/school-71.png"}, {"name": "Rhythm Divine Music School", "reference": "ChIJ6aqqqno9DTkR_NrqmHEYbTY", "geometry": {"location": {"lat": 28.40511799999999, "lng": 76.975827}, "viewport": {"northeast": {"lat": 28.4064630302915, "lng": 76.97719193029151}, "southwest": {"lat": 28.40376506970849, "lng": 76.9744939697085}}}, "place_id": "ChIJ6aqqqno9DTkR_NrqmHEYbTY", "plus_code": {"global_code": "7JWRCX4G+28", "compound_code": "CX4G+28 Gurugram, Haryana, India"}, "vicinity": "J-24, DLF New town heights 86,, Sector 86, New Gurgaon", "photos": [{"photo_reference": "CmRaAAAAiBHA6jlrwZkbCbSTOlkSWb2n4s2kCSU-TTqSh3jy4rwkix0sIO6OksXKlOaKPW5YO-zxsaYseFRbFrv8Laj_T5XN3vF6-J_mrvjtOv1RusrCcx3JV9DPPeuaKGBaRmJUEhCM3Y8hEL0YMUqG4N0dVjpEGhS5vR40p_jw7quGADfL3CsELy1c4Q", "width": 4608, "html_attributions": ["<a href=\"https://maps.google.com/maps/contrib/112737892689197296164\">Rhythm Divine Music School</a>"], "height": 3456}], "scope": "GOOGLE", "business_status": "OPERATIONAL", "types": ["school", "point_of_interest", "establishment"], "icon": "https://maps.gstatic.com/mapfiles/place_api/icons/v1/png_71/school-71.png"}, {"permanently_closed": true, "name": "IELTS classes in gurgaon", "reference": "ChIJwTBuQoQ9DTkRSx6-UWVkSl0", "geometry": {"location": {"lat": 28.4051175, "lng": 76.9758274}, "viewport": {"northeast": {"lat": 28.4064626302915, "lng": 76.97719183029149}, "southwest": {"lat": 28.4037646697085, "lng": 76.97449386970848}}}, "place_id": "ChIJwTBuQoQ9DTkRSx6-UWVkSl0", "plus_code": {"global_code": "7JWRCX4G+28", "compound_code": "CX4G+28 Gurugram, Haryana, India"}, "vicinity": "opp. Raj Nagar, next to KTM showroom IRON foot bridge, Gurugram", "scope": "GOOGLE", "business_status": "CLOSED_TEMPORARILY", "types": ["school", "point_of_interest", "establishment"], "icon": "https://maps.gstatic.com/mapfiles/place_api/icons/v1/png_71/school-71.png"}, {"rating": 4, "user_ratings_total": 1, "permanently_closed": true, "name": "Chhikara Public School", "reference": "ChIJr3w76X09DTkR7_Yz8UUFcWU", "geometry": {"location": {"lat": 28.4039481, "lng": 76.9829065}, "viewport": {"northeast": {"lat": 28.4053045802915, "lng": 76.9842317302915}, "southwest": {"lat": 28.4026066197085, "lng": 76.98153376970848}}}, "place_id": "ChIJr3w76X09DTkR7_Yz8UUFcWU", "plus_code": {"global_code": "7JWRCX3M+H5", "compound_code": "CX3M+H5 Gurugram, Haryana, India"}, "vicinity": "Kherki Daula, Sector 84, Gurugram", "scope": "GOOGLE", "business_status": "CLOSED_TEMPORARILY", "types": ["school", "point_of_interest", "establishment"], "icon": "https://maps.gstatic.com/mapfiles/place_api/icons/v1/png_71/school-71.png"}, {"permanently_closed": true, "name": "Govt. Primary School Sihi", "reference": "ChIJ83X8ndg9DTkRYwIENJKXtPQ", "geometry": {"location": {"lat": 28.4096346, "lng": 76.97177409999999}, "viewport": {"northeast": {"lat": 28.41128348029151, "lng": 76.97322673029149}, "southwest": {"lat": 28.4085855197085, "lng": 76.97052876970848}}}, "place_id": "ChIJ83X8ndg9DTkRYwIENJKXtPQ", "plus_code": {"global_code": "7JWRCX5C+VP", "compound_code": "CX5C+VP Gurugram, Haryana, India"}, "vicinity": "Sihi Sikanderpur Road, Gurugram", "scope": "GOOGLE", "business_status": "CLOSED_TEMPORARILY", "types": ["school", "point_of_interest", "establishment"], "icon": "https://maps.gstatic.com/mapfiles/place_api/icons/v1/png_71/school-71.png"}, {"rating": 3.7, "user_ratings_total": 18, "permanently_closed": true, "name": "In Front Chhikara Middle School Kherki Daula", "reference": "ChIJg4UfxGg9DTkRqbHOAETKfpQ", "geometry": {"location": {"lat": 28.4038763, "lng": 76.9845212}, "viewport": {"northeast": {"lat": 28.4052838302915, "lng": 76.9859218802915}, "southwest": {"lat": 28.4025858697085, "lng": 76.9832239197085}}}, "place_id": "ChIJg4UfxGg9DTkRqbHOAETKfpQ", "plus_code": {"global_code": "7JWRCX3M+HR", "compound_code": "CX3M+HR Sihi, Haryana, India"}, "vicinity": "Kherki Daula, Sector 84, Sihi", "photos": [{"photo_reference": "CmRZAAAAPj_1BCYMy9LrcaBFiPOy2E8YZm3uawijMm2w6ai613sU5m-QwyWC3DspeSbIr6nsKjdbVB7FxiMfaZSjWYIHoLob-l3H5y4kYqoXrbwJq5xQqAe6UOG5_v9rz6KJ8g6NEhA3ccAhp6h5lcSHNeK0_FcRGhSvQ2VSnhTdX6rm9roQFrsSYS1ztA", "width": 1232, "html_attributions": ["<a href=\"https://maps.google.com/maps/contrib/113456289534957241975\">Shaweta Chhabra</a>"], "height": 816}], "scope": "GOOGLE", "business_status": "CLOSED_TEMPORARILY", "types": ["secondary_school", "school", "point_of_interest", "establishment"], "icon": "https://maps.gstatic.com/mapfiles/place_api/icons/v1/png_71/school-71.png"}, {"rating": 4.5, "user_ratings_total": 2, "permanently_closed": true, "name": "Gurgaon World School", "reference": "ChIJIa6Rm109DTkRv-AXQzxW4Z8", "geometry": {"location": {"lat": 28.409583, "lng": 76.9883057}, "viewport": {"northeast": {"lat": 28.4109456302915, "lng": 76.9897912302915}, "southwest": {"lat": 28.40824766970849, "lng": 76.9870932697085}}}, "place_id": "ChIJIa6Rm109DTkRv-AXQzxW4Z8", "plus_code": {"global_code": "7JWRCX5Q+R8", "compound_code": "CX5Q+R8 Gurugram, Haryana, India"}, "vicinity": "Sector 36A, Gurugram", "scope": "GOOGLE", "business_status": "CLOSED_TEMPORARILY", "types": ["school", "point_of_interest", "establishment"], "icon": "https://maps.gstatic.com/mapfiles/place_api/icons/v1/png_71/school-71.png"}, {"permanently_closed": true, "name": "Rishi public school", "reference": "ChIJzVnCfKE9DTkRPYtcsH8XoJQ", "geometry": {"location": {"lat": 28.4150857, "lng": 76.9863041}, "viewport": {"northeast": {"lat": 28.4164397802915, "lng": 76.98750488029151}, "southwest": {"lat": 28.4137418197085, "lng": 76.98480691970849}}}, "place_id": "ChIJzVnCfKE9DTkRPYtcsH8XoJQ", "plus_code": {"global_code": "7JWRCX8P+2G", "compound_code": "CX8P+2G Gurugram, Haryana, India"}, "vicinity": "Muhammadpur, Sector 36, Gurugram", "photos": [{"photo_reference": "CmRaAAAAyY_KTJTlY7lwHwx0GeqKP44wDwOxudcaB_xYwPdOgk1xQW9Hy-1o5z5sO_Bt1ZaFQRiE2VXtXxFm8YxSejCk3sX2OQ_KDb-WRyD3i31UU03U8ZYwoKmpJX5bWjpZvdy_EhCVQWPsce_YHpMXUzY6s07TGhRuHh0vbIxCHUw1QSIJW4c9DCxXBw", "width": 1970, "html_attributions": ["<a href=\"https://maps.google.com/maps/contrib/115160800383729571596\">Pankaj Kumar</a>"], "height": 4160}], "scope": "GOOGLE", "business_status": "CLOSED_TEMPORARILY", "types": ["school", "point_of_interest", "establishment"], "icon": "https://maps.gstatic.com/mapfiles/place_api/icons/v1/png_71/school-71.png"}, {"rating": 4.3, "user_ratings_total": 4, "permanently_closed": true, "name": "Yoga classes", "reference": "ChIJUbb_KGo9DTkRCGpcrkbyjZk", "geometry": {"location": {"lat": 28.4021841, "lng": 76.9836299}, "viewport": {"northeast": {"lat": 28.4035809802915, "lng": 76.9849220302915}, "southwest": {"lat": 28.4008830197085, "lng": 76.9822240697085}}}, "place_id": "ChIJUbb_KGo9DTkRCGpcrkbyjZk", "plus_code": {"global_code": "7JWRCX2M+VF", "compound_code": "CX2M+VF Gurugram, Haryana, India"}, "vicinity": "Vpo, Kherki Daula, Gurugram", "scope": "GOOGLE", "business_status": "CLOSED_TEMPORARILY", "types": ["school", "point_of_interest", "establishment"], "icon": "https://maps.gstatic.com/mapfiles/place_api/icons/v1/png_71/school-71.png"}, {"rating": 4, "user_ratings_total": 3, "permanently_closed": true, "name": "Chikkara Public School", "reference": "ChIJrTJCEGk9DTkRQZExdXMAH0E", "geometry": {"location": {"lat": 28.4021837, "lng": 76.9836304}, "viewport": {"northeast": {"lat": 28.4035806802915, "lng": 76.98492223029152}, "southwest": {"lat": 28.40088271970849, "lng": 76.98222426970851}}}, "place_id": "ChIJrTJCEGk9DTkRQZExdXMAH0E", "plus_code": {"global_code": "7JWRCX2M+VF", "compound_code": "CX2M+VF Gurugram, Haryana, India"}, "vicinity": "Kherki Daula, Sector 84, Gurugram", "scope": "GOOGLE", "business_status": "CLOSED_TEMPORARILY", "types": ["school", "point_of_interest", "establishment"], "icon": "https://maps.gstatic.com/mapfiles/place_api/icons/v1/png_71/school-71.png"}, {"rating": 4, "user_ratings_total": 2, "permanently_closed": true, "name": "Najmul School Boy", "reference": "ChIJRaOk1l09DTkR15kWWqdWoyA", "geometry": {"location": {"lat": 28.4114548, "lng": 76.9898336}, "viewport": {"northeast": {"lat": 28.4128108802915, "lng": 76.99105163029151}, "southwest": {"lat": 28.4101129197085, "lng": 76.98835366970849}}}, "place_id": "ChIJRaOk1l09DTkR15kWWqdWoyA", "plus_code": {"global_code": "7JWRCX6Q+HW", "compound_code": "CX6Q+HW Gurugram, Haryana, India"}, "vicinity": "Gurugram, Muhammadpur, Sector 36, Gurugram", "photos": [{"photo_reference": "CmRZAAAAVfvB3VR8hjC-OCRTCeYiYKwL0qMtQiLRdeIzrNQMFRRqswgC7KEYeKCFAVPDqrIrtY-qVkfmxER2MVI37g3fXMI-Z0pp_sDHLxEtE4VObDW_tKQvQOn3O9n7xEHdZJsqEhAwJJJ-DHQfBEsFXdWsLOO2GhRZWgkFAv2O4-bOg_IE4GWHRoVqlw", "width": 1536, "html_attributions": ["<a href=\"https://maps.google.com/maps/contrib/107877221576977289417\">Najmul Ji</a>"], "height": 2048}], "scope": "GOOGLE", "business_status": "CLOSED_TEMPORARILY", "types": ["school", "point_of_interest", "establishment"], "icon": "https://maps.gstatic.com/mapfiles/place_api/icons/v1/png_71/school-71.png"}, {"rating": 4.5, "user_ratings_total": 2, "permanently_closed": true, "name": "Najmul Friend", "reference": "ChIJD8Ck1l09DTkRjNjhv7acp9A", "geometry": {"location": {"lat": 28.411913, "lng": 76.989828}, "viewport": {"northeast": {"lat": 28.4132827302915, "lng": 76.9910927802915}, "southwest": {"lat": 28.4105847697085, "lng": 76.98839481970849}}}, "place_id": "ChIJD8Ck1l09DTkRjNjhv7acp9A", "plus_code": {"global_code": "7JWRCX6Q+QW", "compound_code": "CX6Q+QW Gurugram, Haryana, India"}, "vicinity": "Gurugram, Muhammadpur, Sector 36, Gurugram", "photos": [{"photo_reference": "CmRZAAAARuSwEsOCoNTQQvqqIk_C1ddGlFQMsRuAzCqqzWMHZwnGKvNKlC2R-mvaWu-s3YObi5nB5gfa2uqdu6MB8K01aRTDkP1Qlb44BuDnB1cYGAeRuTChbExH-LCWhw1Ou2MnEhCsIFjVxsonZnUXRz5tVEOTGhQTn7GxCQGNnAQ5C5Dc9ymf02g3Cw", "width": 2448, "html_attributions": ["<a href=\"https://maps.google.com/maps/contrib/107877221576977289417\">Najmul Ji</a>"], "height": 3264}], "scope": "GOOGLE", "business_status": "CLOSED_TEMPORARILY", "types": ["school", "point_of_interest", "establishment"], "icon": "https://maps.gstatic.com/mapfiles/place_api/icons/v1/png_71/school-71.png"}, {"rating": 3, "user_ratings_total": 2, "permanently_closed": true, "name": "H.D Public School", "reference": "ChIJm8aXbBI9DTkR6MMCQtNmrm4", "geometry": {"location": {"lat": 28.4117316, "lng": 76.9903197}, "viewport": {"northeast": {"lat": 28.4131631302915, "lng": 76.9917840802915}, "southwest": {"lat": 28.4104651697085, "lng": 76.98908611970849}}}, "place_id": "ChIJm8aXbBI9DTkR6MMCQtNmrm4", "plus_code": {"global_code": "7JWRCX6R+M4", "compound_code": "CX6R+M4 Gurugram, Haryana, India"}, "vicinity": "Narshingpur, Sector 35, Gurugram", "photos": [{"photo_reference": "CmRaAAAAY6d4wtSz0Fj_UD6IOiP0hJROC9NWGKQ0yx5HJzqtBqd4tnU8KpPDjlRTyRQ167OwTlJw8oiWt-FXET2YOrCymKTGOlPFIebM4E6__R0asCIy1BfsNXTuvofwu1Ngc7u2EhB7ctdwPNZpiC4a7fpDnECSGhRnsIEUaVqh3bBIem-VX6OiKgsT8A", "width": 960, "html_attributions": ["<a href=\"https://maps.google.com/maps/contrib/100584819746271230453\">Satendra Singh</a>"], "height": 1280}], "scope": "GOOGLE", "business_status": "CLOSED_TEMPORARILY", "types": ["school", "point_of_interest", "establishment"], "icon": "https://maps.gstatic.com/mapfiles/place_api/icons/v1/png_71/school-71.png"}, {"permanently_closed": true, "name": "Dj School", "reference": "ChIJxTDbsm49DTkR15_BBXhUjsI", "geometry": {"location": {"lat": 28.4007846, "lng": 76.9815057}, "viewport": {"northeast": {"lat": 28.4021340802915, "lng": 76.9827382802915}, "southwest": {"lat": 28.3994361197085, "lng": 76.9800403197085}}}, "place_id": "ChIJxTDbsm49DTkR15_BBXhUjsI", "plus_code": {"global_code": "7JWRCX2J+8J", "compound_code": "CX2J+8J Gurugram, Haryana, India"}, "vicinity": "Gurugram, Kherki Daula, Sector 84, Gurugram", "scope": "GOOGLE", "business_status": "CLOSED_TEMPORARILY", "types": ["school", "point_of_interest", "establishment"], "icon": "https://maps.gstatic.com/mapfiles/place_api/icons/v1/png_71/school-71.png"}]}