{"status": "OK", "next_page_token": "CqQCGAEAAPbWveTPmMi8dd5__d6BGV0y7vq47zI7PC_-wdmXQj5biC6ZQrSyqLFMwDY7ubFQN0tUjwcayYsHmWSu1LJbWxBbBtkSlILR7B6T9n8hyqnoYVBX-62fodzgojul7-oiHvHOV4kGw6U3Phf9k0jwDiOfCENTbe7UfY3zBb7rum10vTXYlBW3wb4yglRVm79JH5Q2t9_RPCBCFBLrDkOnaFUuUTvPR-q24DAA2DwAdhBZheBuStDioy4obwDE4UB8gj7Eg5ntP1jIGjNynZRTYytEV7QisePYZDa1q4v3t5W04V0f2rfp7VHVSn7qXHK7-0vkiljdOY-jF49MuPtt1oJDErxelEDQFUJUv50KzPRAKQJIQHIJm79MIQFf2X_snhIQQ_jv9dtPnrGZsOKxWMP01hoUa74OCtM8uPzR3c8kDJknwBGB8DQ", "html_attributions": [], "results": [{"rating": 4.1, "user_ratings_total": 152, "name": "K.R.Mangalam World School", "reference": "ChIJKWNunPoYDTkR7idDRD471Co", "geometry": {"location": {"lat": 28.4609413, "lng": 77.06672379999999}, "viewport": {"northeast": {"lat": 28.4622144802915, "lng": 77.0681800302915}, "southwest": {"lat": 28.4595165197085, "lng": 77.06548206970848}}}, "opening_hours": {"open_now": false}, "place_id": "ChIJKWNunPoYDTkR7idDRD471Co", "plus_code": {"global_code": "7JWVF368+9M", "compound_code": "F368+9M Gurugram, Haryana, India"}, "vicinity": "E - Block, South City I, Sector 41, Gurugram", "photos": [{"photo_reference": "CmRaAAAAbXMrcsVgBu8Hnc4cWGKm6fixrQynhvUwrWzRASo75BJyZ80hlXaPTFAYtvXC1K5ReHso0aS8NeyDdPp71S5z3KlnNNxOpe_yDXMW5LiAXULcm4xPP-17dY3MuhTgy5XGEhAFs1hLI9KsPeR1TwoaGrE7GhQKAV3t751V2PtgK9L-0NiEOJHbQA", "width": 4000, "html_attributions": ["<a href=\"https://maps.google.com/maps/contrib/107252927841700552545\">K.R. Mangalam University</a>"], "height": 2250}], "scope": "GOOGLE", "business_status": "OPERATIONAL", "types": ["school", "point_of_interest", "establishment"], "icon": "https://maps.gstatic.com/mapfiles/place_api/icons/v1/png_71/school-71.png"}, {"rating": 4.9, "user_ratings_total": 25, "name": "The Sixth Element School", "reference": "ChIJA69rVfgYDTkRB5jK8rNgd_4", "geometry": {"location": {"lat": 28.4634782, "lng": 77.06067569999999}, "viewport": {"northeast": {"lat": 28.46476773029151, "lng": 77.0619747802915}, "southwest": {"lat": 28.4620697697085, "lng": 77.05927681970849}}}, "opening_hours": {"open_now": true}, "place_id": "ChIJA69rVfgYDTkRB5jK8rNgd_4", "plus_code": {"global_code": "7JWVF376+97", "compound_code": "F376+97 Gurugram, Haryana, India"}, "vicinity": "A-B Block Road Near Signature Towers, South City I, B Block, Gurugram", "photos": [{"photo_reference": "CmRaAAAAyoHOSojO5C2q-LxCFCC59PxV0df1MoJ1TWCksQ7VwcBy3Xj9z_2wmU0BilAgsl8AZw4DsTNZXTNO0RHP5C3iH545bVyav2LkSt3BmcIb8VGKVRpeUQO0UYKJxTfmf-soEhCXI9NFR6rRyWSpixpdNV9xGhSF6QoHyTiznoU4-wFSSaCJ40u3ng", "width": 640, "html_attributions": ["<a href=\"https://maps.google.com/maps/contrib/103130397397174916771\">Paras Gupta</a>"], "height": 478}], "scope": "GOOGLE", "business_status": "OPERATIONAL", "types": ["school", "point_of_interest", "establishment"], "icon": "https://maps.gstatic.com/mapfiles/place_api/icons/v1/png_71/school-71.png"}, {"rating": 5, "user_ratings_total": 1, "permanently_closed": true, "name": "State Bank", "reference": "ChIJ7SZAwI0ZDTkR-ILIAlmN9aA", "geometry": {"location": {"lat": 28.4692678, "lng": 77.0561434}, "viewport": {"northeast": {"lat": 28.4704633302915, "lng": 77.0576254802915}, "southwest": {"lat": 28.4677653697085, "lng": 77.0549275197085}}}, "place_id": "ChIJ7SZAwI0ZDTkR-ILIAlmN9aA", "plus_code": {"global_code": "7JWVF394+PF", "compound_code": "F394+PF Choma, India"}, "vicinity": "Carterpuri Road, Carterpuri Village, Sector 23A, Choma", "scope": "GOOGLE", "business_status": "CLOSED_TEMPORARILY", "types": ["school", "point_of_interest", "establishment"], "icon": "https://maps.gstatic.com/mapfiles/place_api/icons/v1/png_71/school-71.png"}, {"rating": 3.8, "user_ratings_total": 6, "permanently_closed": true, "name": "Parthenon", "reference": "ChIJ4-tsTQAZDTkRXeHUOjpYhkQ", "geometry": {"location": {"lat": 28.4726043, "lng": 77.0592279}, "viewport": {"northeast": {"lat": 28.4739741802915, "lng": 77.0605547302915}, "southwest": {"lat": 28.4712762197085, "lng": 77.0578567697085}}}, "place_id": "ChIJ4-tsTQAZDTkRXeHUOjpYhkQ", "plus_code": {"global_code": "7JWVF3F5+2M", "compound_code": "F3F5+2M Gurugram, Haryana, India"}, "vicinity": "Block C, Harjan Basti, Sector 17, Gurugram", "scope": "GOOGLE", "business_status": "CLOSED_TEMPORARILY", "types": ["school", "point_of_interest", "establishment"], "icon": "https://maps.gstatic.com/mapfiles/place_api/icons/v1/png_71/school-71.png"}, {"permanently_closed": true, "name": "Excellence Institute Of Management & Technology", "reference": "ChIJt23MCgQZDTkRpxp0ieDmA9w", "geometry": {"location": {"lat": 28.476822, "lng": 77.063626}, "viewport": {"northeast": {"lat": 28.4780811802915, "lng": 77.0649925302915}, "southwest": {"lat": 28.4753832197085, "lng": 77.06229456970848}}}, "place_id": "ChIJt23MCgQZDTkRpxp0ieDmA9w", "plus_code": {"global_code": "7JWVF3G7+PF", "compound_code": "F3G7+PF Gurugram, Haryana, India"}, "vicinity": "B-1A, Hari Chamber, Mehrauli-Gurgaon Road, Sukhrali, Sector 17, Gurugram", "scope": "GOOGLE", "business_status": "CLOSED_TEMPORARILY", "types": ["school", "point_of_interest", "establishment"], "icon": "https://maps.gstatic.com/mapfiles/place_api/icons/v1/png_71/school-71.png"}, {"permanently_closed": true, "name": "Advanced Maritime Training Institute", "reference": "ChIJg8VGUwcZDTkR51X1i6ZFfE8", "geometry": {"location": {"lat": 28.4761214, "lng": 77.0568813}, "viewport": {"northeast": {"lat": 28.4775033302915, "lng": 77.05820373029151}, "southwest": {"lat": 28.47480536970849, "lng": 77.0555057697085}}}, "place_id": "ChIJg8VGUwcZDTkR51X1i6ZFfE8", "plus_code": {"global_code": "7JWVF3G4+CQ", "compound_code": "F3G4+CQ Faridabad, Haryana, India"}, "vicinity": "78, Floor,, Service Road Parallel to Mathura Road for Sector 15A, Nehru Ground, Sector 15A, Faridabad", "scope": "GOOGLE", "business_status": "CLOSED_TEMPORARILY", "types": ["school", "point_of_interest", "establishment"], "icon": "https://maps.gstatic.com/mapfiles/place_api/icons/v1/png_71/school-71.png"}, {"rating": 4.5, "user_ratings_total": 15, "name": "Lyceum", "reference": "ChIJAQAAAAcZDTkRQ7D9nDdgPXk", "geometry": {"location": {"lat": 28.4791609, "lng": 77.0593246}, "viewport": {"northeast": {"lat": 28.4805182302915, "lng": 77.06068863029151}, "southwest": {"lat": 28.4778202697085, "lng": 77.05799066970849}}}, "place_id": "ChIJAQAAAAcZDTkRQ7D9nDdgPXk", "vicinity": "20, Vikranth Shastri Marg, Sukhrali, Sector 17, Gurugram", "scope": "GOOGLE", "business_status": "OPERATIONAL", "types": ["school", "point_of_interest", "establishment"], "icon": "https://maps.gstatic.com/mapfiles/place_api/icons/v1/png_71/school-71.png"}, {"rating": 4.8, "user_ratings_total": 28, "name": "Chemistry Tuition", "reference": "ChIJWySo2AQZDTkRag42rYNuwLg", "geometry": {"location": {"lat": 28.4781899, "lng": 77.0609932}, "viewport": {"northeast": {"lat": 28.47953728029151, "lng": 77.0623096302915}, "southwest": {"lat": 28.4768393197085, "lng": 77.05961166970849}}}, "opening_hours": {"open_now": true}, "place_id": "ChIJWySo2AQZDTkRag42rYNuwLg", "plus_code": {"global_code": "7JWVF3H6+79", "compound_code": "F3H6+79 Gurugram, Haryana, India"}, "vicinity": "SCO-81, Sector 17-B, Block B, IFFCO Colony, Sector 17, Gurugram", "photos": [{"photo_reference": "CmRaAAAAb1VgvdqNzLr1TpFNCkkZErx8FkTN9OuYfJbDBev-MWqDX_h9G7zvMWfsG2VRR4dkmnasxecV4-njUNFYkKNgtoQl6J4Oq8RV-f-RoVz0wKUSZ5-T64f3NRCJDHqyybH9EhC3ZpNbf-kc_AM4oE6sSI3tGhQS4csPGLrFrjovY1yupXupfkNc-A", "width": 1200, "html_attributions": ["<a href=\"https://maps.google.com/maps/contrib/117261996806718205548\">Chemistry Tuition</a>"], "height": 673}], "scope": "GOOGLE", "business_status": "OPERATIONAL", "types": ["school", "point_of_interest", "establishment"], "icon": "https://maps.gstatic.com/mapfiles/place_api/icons/v1/png_71/school-71.png"}, {"permanently_closed": true, "name": "Passionotes", "reference": "ChIJT1oP0zAYDTkR9q9fKck5tws", "geometry": {"location": {"lat": 28.4621211, "lng": 77.06409169999999}, "viewport": {"northeast": {"lat": 28.4635560302915, "lng": 77.06548293029151}, "southwest": {"lat": 28.4608580697085, "lng": 77.0627849697085}}}, "place_id": "ChIJT1oP0zAYDTkR9q9fKck5tws", "plus_code": {"global_code": "7JWVF367+RJ", "compound_code": "F367+RJ Gurugram, Haryana, India"}, "vicinity": "Ivory Towers, 504, The Retreat, Southcity 1, Roshan Pura, Gurugram", "scope": "GOOGLE", "business_status": "CLOSED_TEMPORARILY", "types": ["electronics_store", "home_goods_store", "school", "point_of_interest", "store", "establishment"], "icon": "https://maps.gstatic.com/mapfiles/place_api/icons/v1/png_71/school-71.png"}, {"rating": 3.9, "user_ratings_total": 53, "name": "Gyan Devi Public School Sr. Secondary", "reference": "ChIJq6qq7QYZDTkRmfpxqYYa_FE", "geometry": {"location": {"lat": 28.4797921, "lng": 77.0569446}, "viewport": {"northeast": {"lat": 28.4811409802915, "lng": 77.0583160802915}, "southwest": {"lat": 28.4784430197085, "lng": 77.05561811970848}}}, "place_id": "ChIJq6qq7QYZDTkRmfpxqYYa_FE", "plus_code": {"global_code": "7JWVF3H4+WQ", "compound_code": "F3H4+WQ Gurugram, Haryana, India"}, "vicinity": "Sector 17A, Gurugram", "photos": [{"photo_reference": "CmRaAAAAw3PKPgmbCIe5odp-90_Mi9pkKb8DU4xJowr_CCNGnUCn3FPXddMvE5nZauLDTlu9vDJmXm-fDGlq33WdbtW8cnmtRw_ddTXRsLEBqg7cySj0Ngwd9vsQF6oZENyhUaCeEhBrmwO5OrOlVfZ9lWO2m-a8GhTs7cAg6SBK1X-sWUq3jrMTDnASSg", "width": 4000, "html_attributions": ["<a href=\"https://maps.google.com/maps/contrib/118140711867488725757\">Deepam Jain</a>"], "height": 1824}], "scope": "GOOGLE", "business_status": "OPERATIONAL", "types": ["school", "point_of_interest", "establishment"], "icon": "https://maps.gstatic.com/mapfiles/place_api/icons/v1/png_71/school-71.png"}, {"rating": 4.7, "user_ratings_total": 15, "name": "Medhaam Pre School & Daycare", "reference": "ChIJDyk7FPoYDTkRsWpP57IxlRA", "geometry": {"location": {"lat": 28.460742, "lng": 77.063273}, "viewport": {"northeast": {"lat": 28.4621432802915, "lng": 77.06461793029149}, "southwest": {"lat": 28.4594453197085, "lng": 77.06191996970848}}}, "opening_hours": {"open_now": true}, "place_id": "ChIJDyk7FPoYDTkRsWpP57IxlRA", "plus_code": {"global_code": "7JWVF367+78", "compound_code": "F367+78 Gurugram, Haryana, India"}, "vicinity": "C Block Road, South City I, Gurugram", "photos": [{"photo_reference": "CmRaAAAAUReT5ow496WsFCkiyx2J0ySZQsZpjx3MtRAE-Upg9OqOmEvX_b0j8RUdCfZMy88xQbD7w3raqpGKlj9qTih1bzdl1aAOkHnO7NPD2V0Re0CH31viMZahGrFwe8Zrpd47EhBdJrokj78t8nCwd2sfiVuvGhSPHwE-65aLdcw62lhFJCtAas_jeg", "width": 960, "html_attributions": ["<a href=\"https://maps.google.com/maps/contrib/100170276057107187895\">Medhaam Pre School &amp; Daycare</a>"], "height": 640}], "scope": "GOOGLE", "business_status": "OPERATIONAL", "types": ["school", "point_of_interest", "establishment"], "icon": "https://maps.gstatic.com/mapfiles/place_api/icons/v1/png_71/school-71.png"}, {"rating": 5, "user_ratings_total": 4, "name": "Economics, Accounts, Business Classes | Tuition | Spanish Language Classes | Commerce Study Center", "reference": "ChIJEQDkhwYZDTkRhsnQ6H8bLBQ", "geometry": {"location": {"lat": 28.479309, "lng": 77.0613426}, "viewport": {"northeast": {"lat": 28.4806635802915, "lng": 77.0627058802915}, "southwest": {"lat": 28.4779656197085, "lng": 77.0600079197085}}}, "opening_hours": {"open_now": true}, "place_id": "ChIJEQDkhwYZDTkRhsnQ6H8bLBQ", "plus_code": {"global_code": "7JWVF3H6+PG", "compound_code": "F3H6+PG Gurugram, Haryana, India"}, "vicinity": "586, Sector 17A, Sector 17, Gurugram", "photos": [{"photo_reference": "CmRaAAAAX13nmgPaGlOUiH7TMDoosUG9kXcS4kol_rrlIKsvZngycWWjfTLaGTY7JyNqq-EVyITbcBWi0gxLwgUYT-K9REur5sziRKbSoD2pFH49ix_-_FvFuP1D-TcMvkqfNZhBEhCyM08P5kntKZAHmSWzVH7vGhR5yKqUYPmrJdAJ14Ihn_T2NVgPjA", "width": 1000, "html_attributions": ["<a href=\"https://maps.google.com/maps/contrib/117963638117817873280\">Economics, Accounts, Business Classes | Tuition | Spanish Language Classes | Commerce Study Center</a>"], "height": 750}], "scope": "GOOGLE", "business_status": "OPERATIONAL", "types": ["university", "school", "point_of_interest", "establishment"], "icon": "https://maps.gstatic.com/mapfiles/place_api/icons/v1/png_71/school-71.png"}, {"rating": 3.3, "user_ratings_total": 4, "permanently_closed": true, "name": "Pune Hobby Guitar Class", "reference": "ChIJrdBpicYYDTkRb_WB5ui7f4Q", "geometry": {"location": {"lat": 28.4770923, "lng": 77.0566937}, "viewport": {"northeast": {"lat": 28.4783402302915, "lng": 77.05811113029151}, "southwest": {"lat": 28.4756422697085, "lng": 77.05541316970849}}}, "place_id": "ChIJrdBpicYYDTkRb_WB5ui7f4Q", "plus_code": {"global_code": "7JWVF3G4+RM", "compound_code": "F3G4+RM Gurugram, Haryana, India"}, "vicinity": "189, Vikranth Shastri Marg, Sector 17, Gurugram", "scope": "GOOGLE", "business_status": "CLOSED_TEMPORARILY", "types": ["school", "point_of_interest", "establishment"], "icon": "https://maps.gstatic.com/mapfiles/place_api/icons/v1/png_71/school-71.png"}, {"permanently_closed": true, "name": "PLANET KIDS", "reference": "ChIJVVVVVVUWDTkRD2fhcgmMCEw", "geometry": {"location": {"lat": 28.4786064, "lng": 77.053568}, "viewport": {"northeast": {"lat": 28.4798329802915, "lng": 77.05508688029151}, "southwest": {"lat": 28.4771350197085, "lng": 77.05238891970849}}}, "place_id": "ChIJVVVVVVUWDTkRD2fhcgmMCEw", "vicinity": "Planetkids House E-153 Sushant Lock, Gurugram", "scope": "GOOGLE", "business_status": "CLOSED_TEMPORARILY", "types": ["school", "point_of_interest", "establishment"], "icon": "https://maps.gstatic.com/mapfiles/place_api/icons/v1/png_71/school-71.png"}, {"rating": 3, "user_ratings_total": 1, "permanently_closed": true, "name": "FITNESS 365 - SECTOR 54 GURGAON", "reference": "ChIJj9Tw_6gZDTkRjuMisrNSidU", "geometry": {"location": {"lat": 28.478659, "lng": 77.053545}, "viewport": {"northeast": {"lat": 28.4798592802915, "lng": 77.0550753802915}, "southwest": {"lat": 28.4771613197085, "lng": 77.05237741970849}}}, "place_id": "ChIJj9Tw_6gZDTkRjuMisrNSidU", "vicinity": "Sukhrali Enclave, Sector 17, Gurugram", "photos": [{"photo_reference": "CmRaAAAAzxFCsDTSdCBlpMplBXx4HQvnAEcDhu2R1Q_Lf5eWvFYKH_er8lXerS3skyywsJbVc-0v_oygGfBkiEVi4RxM1M8Jtyek15e37nCs0FynAKULZ3tfgEoCXbKYyiPFPsrCEhBZhJwqi9JLueY8Gele33fBGhSIzW0aA5NVgPrxCRwSMz53JOf8gQ", "width": 600, "html_attributions": ["<a href=\"https://maps.google.com/maps/contrib/107322035471249078898\">FITNESS 365 - SECTOR 54 GURGAON</a>"], "height": 488}], "scope": "GOOGLE", "business_status": "CLOSED_TEMPORARILY", "types": ["school", "gym", "health", "point_of_interest", "establishment"], "icon": "https://maps.gstatic.com/mapfiles/place_api/icons/v1/png_71/school-71.png"}, {"rating": 4.4, "user_ratings_total": 213, "name": "DAV Public School, Sector 14, Gurugram", "reference": "ChIJWy0PQ6kZDTkR3C6UNZBPFOc", "geometry": {"location": {"lat": 28.4763452, "lng": 77.0511892}, "viewport": {"northeast": {"lat": 28.4779039802915, "lng": 77.05232633029149}, "southwest": {"lat": 28.47520601970849, "lng": 77.04962836970849}}}, "place_id": "ChIJWy0PQ6kZDTkR3C6UNZBPFOc", "plus_code": {"global_code": "7JWVF3G2+GF", "compound_code": "F3G2+GF Gurugram, Haryana, India"}, "vicinity": "Sector 14, Gurugram", "photos": [{"photo_reference": "CmRaAAAAE9PTsCFVEDKy7C80lBy4NZCoQTDeG9uzxgC-OG6VT6UPjKr4Tu9qdU5ngSIkg1DLru04r6h6v4Aem-LXyHysrHgYIBBiyE8S6YDw2VE48DoM7PGAoH0daf6Mm5uij4nqEhCCKnig4J7hiiTDhI1fVSg6GhRgEjtNJOfPyz7zP-0JizHQCs3CcA", "width": 3264, "html_attributions": ["<a href=\"https://maps.google.com/maps/contrib/116587969152818827037\">Amol Adhav</a>"], "height": 2448}], "scope": "GOOGLE", "business_status": "OPERATIONAL", "types": ["school", "point_of_interest", "establishment"], "icon": "https://maps.gstatic.com/mapfiles/place_api/icons/v1/png_71/school-71.png"}, {"permanently_closed": true, "name": "The tree House Playgroup Nursery & Daycare", "reference": "ChIJl9OOgWQXDTkR1FTmk06cy-c", "geometry": {"location": {"lat": 28.4612875, "lng": 77.0657064}, "viewport": {"northeast": {"lat": 28.4627372802915, "lng": 77.06692548029152}, "southwest": {"lat": 28.4600393197085, "lng": 77.0642275197085}}}, "place_id": "ChIJl9OOgWQXDTkR1FTmk06cy-c", "plus_code": {"global_code": "7JWVF368+G7", "compound_code": "F368+G7 Gurugram, Haryana, India"}, "vicinity": "H. No. 1001, Phase-II, Laxman Vihar, Sector 3A, Gurugram", "photos": [{"photo_reference": "CmRaAAAAQPgXp4bgnViAD5mcbYk0q6nSVjycDzLDgAKeTBY9Qxv5iBlIH6z-S9E3cG624594n-jct8Iqvb0BeGbbtF2iESyuflHSHWXcEizxj-g9MDjq5Q8ctXKY06LKyvNVkBVVEhDQtLLyI6CBqlS0tTmfLFhXGhTIZvFM3aevtHjt9L5TRvD4V0U_Iw", "width": 1635, "html_attributions": ["<a href=\"https://maps.google.com/maps/contrib/107827768027321132466\">The tree House Playgroup Nursery &amp; Daycare</a>"], "height": 919}], "scope": "GOOGLE", "business_status": "CLOSED_TEMPORARILY", "types": ["school", "point_of_interest", "establishment"], "icon": "https://maps.gstatic.com/mapfiles/place_api/icons/v1/png_71/school-71.png"}, {"rating": 4.8, "user_ratings_total": 4, "permanently_closed": true, "name": "Phulwari Kidz Play School", "reference": "ChIJf_FJF6kZDTkRRibAWI0vYr8", "geometry": {"location": {"lat": 28.4776809, "lng": 77.0523748}, "viewport": {"northeast": {"lat": 28.4789424802915, "lng": 77.0535878302915}, "southwest": {"lat": 28.4762445197085, "lng": 77.0508898697085}}}, "place_id": "ChIJf_FJF6kZDTkRRibAWI0vYr8", "plus_code": {"global_code": "7JWVF3H2+3W", "compound_code": "F3H2+3W Gurugram, Haryana, India"}, "vicinity": "Phulwari Kidz, Sector 17 Near Kataria Chowk, Gurugram", "photos": [{"photo_reference": "CmRaAAAApJ960Ot_xvStmezHyuYg1mlUUyzSkXoPEQ7wdrQ0dFtFWdnCah9Tw5NQzO1WfZRslKpo9EQaSes1Q8CRuSR8akQigsLVZ9yBMsd1b5n5iVDjoWCTP172qb6abAHpopk5EhA66-tmirTfx8Qn6ZIWUTyiGhQBcM728e0lUV9-WhmiEdoZ7oppjA", "width": 6000, "html_attributions": ["<a href=\"https://maps.google.com/maps/contrib/113985623976782845688\">PHULWARI KIDZ</a>"], "height": 4000}], "scope": "GOOGLE", "business_status": "CLOSED_TEMPORARILY", "types": ["school", "point_of_interest", "establishment"], "icon": "https://maps.gstatic.com/mapfiles/place_api/icons/v1/png_71/school-71.png"}, {"rating": 4.9, "user_ratings_total": 7, "name": "Tatva K Entertainment", "reference": "ChIJG-HilzwZDTkR5DkeFj8_Zt8", "geometry": {"location": {"lat": 28.4730696, "lng": 77.0715374}, "viewport": {"northeast": {"lat": 28.4747625302915, "lng": 77.07294093029151}, "southwest": {"lat": 28.4720645697085, "lng": 77.0702429697085}}}, "opening_hours": {"open_now": true}, "place_id": "ChIJG-HilzwZDTkR5DkeFj8_Zt8", "plus_code": {"global_code": "7JWVF3FC+6J", "compound_code": "F3FC+6J Gurugram, Haryana, India"}, "vicinity": "L-3/29, Basement, DLF Phase 2, Sector 29, Gurugram", "photos": [{"photo_reference": "CmRaAAAAf6KhMVK7qdaayfqwXx36HY6yUWOH2ScZg_aH23INkPz2_JiVMDXoV1oNNAa1i183184w_opXXtjcof3FhvDPhpQICBQrXD4ic-WKB9-wUgi_eusFvdd9Iuh9izV-8CgSEhDJCOhsYcGbiIfJJLocTTo5GhR7oJ4VOi0p3SiqPOkKlTRP-V4UNg", "width": 1280, "html_attributions": ["<a href=\"https://maps.google.com/maps/contrib/116770844635413850001\">Tatva K Entertainment</a>"], "height": 853}], "scope": "GOOGLE", "business_status": "OPERATIONAL", "types": ["electronics_store", "home_goods_store", "school", "point_of_interest", "store", "establishment"], "icon": "https://maps.gstatic.com/mapfiles/place_api/icons/v1/png_71/shopping-71.png"}, {"rating": 3.5, "user_ratings_total": 2, "permanently_closed": true, "name": "Old Rotary Public School careers", "reference": "ChIJUVvoQwYZDTkRjckHLrdzqXc", "geometry": {"location": {"lat": 28.4802964, "lng": 77.0604853}, "viewport": {"northeast": {"lat": 28.48171828029151, "lng": 77.0619774802915}, "southwest": {"lat": 28.4790203197085, "lng": 77.05927951970848}}}, "place_id": "ChIJUVvoQwYZDTkRjckHLrdzqXc", "plus_code": {"global_code": "7JWVF3J6+45", "compound_code": "F3J6+45 Gurugram, Haryana, India"}, "vicinity": "Rotary Public School, Sector 17A, Sector 17, Gurugram", "photos": [{"photo_reference": "CmRaAAAA-xq4MthNIamuBLPJFERuRHEKrsUqRG2TyONfflKQAPTybphNem2j4mJqYBBteDiwkeHJXGtoWDGYiY0DgH3QwF8ASSZHzVPzziJ94-HWi9PCiQZd4KjZWEdIZETUl8dHEhAfpGRbRo36m9VkUw6B9afOGhSI8M6yK99QMYDN1DD-gfXKfaxxYw", "width": 2448, "html_attributions": ["<a href=\"https://maps.google.com/maps/contrib/113759366332371220181\">vijay kumar</a>"], "height": 3264}], "scope": "GOOGLE", "business_status": "CLOSED_TEMPORARILY", "types": ["school", "point_of_interest", "establishment"], "icon": "https://maps.gstatic.com/mapfiles/place_api/icons/v1/png_71/school-71.png"}]}