{"status": "OK", "html_attributions": [], "results": [{"rating": 3.3, "user_ratings_total": 3, "name": "Vidyasagar Institute Primary School", "reference": "ChIJqVbFc_ud-DkR8q0Y7wd8m0s", "geometry": {"location": {"lat": 22.6213092, "lng": 88.39579739999999}, "viewport": {"northeast": {"lat": 22.6226668802915, "lng": 88.3971041802915}, "southwest": {"lat": 22.6199689197085, "lng": 88.3944062197085}}}, "place_id": "ChIJqVbFc_ud-DkR8q0Y7wd8m0s", "plus_code": {"global_code": "7MJCJ9CW+G8", "compound_code": "J9CW+G8 South Dumdum, West Bengal, India"}, "vicinity": "105/65, Jheel Bagan, South Dumdum", "photos": [{"photo_reference": "ATtYBwLHaE2VfunqVAZfy5eLTpV5A_1snKWVAWbENMzYR3Xf9GMwFA0gZ4C56dORDZLgDAb3Ta2FXD2bbJ5jS7l5WrtpC2whcMYoXcvT70Yn8XFAOUNBzQM2aUpI1fh6FVpv5KR1kaW9udQTDUZCKw91eiAeV8C4dHWTn7ligUrxA6xQpgSI", "width": 4608, "html_attributions": ["<a href=\"https://maps.google.com/maps/contrib/101081527321687437372\">Bikash Jit Kotwar</a>"], "height": 3456}], "scope": "GOOGLE", "business_status": "OPERATIONAL", "types": ["primary_school", "school", "point_of_interest", "establishment"], "icon": "https://maps.gstatic.com/mapfiles/place_api/icons/v1/png_71/school-71.png"}, {"rating": 3, "user_ratings_total": 1, "name": "Nalkora Primary School", "reference": "ChIJvWg1xwCe-DkR0tvk6twfCPU", "geometry": {"location": {"lat": 22.6168099, "lng": 88.402895}, "viewport": {"northeast": {"lat": 22.6181512302915, "lng": 88.40432393029151}, "southwest": {"lat": 22.6154532697085, "lng": 88.4016259697085}}}, "place_id": "ChIJvWg1xwCe-DkR0tvk6twfCPU", "plus_code": {"global_code": "7MJCJC83+P5", "compound_code": "JC83+P5 Kolkata, West Bengal, India"}, "vicinity": "", "scope": "GOOGLE", "business_status": "OPERATIONAL", "types": ["primary_school", "school", "point_of_interest", "establishment"], "icon": "https://maps.gstatic.com/mapfiles/place_api/icons/v1/png_71/school-71.png"}, {"name": "BBA", "reference": "ChIJ08RjEPud-DkRFq5TO-5h8VY", "geometry": {"location": {"lat": 22.6223155, "lng": 88.3955409}, "viewport": {"northeast": {"lat": 22.6236620302915, "lng": 88.3969039302915}, "southwest": {"lat": 22.6209640697085, "lng": 88.39420596970848}}}, "place_id": "ChIJ08RjEPud-DkRFq5TO-5h8VY", "plus_code": {"global_code": "7MJCJ9CW+W6", "compound_code": "J9CW+W6 South Dumdum, West Bengal, India"}, "vicinity": "Jheel Bagan, South Dumdum", "scope": "GOOGLE", "business_status": "OPERATIONAL", "types": ["primary_school", "secondary_school", "school", "point_of_interest", "establishment"], "icon": "https://maps.gstatic.com/mapfiles/place_api/icons/v1/png_71/school-71.png"}, {"name": "Laxmi Nagar Primary School", "reference": "ChIJOzMBbASf-DkRHwH67qpzrQg", "geometry": {"location": {"lat": 22.6247144, "lng": 88.4060406}, "viewport": {"northeast": {"lat": 22.6261350802915, "lng": 88.40736093029152}, "southwest": {"lat": 22.6234371197085, "lng": 88.4046629697085}}}, "place_id": "ChIJOzMBbASf-DkRHwH67qpzrQg", "plus_code": {"global_code": "7MJCJCF4+VC", "compound_code": "JCF4+VC South Dumdum, West Bengal, India"}, "vicinity": "Laxmi Nagar, South Dumdum", "scope": "GOOGLE", "business_status": "OPERATIONAL", "types": ["primary_school", "school", "point_of_interest", "establishment"], "icon": "https://maps.gstatic.com/mapfiles/place_api/icons/v1/png_71/school-71.png"}, {"name": "Happy Home Primary School", "reference": "ChIJbwIjT_Cd-DkRr2M6BoTFE8A", "geometry": {"location": {"lat": 22.6198197, "lng": 88.3914762}, "viewport": {"northeast": {"lat": 22.6211111802915, "lng": 88.3929908302915}, "southwest": {"lat": 22.6184132197085, "lng": 88.39029286970849}}}, "place_id": "ChIJbwIjT_Cd-DkRr2M6BoTFE8A", "plus_code": {"global_code": "7MJCJ99R+WH", "compound_code": "J99R+WH Kolkata, West Bengal, India"}, "vicinity": "1/F/A, South Sinthee Road, Satpukur, Kolkata", "scope": "GOOGLE", "business_status": "OPERATIONAL", "types": ["primary_school", "school", "point_of_interest", "establishment"], "icon": "https://maps.gstatic.com/mapfiles/place_api/icons/v1/png_71/school-71.png"}, {"rating": 5, "user_ratings_total": 3, "name": "Sarada Vidyapith \u09b8\u09be\u09b0\u09a6\u09be \u09ac\u09bf\u09a6\u09cd\u09af\u09be\u09aa\u09c0\u09a0", "reference": "ChIJ8YopHgKe-DkRo9pk6RE8E5I", "geometry": {"location": {"lat": 22.6132931, "lng": 88.40642989999999}, "viewport": {"northeast": {"lat": 22.6146367302915, "lng": 88.4077910302915}, "southwest": {"lat": 22.61193876970849, "lng": 88.4050930697085}}}, "opening_hours": {"open_now": false}, "place_id": "ChIJ8YopHgKe-DkRo9pk6RE8E5I", "plus_code": {"global_code": "7MJCJC74+8H", "compound_code": "JC74+8H Kolkata, West Bengal, India"}, "vicinity": "258, Green Park Road, Sarada Pally, Kolkata", "photos": [{"photo_reference": "ATtYBwLldcsGVc7Ikur7PSJTkAIoGN4SaeTB0GYr0N1rb1kCisPMfL6bYkgAYAsuzC9ts6JzZBNt8cuKISw_tEIDv8Tr4OMz-krvAJgn0Ks9v6huxhLB-ccrEIspPZLmI9V_xNpVxD_PACAogj1nCId7_ztfwuOcwA7RPqAcGuFK67_Bn0zU", "width": 3008, "html_attributions": ["<a href=\"https://maps.google.com/maps/contrib/102787331371037412731\">Gora Das</a>"], "height": 2000}], "scope": "GOOGLE", "business_status": "OPERATIONAL", "types": ["primary_school", "school", "point_of_interest", "establishment"], "icon": "https://maps.gstatic.com/mapfiles/place_api/icons/v1/png_71/school-71.png"}, {"rating": 4.2, "user_ratings_total": 22, "name": "Dum Dum Kishore Bharati Primary School", "reference": "ChIJrwRaEwWe-DkRfk6MIT6nN0I", "geometry": {"location": {"lat": 22.6215262, "lng": 88.4101206}, "viewport": {"northeast": {"lat": 22.6228791302915, "lng": 88.4114513302915}, "southwest": {"lat": 22.6201811697085, "lng": 88.40875336970849}}}, "opening_hours": {"open_now": false}, "place_id": "ChIJrwRaEwWe-DkRfk6MIT6nN0I", "plus_code": {"global_code": "7MJCJCC6+J2", "compound_code": "JCC6+J2 Kolkata, West Bengal, India"}, "vicinity": "81, Debinibas Road, Ward Number 22, Motijheel, Dum Dum Motijheel, Dum Dum, Kolkata", "photos": [{"photo_reference": "ATtYBwJV2WlVofR5cpLvfx97mcbD3TrMCLHofmeOyutRl3N5LPk38KSGYFQJGX8BJU6ZLS2_7S3p1ufiWQE95VNZrbw0orGeUCqn9ZyoykLJNhmqNyUzSLeYThpX7tHiWLDcgKEm-_NEYjqWQWwS0H8O1MMbGb5f9dK4zNnj6J057B0V6sUC", "width": 720, "html_attributions": ["<a href=\"https://maps.google.com/maps/contrib/102772447213338546993\">Akash Sarkar</a>"], "height": 540}], "scope": "GOOGLE", "business_status": "OPERATIONAL", "types": ["primary_school", "school", "point_of_interest", "establishment"], "icon": "https://maps.gstatic.com/mapfiles/place_api/icons/v1/png_71/school-71.png"}, {"name": "KMC Primary School", "reference": "ChIJAX_jbPed-DkRa915kpgmsJo", "geometry": {"location": {"lat": 22.6158893, "lng": 88.390576}, "viewport": {"northeast": {"lat": 22.6172330802915, "lng": 88.3920512802915}, "southwest": {"lat": 22.6145351197085, "lng": 88.38935331970849}}}, "place_id": "ChIJAX_jbPed-DkRa915kpgmsJo", "plus_code": {"global_code": "7MJCJ98R+96", "compound_code": "J98R+96 Kolkata, West Bengal, India"}, "vicinity": "6/2C, Bhutnath Pal Road, Paikpara, Kolkata", "scope": "GOOGLE", "business_status": "OPERATIONAL", "types": ["primary_school", "school", "point_of_interest", "establishment"], "icon": "https://maps.gstatic.com/mapfiles/place_api/icons/v1/png_71/school-71.png"}, {"rating": 5, "user_ratings_total": 3, "name": "SIP - Dumdum", "reference": "ChIJTzVaYPyd-DkRPwYHCpS5_X0", "geometry": {"location": {"lat": 22.6200509, "lng": 88.3894981}, "viewport": {"northeast": {"lat": 22.6214005302915, "lng": 88.3908425802915}, "southwest": {"lat": 22.6187025697085, "lng": 88.3881446197085}}}, "opening_hours": {"open_now": false}, "place_id": "ChIJTzVaYPyd-DkRPwYHCpS5_X0", "plus_code": {"global_code": "7MJCJ9CQ+2Q", "compound_code": "J9CQ+2Q Kolkata, West Bengal, India"}, "vicinity": "46, 5, 2, Dum Dum Road, Satpukur, Kolkata", "scope": "GOOGLE", "business_status": "OPERATIONAL", "types": ["primary_school", "school", "point_of_interest", "establishment"], "icon": "https://maps.gstatic.com/mapfiles/place_api/icons/v1/png_71/school-71.png"}, {"rating": 5, "user_ratings_total": 2, "name": "Sishu Bharti Primary School", "reference": "ChIJn8-MSQWe-DkRqEeT7KQlzqY", "geometry": {"location": {"lat": 22.6225639, "lng": 88.4109749}, "viewport": {"northeast": {"lat": 22.6238534302915, "lng": 88.41233083029151}, "southwest": {"lat": 22.6211554697085, "lng": 88.4096328697085}}}, "place_id": "ChIJn8-MSQWe-DkRqEeT7KQlzqY", "plus_code": {"global_code": "7MJCJCF6+29", "compound_code": "JCF6+29 Kolkata, West Bengal, India"}, "vicinity": "Dum Dum Road, Motijheel, Amarpalli, Dum Dum, Kolkata", "scope": "GOOGLE", "business_status": "OPERATIONAL", "types": ["primary_school", "school", "point_of_interest", "establishment"], "icon": "https://maps.gstatic.com/mapfiles/place_api/icons/v1/png_71/school-71.png"}, {"rating": 3, "user_ratings_total": 1, "name": "Primary School", "reference": "ChIJpbneZe-d-DkRzsbiUmK5Wi0", "geometry": {"location": {"lat": 22.6279055, "lng": 88.3913341}, "viewport": {"northeast": {"lat": 22.62925373029151, "lng": 88.39274168029151}, "southwest": {"lat": 22.6265557697085, "lng": 88.3900437197085}}}, "place_id": "ChIJpbneZe-d-DkRzsbiUmK5Wi0", "plus_code": {"global_code": "7MJCJ9HR+5G", "compound_code": "J9HR+5G Kolkata, West Bengal, India"}, "vicinity": "8/1/b, Roy Para Road, Roy Para, Sinthee, Kolkata", "scope": "GOOGLE", "business_status": "OPERATIONAL", "types": ["primary_school", "school", "point_of_interest", "establishment"], "icon": "https://maps.gstatic.com/mapfiles/place_api/icons/v1/png_71/school-71.png"}, {"rating": 4.3, "user_ratings_total": 3, "name": "Saroj Basini Elementary School", "reference": "ChIJ5fNlsfad-DkRS_ea3vaLrwY", "geometry": {"location": {"lat": 22.6173534, "lng": 88.3878623}, "viewport": {"northeast": {"lat": 22.6186249302915, "lng": 88.3892534302915}, "southwest": {"lat": 22.6159269697085, "lng": 88.38655546970848}}}, "place_id": "ChIJ5fNlsfad-DkRS_ea3vaLrwY", "plus_code": {"global_code": "7MJCJ98Q+W4", "compound_code": "J98Q+W4 Kolkata, West Bengal, India"}, "vicinity": "Sreenath Mukherjee Lane, Paikpara, Kolkata", "scope": "GOOGLE", "business_status": "OPERATIONAL", "types": ["primary_school", "school", "point_of_interest", "establishment"], "icon": "https://maps.gstatic.com/mapfiles/place_api/icons/v1/png_71/school-71.png"}]}