{"status": "OK", "next_page_token": "CsQDtgEAAGkwUJLlU1v7MxQdfLipHm366CrDXqKMDfjWT35Jpv4xOto401TI_ESrINw33_l8ijgOMkUP-H6IOu8akSxxVtpmybYlyh-d7D3etg_W_X0OzYz1bB1nYLbSY7rr7ToY99Y_Z4p50h_zHDXOYMem5niaZ6QjTRpbSK_0ssck4qNpc824I_VM-TxMdx7Wa61rVm1Q4DLNAqQgBuf9dH66BTiPXDwW7s-XU5q9OtKATZdp1qfcwAkzRtMtI3GO_5y4W8GqNehLsklbI4F6Ke67lfhpo8CyW4W_4IpsH19IS9fKnzx7JZIZIFQ6x5Q8o15w3QvJieVv36EHan9OZQScyDrTR4nKW2MmHEcU7buSQX7acQUS0zHPjLnJsnME0X98smoFtKpyFBx0mHFUTe8oW0xalH3_-PZJmLqstCfNRF8eZSwXioWx4Q2Hch3v-QkwVZvjyzxTsGFXl878VJDLgdER121BmKlT4rwCKE7Pm74l_Z5TXcGp3_jmhhxxH5y00RCETr-immAesDqUplnbDv19ndGA04CNJyGuOWoJ8jmfO3wQDMvHdJVFxsP5n0XxcihedV5-lLBoONl4hzSV8KESEHrpkK2BPU8ZrN6eKmKcEzEaFD6RGgBXq04Ln2ApWfv0qG9JrxdU", "html_attributions": [], "results": [{"rating": 5, "user_ratings_total": 1, "name": "Union Bank", "reference": "ChIJz6my1DO25zsRgbXiNqyotLk", "geometry": {"location": {"lat": 19.1424104, "lng": 72.8459628}, "viewport": {"northeast": {"lat": 19.1437115802915, "lng": 72.8473161802915}, "southwest": {"lat": 19.1410136197085, "lng": 72.84461821970848}}}, "place_id": "ChIJz6my1DO25zsRgbXiNqyotLk", "plus_code": {"global_code": "7JFJ4RRW+X9", "compound_code": "4RRW+X9 Mumbai, Maharashtra, India"}, "vicinity": "Vaishali Nagar, Jogeshwari, Mumbai", "photos": [{"photo_reference": "CmRaAAAAm4CWfawgUhuDOSr7W-Wl6tIadOjkBumH4R73AIt9SkjSyl9klhC0wx5pbOg-uZ_33BJwPEEeUUmiR22PKwzNXEXaENj4RrJp9cSA0tXiYecXlCEkUlICd2837qZx7vQQEhDhMQpeyTjjRfr14E4mV7w6GhSmG-1sUQMnufPvQ1iAn1_WdTZuLw", "width": 3328, "html_attributions": ["<a href=\"https://maps.google.com/maps/contrib/100950423504349093536\">MOHAN VARMA</a>"], "height": 1872}], "scope": "GOOGLE", "business_status": "OPERATIONAL", "types": ["bank", "atm", "finance", "point_of_interest", "establishment"], "icon": "https://maps.gstatic.com/mapfiles/place_api/icons/v1/png_71/bank_dollar-71.png"}, {"rating": 5, "user_ratings_total": 1, "name": "YES Bank ATM", "reference": "ChIJXQWm8TLI5zsRcrNFdL8j7tA", "geometry": {"location": {"lat": 19.1403674, "lng": 72.8319966}, "viewport": {"northeast": {"lat": 19.1416987302915, "lng": 72.8332018302915}, "southwest": {"lat": 19.1390007697085, "lng": 72.8305038697085}}}, "opening_hours": {"open_now": true}, "place_id": "ChIJXQWm8TLI5zsRcrNFdL8j7tA", "plus_code": {"global_code": "7JFJ4RRJ+4Q", "compound_code": "4RRJ+4Q Mumbai, Maharashtra, India"}, "vicinity": "Plot B, Valecha Chambers, G1, Gr Floor, 6, New Link Road, Andheri West, Mumbai", "photos": [{"photo_reference": "CmRaAAAA_GXAQP_Y6GdhYjMAFO0h_aY6S_azEX2mS1f_FNnEr_zY30Sl2TA-Y4oj3As-UQpchOGi5o5DPoaDSY2Mw4KlydckDZGhzT_M0TcIFvVZNPHfBDtGOcifm6VhgS9Y3jf0EhA6U9iHaVD7tSevBUB0ehcrGhT0Zx3g8tWCXwC00AWg51Pj8064wg", "width": 400, "html_attributions": ["<a href=\"https://maps.google.com/maps/contrib/111226336136204681816\">YES Bank ATM</a>"], "height": 400}], "scope": "GOOGLE", "business_status": "OPERATIONAL", "types": ["atm", "bank", "finance", "point_of_interest", "establishment"], "icon": "https://maps.gstatic.com/mapfiles/place_api/icons/v1/png_71/atm-71.png"}, {"rating": 2.9, "user_ratings_total": 15, "name": "IndusInd Bank", "reference": "ChIJp135wTy25zsRv0RySG8ljUQ", "geometry": {"location": {"lat": 19.1395492, "lng": 72.8319702}, "viewport": {"northeast": {"lat": 19.1409196802915, "lng": 72.83322038029151}, "southwest": {"lat": 19.1382217197085, "lng": 72.83052241970849}}}, "opening_hours": {"open_now": false}, "place_id": "ChIJp135wTy25zsRv0RySG8ljUQ", "plus_code": {"global_code": "7JFJ4RQJ+RQ", "compound_code": "4RQJ+RQ Mumbai, Maharashtra, India"}, "vicinity": "Gopi Chambers, B-10, KL Walawalkar Marg, Veera Desai Industrial Estate, Andheri West, Mumbai", "photos": [{"photo_reference": "CmRaAAAA2cJ_q3K3amfWkGd16buoGW5AiJrwzXhpIVS6oMWHHY0JVvmtubH4Xk6ugUcKDpaBD_agNl4ul-P-aeFTSuw7TvY9Zvz5_9IWIvw2vivz_X7KjOWIKJcz6jiatagoT3lVEhB85DGTWNVNdQOrPay6JBFMGhSyoNwNG6uKLfpcCh3jDVHZ_YByCA", "width": 4160, "html_attributions": ["<a href=\"https://maps.google.com/maps/contrib/110217560022266071515\">Sylvester Gard</a>"], "height": 2340}], "scope": "GOOGLE", "business_status": "OPERATIONAL", "types": ["bank", "finance", "point_of_interest", "establishment"], "icon": "https://maps.gstatic.com/mapfiles/place_api/icons/v1/png_71/bank_dollar-71.png"}, {"rating": 2, "user_ratings_total": 6, "name": "New India Bank", "reference": "ChIJNauC9jy25zsRDUebWxMEEtQ", "geometry": {"location": {"lat": 19.140846, "lng": 72.831976}, "viewport": {"northeast": {"lat": 19.1421838802915, "lng": 72.8331711802915}, "southwest": {"lat": 19.13948591970849, "lng": 72.8304732197085}}}, "opening_hours": {"open_now": false}, "place_id": "ChIJNauC9jy25zsRDUebWxMEEtQ", "plus_code": {"global_code": "7JFJ4RRJ+8Q", "compound_code": "4RRJ+8Q Mumbai, Maharashtra, India"}, "vicinity": "Crystal Plaza, Unit A5/A6, New Link Road, Veera Desai Industrial Estate, Andheri West, Mumbai", "photos": [{"photo_reference": "CmRaAAAArLDgrfZYD4wwc7VZl8or7tXgkn8BE_nq0Y-SN2L4xu0z90Y8xL5tfBLnHPriwkiuIEsutmZtF4YU7rBLigHYrJcpNo50dqRiRPP-RbgZprW66vkyfjkv8X3r4iALaVVWEhCzYXoDGwegnichzo1hVM4mGhTsk30oyZdA5KA-IlWt6wbeLwMPTA", "width": 4160, "html_attributions": ["<a href=\"https://maps.google.com/maps/contrib/111824636961193379571\">Manisha Misra</a>"], "height": 3120}], "scope": "GOOGLE", "business_status": "OPERATIONAL", "types": ["bank", "finance", "point_of_interest", "establishment"], "icon": "https://maps.gstatic.com/mapfiles/place_api/icons/v1/png_71/bank_dollar-71.png"}, {"rating": 2.6, "user_ratings_total": 34, "name": "ICICI Bank Andheri Link Road, Mumbai - Branch & ATM", "reference": "ChIJU_3NXjy25zsRZ_rs31W3Kko", "geometry": {"location": {"lat": 19.1413, "lng": 72.8319999}, "viewport": {"northeast": {"lat": 19.1426560302915, "lng": 72.8334296802915}, "southwest": {"lat": 19.1399580697085, "lng": 72.8307317197085}}}, "opening_hours": {"open_now": false}, "place_id": "ChIJU_3NXjy25zsRZ_rs31W3Kko", "plus_code": {"global_code": "7JFJ4RRJ+GQ", "compound_code": "4RRJ+GQ Mumbai, Maharashtra, India"}, "vicinity": "Ground Floor, Morya Estate, Andheri Link Road, Branch, Andheri West, Mumbai", "photos": [{"photo_reference": "CmRaAAAA8hPodeN4s36Cr6CK_sBsmdr7J57HFXr77LUA01Q-pQBATptgnr_9eSx3-cNfP0ZU2Va9kPrvAc2I5qzVxgrunTubpr13Yw-w_Jg2hM6yUA7c0ngaZ15NO-XZRDOHnXF5EhDb4HaFktqhTqGzliLmtAUaGhR3-sI1k_OOxsCe5zhepBXuNs6EUw", "width": 3984, "html_attributions": ["<a href=\"https://maps.google.com/maps/contrib/100540005139151231413\">Knight Solie</a>"], "height": 2988}], "scope": "GOOGLE", "business_status": "OPERATIONAL", "types": ["bank", "atm", "finance", "point_of_interest", "establishment"], "icon": "https://maps.gstatic.com/mapfiles/place_api/icons/v1/png_71/bank_dollar-71.png"}, {"rating": 5, "user_ratings_total": 1, "name": "Axis Bank ATM", "reference": "ChIJl1CwvyeT5zsR1hEjdMsRY2s", "geometry": {"location": {"lat": 19.14713099999999, "lng": 72.8365269}, "viewport": {"northeast": {"lat": 19.1484773802915, "lng": 72.8378527802915}, "southwest": {"lat": 19.1457794197085, "lng": 72.83515481970849}}}, "opening_hours": {"open_now": true}, "place_id": "ChIJl1CwvyeT5zsR1hEjdMsRY2s", "plus_code": {"global_code": "7JFJ4RWP+VJ", "compound_code": "4RWP+VJ Mumbai, Maharashtra, India"}, "vicinity": "Ground Floor, Techweb Centre, Jogeshwari, Mumbai", "scope": "GOOGLE", "business_status": "OPERATIONAL", "types": ["atm", "bank", "finance", "point_of_interest", "establishment"], "icon": "https://maps.gstatic.com/mapfiles/place_api/icons/v1/png_71/atm-71.png"}, {"rating": 3.6, "user_ratings_total": 7, "name": "Mogaveera Bank", "reference": "ChIJm5fdJTzI5zsRDEMAzR15S2s", "geometry": {"location": {"lat": 19.1305474, "lng": 72.8377807}, "viewport": {"northeast": {"lat": 19.1318899802915, "lng": 72.8390529302915}, "southwest": {"lat": 19.1291920197085, "lng": 72.83635496970848}}}, "opening_hours": {"open_now": false}, "place_id": "ChIJm5fdJTzI5zsRDEMAzR15S2s", "plus_code": {"global_code": "7JFJ4RJQ+64", "compound_code": "4RJQ+64 Mumbai, Maharashtra, India"}, "vicinity": "Shop No.2, Azad Nagar,Veeradesai Road, Andheri West, Mumbai", "photos": [{"photo_reference": "CmRaAAAAMvYAdDuyE-lTTXb_a8yPa_tVtNLJYE5s2GSamJ_SP1U8ybEixwlAw_IajK0DcFve75GDrzoCwF46TRDGyGaeMDxbjsVdDuWOzfSqG6-QRXGGed2cCeGPgmDsZ8WZHNWiEhCW0R36OIT5dEuPYO2jRhfjGhQ6Mgeras1OLUqbcdnUyasmGzSL3g", "width": 4160, "html_attributions": ["<a href=\"https://maps.google.com/maps/contrib/115935782842654687367\">Sukumar Gaonkar</a>"], "height": 3120}], "scope": "GOOGLE", "business_status": "OPERATIONAL", "types": ["bank", "finance", "point_of_interest", "establishment"], "icon": "https://maps.gstatic.com/mapfiles/place_api/icons/v1/png_71/bank_dollar-71.png"}, {"rating": 3.9, "user_ratings_total": 16, "name": "Allahabad Bank", "reference": "ChIJQ1j4Syy25zsR99shCJO1O2U", "geometry": {"location": {"lat": 19.1365744, "lng": 72.8476477}, "viewport": {"northeast": {"lat": 19.13790833029151, "lng": 72.8490443302915}, "southwest": {"lat": 19.1352103697085, "lng": 72.8463463697085}}}, "opening_hours": {"open_now": false}, "place_id": "ChIJQ1j4Syy25zsR99shCJO1O2U", "plus_code": {"global_code": "7JFJ4RPX+J3", "compound_code": "4RPX+J3 Mumbai, Maharashtra, India"}, "vicinity": "near Dewan Center, 1st Floor, Heena Shopping Arcade, S.V.Road, Jogeshwari West, near Dewan Center, Mumbai", "photos": [{"photo_reference": "CmRaAAAAxKbgJJyXUAmBY6e8hUX0hmBjiU2WHgY86q3lzwNH-LMQhfZ3-08AoIskfRubI3zKDjAeD5LT4Vp4-_gXvykCAOeXso5aTnPKWreitbXZ3YGrP-Y6nWLg8mvqST9MYyBeEhCVCGYFbK-bCAEsUc0gNJM3GhR2mAdR3IGYxxMkBupA-tg4ppycYQ", "width": 3000, "html_attributions": ["<a href=\"https://maps.google.com/maps/contrib/101370420073184015572\">PADIYAR SAIF ALI</a>"], "height": 4000}], "scope": "GOOGLE", "business_status": "OPERATIONAL", "types": ["bank", "finance", "point_of_interest", "establishment"], "icon": "https://maps.gstatic.com/mapfiles/place_api/icons/v1/png_71/bank_dollar-71.png"}, {"rating": 4, "user_ratings_total": 5, "name": "HDFC Bank ATM", "reference": "ChIJtbfqVSy25zsRs8buIw84tts", "geometry": {"location": {"lat": 19.1367945, "lng": 72.84842669999999}, "viewport": {"northeast": {"lat": 19.1381307802915, "lng": 72.8498870802915}, "southwest": {"lat": 19.13543281970849, "lng": 72.84718911970849}}}, "opening_hours": {"open_now": true}, "place_id": "ChIJtbfqVSy25zsRs8buIw84tts", "plus_code": {"global_code": "7JFJ4RPX+P9", "compound_code": "4RPX+P9 Mumbai, Maharashtra, India"}, "vicinity": "SN 10, Abbha Residency, JogesHWari West, Mumbai", "photos": [{"photo_reference": "CmRaAAAA7WhKgQkKHdPNrnkWz4k4SqpY8L1DOEozsFwiiohNws7UIQ61cEanEgrVgpQ1TUcE2X5JxONs2wEf2LoB-6pqsLM24ZQ7lmK-gOrv9uHZXegKimFBUCWk-3nxDhGzSVItEhCyLy4eLN-O7kuq7-956XE7GhRsSy8ss0dMvGgvfmUWUmPNOr2PPg", "width": 1080, "html_attributions": ["<a href=\"https://maps.google.com/maps/contrib/116646650097694424901\">Kaushik Patil</a>"], "height": 1920}], "scope": "GOOGLE", "business_status": "OPERATIONAL", "types": ["atm", "bank", "finance", "point_of_interest", "establishment"], "icon": "https://maps.gstatic.com/mapfiles/place_api/icons/v1/png_71/atm-71.png"}, {"rating": 3.2, "user_ratings_total": 5, "name": "HDFC Bank ATM", "reference": "ChIJ1cifTia25zsRWwNv_dllYLk", "geometry": {"location": {"lat": 19.1305768, "lng": 72.837829}, "viewport": {"northeast": {"lat": 19.1319170802915, "lng": 72.83907588029152}, "southwest": {"lat": 19.1292191197085, "lng": 72.8363779197085}}}, "opening_hours": {"open_now": true}, "place_id": "ChIJ1cifTia25zsRWwNv_dllYLk", "plus_code": {"global_code": "7JFJ4RJQ+64", "compound_code": "4RJQ+64 Mumbai, Maharashtra, India"}, "vicinity": "SN 8, Flower Queen CHS, Veera Desai Road, Andheri West, Mumbai", "scope": "GOOGLE", "business_status": "OPERATIONAL", "types": ["atm", "bank", "finance", "point_of_interest", "establishment"], "icon": "https://maps.gstatic.com/mapfiles/place_api/icons/v1/png_71/atm-71.png"}, {"rating": 3, "user_ratings_total": 3, "name": "HDFC Bank ATM", "reference": "ChIJE32joyO25zsRy6-L6w8zlX8", "geometry": {"location": {"lat": 19.1348361, "lng": 72.8320647}, "viewport": {"northeast": {"lat": 19.1361830302915, "lng": 72.8334284802915}, "southwest": {"lat": 19.1334850697085, "lng": 72.83073051970848}}}, "opening_hours": {"open_now": true}, "place_id": "ChIJE32joyO25zsRy6-L6w8zlX8", "plus_code": {"global_code": "7JFJ4RMJ+WR", "compound_code": "4RMJ+WR Mumbai, Maharashtra, India"}, "vicinity": "844/4, Gr Flr, Fun Republic, opp. Laxmi Ind Estate, New, New Link Road, Andheri West, Mumbai", "scope": "GOOGLE", "business_status": "OPERATIONAL", "types": ["atm", "bank", "finance", "point_of_interest", "establishment"], "icon": "https://maps.gstatic.com/mapfiles/place_api/icons/v1/png_71/atm-71.png"}, {"rating": 2, "user_ratings_total": 2, "name": "Axis Bank ATM", "reference": "ChIJff7rrHDI5zsRzwdN03GzGZM", "geometry": {"location": {"lat": 19.1352607, "lng": 72.8317323}, "viewport": {"northeast": {"lat": 19.1366416802915, "lng": 72.8330735802915}, "southwest": {"lat": 19.1339437197085, "lng": 72.83037561970849}}}, "opening_hours": {"open_now": true}, "place_id": "ChIJff7rrHDI5zsRzwdN03GzGZM", "plus_code": {"global_code": "7JFJ4RPJ+4M", "compound_code": "4RPJ+4M Mumbai, Maharashtra, India"}, "vicinity": "Shop No 5, Building, No 40, Andheri - Kurla Road, Andheri East, Mumbai", "scope": "GOOGLE", "business_status": "OPERATIONAL", "types": ["atm", "bank", "finance", "point_of_interest", "establishment"], "icon": "https://maps.gstatic.com/mapfiles/place_api/icons/v1/png_71/atm-71.png"}, {"rating": 4.5, "user_ratings_total": 6, "name": "Samata Sahakari Bank Ltd", "reference": "ChIJZRbWiD-25zsRzp03O2o7yng", "geometry": {"location": {"lat": 19.144966, "lng": 72.8316129}, "viewport": {"northeast": {"lat": 19.1462995302915, "lng": 72.8328073802915}, "southwest": {"lat": 19.14360156970849, "lng": 72.83010941970849}}}, "opening_hours": {"open_now": false}, "place_id": "ChIJZRbWiD-25zsRzp03O2o7yng", "plus_code": {"global_code": "7JFJ4RVJ+XJ", "compound_code": "4RVJ+XJ Mumbai, Maharashtra, India"}, "vicinity": "Shop No. 717, Adarsh Nagar, Near New Link Road, Andheri West, Mumbai", "photos": [{"photo_reference": "CmRaAAAA0lhdHMksYBmgxa6yNrKhwXZ-i067Es4q3C6PwlSUx7n_OB-63QnADgRlnimq_d0ijAPOzKwsns5tgsPUsaQ27XAj0ypXqqViOVhBlXykG4YkUO-E3-q2gIu8msT_opTjEhCiUfP8V3CvIAOgBCHHzzQTGhT1VYAFDoY6cP4wITeT87IEEBWVwg", "width": 3840, "html_attributions": ["<a href=\"https://maps.google.com/maps/contrib/101817529082122078828\">Arjun Singh</a>"], "height": 5120}], "scope": "GOOGLE", "business_status": "OPERATIONAL", "types": ["bank", "finance", "point_of_interest", "establishment"], "icon": "https://maps.gstatic.com/mapfiles/place_api/icons/v1/png_71/bank_dollar-71.png"}, {"rating": 2.4, "user_ratings_total": 17, "name": "Axis Bank", "reference": "ChIJM-8ZWya25zsRIo2Ewn2CdUg", "geometry": {"location": {"lat": 19.1310907, "lng": 72.83742529999999}, "viewport": {"northeast": {"lat": 19.1324435802915, "lng": 72.8388242802915}, "southwest": {"lat": 19.1297456197085, "lng": 72.83612631970848}}}, "opening_hours": {"open_now": false}, "place_id": "ChIJM-8ZWya25zsRIo2Ewn2CdUg", "plus_code": {"global_code": "7JFJ4RJP+CX", "compound_code": "4RJP+CX Mumbai, Maharashtra, India"}, "vicinity": "Shop No 1 to 7, GF, Venus Tower Azad Nagar Road, 2, Veera Desai Road, Mumbai", "photos": [{"photo_reference": "CmRaAAAAUdhE_IGpPWCE8OIzQ1raRYC178rLat3QxwyyFxMtr8Q6XKMBu4d8UCsnZA-6tR031GoZYZj9vsjJ5iJXGI7tCnZU9DLrVHaAB7jL656cjKjrKp7akqOuIpfICl78Ss8MEhDRJw6vorAXEK00_CbAOa_iGhTuSqq-bG3eGTFE2GGp_G4rPVQqaQ", "width": 2287, "html_attributions": ["<a href=\"https://maps.google.com/maps/contrib/107500956220739716076\">Ravi Ahlawat</a>"], "height": 1596}], "scope": "GOOGLE", "business_status": "OPERATIONAL", "types": ["bank", "finance", "point_of_interest", "establishment"], "icon": "https://maps.gstatic.com/mapfiles/place_api/icons/v1/png_71/bank_dollar-71.png"}, {"name": "Axis Bank ATM", "reference": "ChIJDZ3IeD6U5zsR0I8Py4arS4E", "geometry": {"location": {"lat": 19.1487164, "lng": 72.83654179999999}, "viewport": {"northeast": {"lat": 19.1500495302915, "lng": 72.83778703029151}, "southwest": {"lat": 19.1473515697085, "lng": 72.83508906970849}}}, "opening_hours": {"open_now": true}, "place_id": "ChIJDZ3IeD6U5zsR0I8Py4arS4E", "plus_code": {"global_code": "7JFJ4RXP+FJ", "compound_code": "4RXP+FJ Mumbai, Maharashtra, India"}, "vicinity": "Hotel Sahil, Anand Nagar, Andheri West, Mumbai", "scope": "GOOGLE", "business_status": "OPERATIONAL", "types": ["atm", "bank", "finance", "point_of_interest", "establishment"], "icon": "https://maps.gstatic.com/mapfiles/place_api/icons/v1/png_71/atm-71.png"}, {"rating": 3.8, "user_ratings_total": 17, "name": "ICICI Bank Andheri Veera Desai Road, Mumbai", "reference": "ChIJfU_lvSe25zsRc_RaYyO4-bs", "geometry": {"location": {"lat": 19.1304566, "lng": 72.83739179999999}, "viewport": {"northeast": {"lat": 19.1318086802915, "lng": 72.8388357302915}, "southwest": {"lat": 19.1291107197085, "lng": 72.8361377697085}}}, "opening_hours": {"open_now": false}, "place_id": "ChIJfU_lvSe25zsRc_RaYyO4-bs", "plus_code": {"global_code": "7JFJ4RJP+5X", "compound_code": "4RJP+5X Mumbai, Maharashtra, India"}, "vicinity": "7, Bharat Apartment, Veera Desai Road, Andheri West, Mumbai", "photos": [{"photo_reference": "CmRaAAAAxvYfspR_vVrC8ZuvQKW454efmUJyGiNZcXkQmZ7SH6-vFSTVKs1YTSRsIFWrOqfsd1uqHaH4RTSwBFLh04MqUUamQPjMIequzCYp5j1VEEYH2b8iTUKomzo8mA_Kbc2GEhDE_KyxEcKM5go7vXslUq3bGhSH6yqxuuoqB1fPynIkX1P1XScOrg", "width": 3968, "html_attributions": ["<a href=\"https://maps.google.com/maps/contrib/100431835487024164260\">Ample Vision</a>"], "height": 2976}], "scope": "GOOGLE", "business_status": "OPERATIONAL", "types": ["bank", "atm", "finance", "point_of_interest", "establishment"], "icon": "https://maps.gstatic.com/mapfiles/place_api/icons/v1/png_71/bank_dollar-71.png"}, {"rating": 2.9, "user_ratings_total": 14, "name": "Bank of Baroda", "reference": "ChIJby2shCy25zsRuROWDqSkNZ0", "geometry": {"location": {"lat": 19.1344989, "lng": 72.849312}, "viewport": {"northeast": {"lat": 19.1357909302915, "lng": 72.8506716302915}, "southwest": {"lat": 19.1330929697085, "lng": 72.8479736697085}}}, "opening_hours": {"open_now": false}, "place_id": "ChIJby2shCy25zsRuROWDqSkNZ0", "plus_code": {"global_code": "7JFJ4RMX+QP", "compound_code": "4RMX+QP Mumbai, Maharashtra, India"}, "vicinity": "Vasant Building, Shiv, opposite Ismile Yusuf College Ground, HF Society Road, Jogeshwari East, Mumbai", "scope": "GOOGLE", "business_status": "OPERATIONAL", "types": ["atm", "bank", "finance", "point_of_interest", "establishment"], "icon": "https://maps.gstatic.com/mapfiles/place_api/icons/v1/png_71/bank_dollar-71.png"}, {"rating": 3, "user_ratings_total": 1, "name": "Shramik Sahakari Bank Ltd", "reference": "ChIJVWBbKS225zsRJ5cuqWWOWeo", "geometry": {"location": {"lat": 19.1384914, "lng": 72.8511061}, "viewport": {"northeast": {"lat": 19.1398283302915, "lng": 72.8525152302915}, "southwest": {"lat": 19.1371303697085, "lng": 72.8498172697085}}}, "place_id": "ChIJVWBbKS225zsRJ5cuqWWOWeo", "plus_code": {"global_code": "7JFJ4VQ2+9C", "compound_code": "4VQ2+9C Mumbai, Maharashtra, India"}, "vicinity": "20, Subhash Nagar Road, Bandrekar Wadi, Jogeshwari East, Mumbai", "scope": "GOOGLE", "business_status": "OPERATIONAL", "types": ["bank", "finance", "point_of_interest", "establishment"], "icon": "https://maps.gstatic.com/mapfiles/place_api/icons/v1/png_71/bank_dollar-71.png"}, {"rating": 2.7, "user_ratings_total": 19, "name": "ICICI Bank Jogeshwari East, Mumbai - Branch & ATM", "reference": "ChIJ066X6Sy25zsRBBznrLWsOb8", "geometry": {"location": {"lat": 19.1357523, "lng": 72.8503881}, "viewport": {"northeast": {"lat": 19.1371344302915, "lng": 72.8517189302915}, "southwest": {"lat": 19.1344364697085, "lng": 72.84902096970849}}}, "opening_hours": {"open_now": false}, "place_id": "ChIJ066X6Sy25zsRBBznrLWsOb8", "plus_code": {"global_code": "7JFJ4VP2+85", "compound_code": "4VP2+85 Mumbai, Maharashtra, India"}, "vicinity": "Shop No 4,5,9,10, Kesar Plaza, Caves Road, Jogeshwari East, Mumbai", "photos": [{"photo_reference": "CmRaAAAApl8mjTyebP2LUyK0I__Sotlkm-pFhZp2wMFAahR3RWlK-Vslnh-Nrt_WJqveyWFcwN5M6LKCtW7GJ1G5LfUgzMtLLgMsTE8ZqBrTc40lMpmy0FR7VARn25Akd8iyY7SnEhC6bNj_CGeAGFd3ERRxQCSNGhSFUFt1ZRpi1iuVJsM7oVIC7nvZ4Q", "width": 720, "html_attributions": ["<a href=\"https://maps.google.com/maps/contrib/100486077014602119038\">Mohammad zaman Shaikh</a>"], "height": 1280}], "scope": "GOOGLE", "business_status": "OPERATIONAL", "types": ["bank", "atm", "finance", "point_of_interest", "establishment"], "icon": "https://maps.gstatic.com/mapfiles/place_api/icons/v1/png_71/bank_dollar-71.png"}, {"rating": 1, "user_ratings_total": 1, "name": "Oriental Bank of Commerce", "reference": "ChIJR4XWUD625zsRFQcADveBWsQ", "geometry": {"location": {"lat": 19.1461186, "lng": 72.8305096}, "viewport": {"northeast": {"lat": 19.1474699302915, "lng": 72.8318304802915}, "southwest": {"lat": 19.1447719697085, "lng": 72.8291325197085}}}, "opening_hours": {"open_now": false}, "place_id": "ChIJR4XWUD625zsRFQcADveBWsQ", "plus_code": {"global_code": "7JFJ4RWJ+C6", "compound_code": "4RWJ+C6 Mumbai, Maharashtra, India"}, "vicinity": "6, Mhada Colony, Mhada Colony, Andheri West, Mumbai", "scope": "GOOGLE", "business_status": "OPERATIONAL", "types": ["bank", "finance", "point_of_interest", "establishment"], "icon": "https://maps.gstatic.com/mapfiles/place_api/icons/v1/png_71/bank_dollar-71.png"}]}