{"status": "OK", "next_page_token": "CsQDtgEAAERvd4jLxIpUJ-uItGLzAM7nTTLSLiFzaYEv-WG_BcKdDoPwwWjmn0S-uHiLiHO-Vu_2-7SAOSyRwwYJNeWORiE4DX_BpbNqtVY_bRaUJ9z1BP2zWiMu_wnF270flckJtzm7b6x7MSM_IaDSBqwPt-H9ZEsUEVkWgWxdWeOFPtMWMSaWe0JAO7fODrgcHEZKuRMYYfLclPQRWEIXP8UUhBMgVdLlh2Pf8dscCdS-i_j9ouSCkbDdFMEIXvWqnRtye06Huvfg74pgluSNn8DJjl0xl3qD7kpqyzDxcggsqEw8HwYUoJO6vM75-FesmeKI-2HahfJFf05Mk0KaUzPWTAfx57wa6sd-yktHPFo_MSgfzWQnQ8rNwKOFsSHRcW-uq3Mkt5zy1yma3dfqI7Xn9QI0gmlqHIilxzy-x9NCySZruR2OC0AY37_8YeK3SvcQBR5XfBwSkLV8WjnBTzIWPzWPBKfUg0AloHxbXkYFK_kzJ1ZHe38ZXjQw8o4VrxSAhxm21byBwT5HxFXGQ-bdyPETDeml0Sy03fOErcRwK08lNTCKp3jwXTWWs_lr0yKbYtRpxujqmAdN_l1ST9h7EIASEPlfdrMuKjVkEynVauwLxNcaFEySZjMdzo9rLzJH5Jg6ZsRtXsPN", "html_attributions": [], "results": [{"rating": 4, "user_ratings_total": 1, "name": "Saraswat Co-Operative Bank Limited -Kalin Branch", "reference": "ChIJX61t1PHI5zsR1GGBJ8cuJJI", "geometry": {"location": {"lat": 19.0729239, "lng": 72.866497}, "viewport": {"northeast": {"lat": 19.0741513302915, "lng": 72.86792208029149}, "southwest": {"lat": 19.0714533697085, "lng": 72.86522411970849}}}, "opening_hours": {"open_now": false}, "place_id": "ChIJX61t1PHI5zsR1GGBJ8cuJJI", "plus_code": {"global_code": "7JFJ3VF8+5H", "compound_code": "3VF8+5H Mumbai, Maharashtra, India"}, "vicinity": "First Floor, Central Plaza, 166, Central Salsette Tramway Road, Vidya Nagari, Kalina, Mumbai", "photos": [{"photo_reference": "CmRZAAAAzADeG7DcuB9-C7ldNiQp4T5NQQiwWfO-fIGVh-IhBzEJLnSWuyIl2JFQ48M_8FdPnRolvgs7Xbuib4kFuDNpX8XyaNhfrDNzBFe1XnaxseSB5bW4Uw1EpLl9EU6jIytMEhDyHFEFDb4x9JB1Z2TpsEumGhQtFMDNB7s6OZN6-YTvmTuzZsnG8A", "width": 3386, "html_attributions": ["<a href=\"https://maps.google.com/maps/contrib/111590352185405560890\">Nikhil D&#39;Cruz</a>"], "height": 2243}], "scope": "GOOGLE", "business_status": "OPERATIONAL", "types": ["bank", "finance", "point_of_interest", "establishment"], "icon": "https://maps.gstatic.com/mapfiles/place_api/icons/v1/png_71/bank_dollar-71.png"}, {"name": "ICICI BANK ATM", "reference": "ChIJS8ooLwDJ5zsRTayl0P93dMU", "geometry": {"location": {"lat": 19.0810051, "lng": 72.85009769999999}, "viewport": {"northeast": {"lat": 19.0823495802915, "lng": 72.8514980802915}, "southwest": {"lat": 19.0796516197085, "lng": 72.8488001197085}}}, "opening_hours": {"open_now": true}, "place_id": "ChIJS8ooLwDJ5zsRTayl0P93dMU", "plus_code": {"global_code": "7JFJ3VJ2+C2", "compound_code": "3VJ2+C2 Mumbai, Maharashtra, India"}, "vicinity": "Bridge, Santacruz, Jainam Bakery Stores, Shop no.2, Rayniwas, Datta Mandir Road, Vakola, Mumbai", "scope": "GOOGLE", "business_status": "OPERATIONAL", "types": ["bank", "finance", "point_of_interest", "establishment"], "icon": "https://maps.gstatic.com/mapfiles/place_api/icons/v1/png_71/bank_dollar-71.png"}, {"rating": 2.9, "user_ratings_total": 64, "name": "Axis Bank", "reference": "ChIJoYWCNOXI5zsRqi0S7y8IfNE", "geometry": {"location": {"lat": 19.07263679999999, "lng": 72.8671592}, "viewport": {"northeast": {"lat": 19.0740185802915, "lng": 72.8684918302915}, "southwest": {"lat": 19.0713206197085, "lng": 72.8657938697085}}}, "opening_hours": {"open_now": false}, "place_id": "ChIJoYWCNOXI5zsRqi0S7y8IfNE", "plus_code": {"global_code": "7JFJ3VF8+3V", "compound_code": "3VF8+3V Mumbai, Maharashtra, India"}, "vicinity": "opp. Central Plaza, Ground Floor, Manek Plaza, opp. Central Plaza, Central Salsette Tramway Road, Kalina, Santacruz East, Mumbai", "photos": [{"photo_reference": "CmRaAAAAVCvIboxFhihtxkZ-B97Thw5yIuy9FornUH06g0nZ_FJhUYFujiPKagGExpnSdobF9c7C9dNf-ltqHRtsnqonLaMgjOi4NfFX1i0KkjcB1xwKwPIdpbWBvDxyvOjD8RmZEhBEjhZUHAif95KC8yqHg4OPGhQUd_2dR9txdkAtUtJqbZAtQEjuNQ", "width": 1080, "html_attributions": ["<a href=\"https://maps.google.com/maps/contrib/100048937851713023885\">Customer Care Number</a>"], "height": 1920}], "scope": "GOOGLE", "business_status": "OPERATIONAL", "types": ["bank", "finance", "point_of_interest", "establishment"], "icon": "https://maps.gstatic.com/mapfiles/place_api/icons/v1/png_71/bank_dollar-71.png"}, {"rating": 2.4, "user_ratings_total": 14, "name": "Bank of Baroda", "reference": "ChIJAcN71PHI5zsRLnnOHnJRCbE", "geometry": {"location": {"lat": 19.0739407, "lng": 72.86902409999999}, "viewport": {"northeast": {"lat": 19.0752915302915, "lng": 72.8704609802915}, "southwest": {"lat": 19.07259356970849, "lng": 72.86776301970849}}}, "opening_hours": {"open_now": false}, "place_id": "ChIJAcN71PHI5zsRLnnOHnJRCbE", "plus_code": {"global_code": "7JFJ3VF9+HJ", "compound_code": "3VF9+HJ Mumbai, Maharashtra, India"}, "vicinity": "176, CST Road, Kole-Kalyan, Kolivery Village, Kunchi Kurve Nagar, Kalina, Santacruz East, Mumbai", "photos": [{"photo_reference": "CmRaAAAAgKZyjdeXQmELdJ6qBVrjLx_qW9NGrDeVDJF-5bAoOZcU60GYLZZBZ5QgoHPLAOeJx5V0iaw3_82MfpZndDm8Y3Z9YXjGZ90DaNX0GftcnvCpvjBGuOTej7T0m7TR7yRyEhCDB1IFkgU_wv0DkOCUqgBXGhRZ3-7gAuGhSY5VJ7vhMxbiFcXfsw", "width": 4160, "html_attributions": ["<a href=\"https://maps.google.com/maps/contrib/116578564264952415904\">Nitin Rathod</a>"], "height": 3120}], "scope": "GOOGLE", "business_status": "OPERATIONAL", "types": ["bank", "atm", "finance", "point_of_interest", "establishment"], "icon": "https://maps.gstatic.com/mapfiles/place_api/icons/v1/png_71/bank_dollar-71.png"}, {"rating": 1, "user_ratings_total": 1, "name": "Axis Bank ATM", "reference": "ChIJs6_ghv-45zsRmDJSbaeXXjY", "geometry": {"location": {"lat": 19.0820579, "lng": 72.84884480000001}, "viewport": {"northeast": {"lat": 19.0833458802915, "lng": 72.8503187802915}, "southwest": {"lat": 19.0806479197085, "lng": 72.8476208197085}}}, "opening_hours": {"open_now": true}, "place_id": "ChIJs6_ghv-45zsRmDJSbaeXXjY", "plus_code": {"global_code": "7JFJ3RJX+RG", "compound_code": "3RJX+RG Mumbai, Maharashtra, India"}, "vicinity": "Sagar Avenue, Building No 1, SN 13, Santacruz East, Mumbai", "scope": "GOOGLE", "business_status": "OPERATIONAL", "types": ["atm", "bank", "finance", "point_of_interest", "establishment"], "icon": "https://maps.gstatic.com/mapfiles/place_api/icons/v1/png_71/atm-71.png"}, {"rating": 4.4, "user_ratings_total": 23, "name": "JP Morgan Chase Bank", "reference": "ChIJzxIzYuXI5zsR24n-VkP14zY", "geometry": {"location": {"lat": 19.069559, "lng": 72.86335249999999}, "viewport": {"northeast": {"lat": 19.0708186302915, "lng": 72.8645656802915}, "southwest": {"lat": 19.0681206697085, "lng": 72.8618677197085}}}, "place_id": "ChIJzxIzYuXI5zsR24n-VkP14zY", "plus_code": {"global_code": "7JFJ3V97+R8", "compound_code": "3V97+R8 Mumbai, Maharashtra, India"}, "vicinity": "J.P. Morgan Tower, Off, Central Salsette Tramway Road, Kalina, Santacruz East, Mumbai", "photos": [{"photo_reference": "CmRZAAAAG6nIuRbwlBsi7RGFyEFVOUOdggupJ6ndjtJrBGuH0C3UCqYemY-kkBvbH1jn1BWaiCszu_HtZ3Np5e57WO4qvmFT45BqP-QFLHQLuQ5pbE6x1D6v4CMefdbgsFt_eJPNEhCcN26WsjCePZ3vOiQtNgxaGhR_H6R_M5La2NMPcOuKV4R4rPJN1g", "width": 2353, "html_attributions": ["<a href=\"https://maps.google.com/maps/contrib/111590352185405560890\">Nikhil D&#39;Cruz</a>"], "height": 1581}], "scope": "GOOGLE", "business_status": "OPERATIONAL", "types": ["bank", "finance", "point_of_interest", "establishment"], "icon": "https://maps.gstatic.com/mapfiles/place_api/icons/v1/png_71/bank_dollar-71.png"}, {"name": "Axis Bank ATM", "reference": "ChIJq6oavOjI5zsRslArJczYWl4", "geometry": {"location": {"lat": 19.0688063, "lng": 72.8620174}, "viewport": {"northeast": {"lat": 19.0701424802915, "lng": 72.86342213029151}, "southwest": {"lat": 19.0674445197085, "lng": 72.8607241697085}}}, "opening_hours": {"open_now": true}, "place_id": "ChIJq6oavOjI5zsRslArJczYWl4", "plus_code": {"global_code": "7JFJ3V96+GR", "compound_code": "3V96+GR Mumbai, Maharashtra, India"}, "vicinity": "near MMRDA Grounds, JSW Centre Bandra, near MMRDA Grounds", "scope": "GOOGLE", "business_status": "OPERATIONAL", "types": ["atm", "bank", "finance", "point_of_interest", "establishment"], "icon": "https://maps.gstatic.com/mapfiles/place_api/icons/v1/png_71/atm-71.png"}, {"rating": 4.6, "user_ratings_total": 11, "name": "J & K Bank", "reference": "ChIJVeosn-XI5zsRZSHlxvTwyqg", "geometry": {"location": {"lat": 19.0686014, "lng": 72.8617338}, "viewport": {"northeast": {"lat": 19.0698787302915, "lng": 72.86320208029152}, "southwest": {"lat": 19.0671807697085, "lng": 72.8605041197085}}}, "place_id": "ChIJVeosn-XI5zsRZSHlxvTwyqg", "plus_code": {"global_code": "7JFJ3V96+CM", "compound_code": "3V96+CM Mumbai, Maharashtra, India"}, "vicinity": "Kolivery Village, MMRDA Area, Bandra Kurla Complex, Bandra East, Mumbai", "photos": [{"photo_reference": "CmRaAAAAr-XcNYtX1oHTTTCdXtA0YVOstWDBPgOS1A8Z992WNBHaHzL149N8xA43_9kQ4Zt6jydoTCR43hZaU2R64j_3xs9JEJjp1J4l0yPAaz9y4hxlt1qXs6bDR5YRR4rxLDnOEhBtxHKQrV-yu_Z1esT3LKYHGhReRsu02nUCCWc_OQRWOmSCyEUVPg", "width": 1080, "html_attributions": ["<a href=\"https://maps.google.com/maps/contrib/114089567034522769785\">navin chettiar</a>"], "height": 1920}], "scope": "GOOGLE", "business_status": "OPERATIONAL", "types": ["bank", "atm", "finance", "point_of_interest", "establishment"], "icon": "https://maps.gstatic.com/mapfiles/place_api/icons/v1/png_71/bank_dollar-71.png"}, {"rating": 2.8, "user_ratings_total": 37, "name": "Axis Bank", "reference": "ChIJVUPVp1bI5zsRqo6Lp8STK9A", "geometry": {"location": {"lat": 19.0808991, "lng": 72.8522854}, "viewport": {"northeast": {"lat": 19.0821734302915, "lng": 72.85364683029151}, "southwest": {"lat": 19.07947546970849, "lng": 72.8509488697085}}}, "opening_hours": {"open_now": false}, "place_id": "ChIJVUPVp1bI5zsRqo6Lp8STK9A", "plus_code": {"global_code": "7JFJ3VJ2+9W", "compound_code": "3VJ2+9W Mumbai, Maharashtra, India"}, "vicinity": "Florence CHS Ltd Sy No 841 to 846, Santacruz East, Vakola, Mumbai", "photos": [{"photo_reference": "CmRaAAAA02cgoBLUsV-0xO9a5zKVjDXcBpf7qElL6QVQX_NGlebC9j6x6PGwL_L9jR2q0UKF8fbOWX0vzfHrmYZ79Zx50S2RhoYMc3-sIMmdNVRgJImKjElmkS028DlgmIHnpCNDEhDkQPM_J2U3lnKhx12GwXHcGhTdr8a5HcZRLaSnqE61iF07UX-u2g", "width": 1298, "html_attributions": ["<a href=\"https://maps.google.com/maps/contrib/106735622815867572985\">Anand Dubey</a>"], "height": 1844}], "scope": "GOOGLE", "business_status": "OPERATIONAL", "types": ["bank", "finance", "point_of_interest", "establishment"], "icon": "https://maps.gstatic.com/mapfiles/place_api/icons/v1/png_71/bank_dollar-71.png"}, {"rating": 4.6, "user_ratings_total": 5, "name": "Axis Bank ATM", "reference": "ChIJP5xHFKrJ5zsRbEkFoua7LfU", "geometry": {"location": {"lat": 19.0803675, "lng": 72.8468919}, "viewport": {"northeast": {"lat": 19.0817379302915, "lng": 72.8482439302915}, "southwest": {"lat": 19.0790399697085, "lng": 72.8455459697085}}}, "opening_hours": {"open_now": true}, "place_id": "ChIJP5xHFKrJ5zsRbEkFoua7LfU", "plus_code": {"global_code": "7JFJ3RJW+4Q", "compound_code": "3RJW+4Q Mumbai, Maharashtra, India"}, "vicinity": "opposite Reliance Energy, Shop No 3, Madhu Manisha Building Vakola Police Station Road, opposite Reliance Energy, Mumbai", "photos": [{"photo_reference": "CmRaAAAAjWIL8zTz53kpshwah6Z7NAg00iOy6YqfHG31zn8OyZtA1Ve0MFVU4SUrl4nbhm7mH1xYxGibtBG4Vm94_ynfRY5YMAcT7qsn9FdU9U_YUz5FJgUCNcIckuKxwQACfv9LEhBCGbA6FknTMBenL6l2TclzGhR5XNa9dyDwsQ9eSA_tToTNFcfdfQ", "width": 3120, "html_attributions": ["<a href=\"https://maps.google.com/maps/contrib/113792808679589602856\">Hiren Solanki</a>"], "height": 4160}], "scope": "GOOGLE", "business_status": "OPERATIONAL", "types": ["atm", "bank", "finance", "point_of_interest", "establishment"], "icon": "https://maps.gstatic.com/mapfiles/place_api/icons/v1/png_71/atm-71.png"}, {"rating": 2.7, "user_ratings_total": 61, "name": "State Bank of India", "reference": "ChIJI2NE1__I5zsRRne2SAdgCJU", "geometry": {"location": {"lat": 19.0809177, "lng": 72.850521}, "viewport": {"northeast": {"lat": 19.0820581302915, "lng": 72.8525151802915}, "southwest": {"lat": 19.0793601697085, "lng": 72.8498172197085}}}, "opening_hours": {"open_now": false}, "place_id": "ChIJI2NE1__I5zsRRne2SAdgCJU", "plus_code": {"global_code": "7JFJ3VJ2+96", "compound_code": "3VJ2+96 Mumbai, Maharashtra, India"}, "vicinity": "Rati Khush, Nehru Road, Vakola, Santacruz East, Mumbai", "photos": [{"photo_reference": "CmRaAAAAAsv0XGCaymqTSCuoQa6nNhN57YDnjRh83Mitea9pGC8CJdzF_A2Rclhp7v933IEs1RRS5QFJsQy2vosCE7PyBC0HDjWRqma_NyeZYXKQJ1YREdMc1b0tlNBR0W15AC4NEhDRI00T9qhq17owrBhHbbAGGhTSVglziDGE-U4_9Qf4jp6p4m2LsQ", "width": 4160, "html_attributions": ["<a href=\"https://maps.google.com/maps/contrib/114069469971749513970\">tpattanaik</a>"], "height": 2340}], "scope": "GOOGLE", "business_status": "OPERATIONAL", "types": ["bank", "finance", "point_of_interest", "establishment"], "icon": "https://maps.gstatic.com/mapfiles/place_api/icons/v1/png_71/bank_dollar-71.png"}, {"name": "Sanmitra Cooperative Credit Society", "reference": "ChIJdxFbQPnI5zsRhPQjiXqy224", "geometry": {"location": {"lat": 19.0788414, "lng": 72.85880480000002}, "viewport": {"northeast": {"lat": 19.0802233802915, "lng": 72.86016878029152}, "southwest": {"lat": 19.0775254197085, "lng": 72.8574708197085}}}, "place_id": "ChIJdxFbQPnI5zsRhPQjiXqy224", "plus_code": {"global_code": "7JFJ3VH5+GG", "compound_code": "3VH5+GG Mumbai, Maharashtra, India"}, "vicinity": "Ground floor sadanand near mathurdas colony st anthons street Kolivery Village, Vakola, 400098, Mathuradas Colony, Vakola, Santacruz East, Mumbai", "photos": [{"photo_reference": "CmRaAAAAfzbg1jMLpcACT1Ii_JVBWSvxJ-XWfm5K1wRmDeGkSfvbaaJsS3f6tyx-KZVjCDu9BvD8W7uaNQeC5k1bWx8T1X7zDBt__NBN8PgjhMTst_7KMVYejZwye2fN-FXbFNUxEhALEVFu8oJo8WoYUwMbkYa1GhSSkwakqBmzYTWUszp6HTxMMc5tgQ", "width": 4608, "html_attributions": ["<a href=\"https://maps.google.com/maps/contrib/108842122139536055649\">Lifewish</a>"], "height": 2592}], "scope": "GOOGLE", "business_status": "OPERATIONAL", "types": ["bank", "finance", "point_of_interest", "establishment"], "icon": "https://maps.gstatic.com/mapfiles/place_api/icons/v1/png_71/bank_dollar-71.png"}, {"rating": 1, "user_ratings_total": 1, "name": "INDIAN BANK", "reference": "ChIJ0-yxFvrI5zsRqxy95tQmPfs", "geometry": {"location": {"lat": 19.0768336, "lng": 72.86222900000001}, "viewport": {"northeast": {"lat": 19.0781645802915, "lng": 72.8636073302915}, "southwest": {"lat": 19.0754666197085, "lng": 72.8609093697085}}}, "place_id": "ChIJ0-yxFvrI5zsRqxy95tQmPfs", "plus_code": {"global_code": "7JFJ3VG6+PV", "compound_code": "3VG6+PV Mumbai, Maharashtra, India"}, "vicinity": "Abhilash Tourist Home Building, Railway station Road, Kannur", "scope": "GOOGLE", "business_status": "OPERATIONAL", "types": ["bank", "finance", "point_of_interest", "establishment"], "icon": "https://maps.gstatic.com/mapfiles/place_api/icons/v1/png_71/bank_dollar-71.png"}, {"name": "\u0915\u093e\u0932\u0940\u0928\u093e\u092c\u093e\u091c\u093e\u0930", "reference": "ChIJjbtDC4jJ5zsRB4W8SQM9yVs", "geometry": {"location": {"lat": 19.0776385, "lng": 72.8632312}, "viewport": {"northeast": {"lat": 19.0789612802915, "lng": 72.86456838029152}, "southwest": {"lat": 19.0762633197085, "lng": 72.8618704197085}}}, "place_id": "ChIJjbtDC4jJ5zsRB4W8SQM9yVs", "plus_code": {"global_code": "7JFJ3VH7+37", "compound_code": "3VH7+37 Mumbai, Maharashtra, India"}, "vicinity": "43-160, Kalina Kurla Road, Kolivery Village, Vidya Nagari, Kalina, Santacruz East, Mumbai", "scope": "GOOGLE", "business_status": "OPERATIONAL", "types": ["bank", "finance", "point_of_interest", "establishment"], "icon": "https://maps.gstatic.com/mapfiles/place_api/icons/v1/png_71/bank_dollar-71.png"}, {"rating": 4, "user_ratings_total": 1, "name": "SHALIMAR FABRICATION WARK", "reference": "ChIJIY24DuLJ5zsRKg7ecdSPzSc", "geometry": {"location": {"lat": 19.0752931, "lng": 72.8601848}, "viewport": {"northeast": {"lat": 19.0765553802915, "lng": 72.8617557302915}, "southwest": {"lat": 19.0738574197085, "lng": 72.85905776970849}}}, "opening_hours": {"open_now": true}, "place_id": "ChIJIY24DuLJ5zsRKg7ecdSPzSc", "plus_code": {"global_code": "7JFJ3VG6+43", "compound_code": "3VG6+43 Mumbai, Maharashtra, India"}, "vicinity": "Plot no 313(15)bisaid Bharat bank, Vidya Nagari, Kalina, Santacruz East, Mumbai", "photos": [{"photo_reference": "CmRaAAAAKh6wA9F_ARoEllbcnqzTlvs1yw3xAkdfZHJ0KQ0wQUx-gJ8IITbhcvwF0mOPZ98y4DRAM_ekud5923aQbgVKzC9_-hS6LQl8coXHVvpdju-mHniMTkN5BvAJvnpLqlGIEhDEOhmdKM6WsYq10B8fq5rAGhQD3w_e1pQ6ci6xD6IGpfwd9LH5iw", "width": 4160, "html_attributions": ["<a href=\"https://maps.google.com/maps/contrib/109986970093796886887\">IMRAN AHMED ABBASI</a>"], "height": 3120}], "scope": "GOOGLE", "business_status": "OPERATIONAL", "types": ["bank", "finance", "point_of_interest", "establishment"], "icon": "https://maps.gstatic.com/mapfiles/place_api/icons/v1/png_71/bank_dollar-71.png"}, {"name": "ICICI BANK ATM", "reference": "ChIJ21QlrAzJ5zsRaiDOLElnxrg", "geometry": {"location": {"lat": 19.081646, "lng": 72.8552017}, "viewport": {"northeast": {"lat": 19.0829627802915, "lng": 72.8565561802915}, "southwest": {"lat": 19.0802648197085, "lng": 72.85385821970848}}}, "opening_hours": {"open_now": true}, "place_id": "ChIJ21QlrAzJ5zsRaiDOLElnxrg", "plus_code": {"global_code": "7JFJ3VJ4+M3", "compound_code": "3VJ4+M3 Mumbai, Maharashtra, India"}, "vicinity": "Ibsl-Harmony, Nehru Road, Vakola, Santacruz(E, Mumbai", "scope": "GOOGLE", "business_status": "OPERATIONAL", "types": ["bank", "finance", "point_of_interest", "establishment"], "icon": "https://maps.gstatic.com/mapfiles/place_api/icons/v1/png_71/bank_dollar-71.png"}, {"name": "ICICI BANK ATM", "reference": "ChIJtfKMRGzJ5zsRJwtD0y_fc-o", "geometry": {"location": {"lat": 19.0779991, "lng": 72.8656998}, "viewport": {"northeast": {"lat": 19.0792728802915, "lng": 72.86707008029151}, "southwest": {"lat": 19.0765749197085, "lng": 72.8643721197085}}}, "opening_hours": {"open_now": true}, "place_id": "ChIJtfKMRGzJ5zsRJwtD0y_fc-o", "plus_code": {"global_code": "7JFJ3VH8+57", "compound_code": "3VH8+57 Mumbai, Maharashtra, India"}, "vicinity": "Ground Floor, Pathathu House, Kalina Kurla Road , Kalina Markert, Santacruz , E, Mumbai", "scope": "GOOGLE", "business_status": "OPERATIONAL", "types": ["bank", "finance", "point_of_interest", "establishment"], "icon": "https://maps.gstatic.com/mapfiles/place_api/icons/v1/png_71/bank_dollar-71.png"}, {"name": "\u092e\u0947\u0935\u093e\u095c \u0906\u0938\u094d\u0915\u0940\u092e", "reference": "ChIJDSVtxfDI5zsRYyBoZ4qEy94", "geometry": {"location": {"lat": 19.0773617, "lng": 72.8654406}, "viewport": {"northeast": {"lat": 19.07874913029151, "lng": 72.86682693029151}, "southwest": {"lat": 19.0760511697085, "lng": 72.8641289697085}}}, "place_id": "ChIJDSVtxfDI5zsRYyBoZ4qEy94", "plus_code": {"global_code": "7JFJ3VG8+W5", "compound_code": "3VG8+W5 Mumbai, Maharashtra, India"}, "vicinity": "Kolivery Village, Vidya Nagari, Kalina, Santacruz East, Mumbai", "scope": "GOOGLE", "business_status": "OPERATIONAL", "types": ["bank", "finance", "point_of_interest", "establishment"], "icon": "https://maps.gstatic.com/mapfiles/place_api/icons/v1/png_71/bank_dollar-71.png"}, {"rating": 4.6, "user_ratings_total": 5, "name": "In G S Point Building", "reference": "ChIJSa3__PrI5zsRilngSAAffK8", "geometry": {"location": {"lat": 19.0742027, "lng": 72.86075749999999}, "viewport": {"northeast": {"lat": 19.0755313802915, "lng": 72.8620543302915}, "southwest": {"lat": 19.0728334197085, "lng": 72.85935636970848}}}, "place_id": "ChIJSa3__PrI5zsRilngSAAffK8", "plus_code": {"global_code": "7JFJ3VF6+M8", "compound_code": "3VF6+M8 Mumbai, Maharashtra, India"}, "vicinity": "400098, Vidya Nagari, Kalina, Santacruz East, Mumbai", "photos": [{"photo_reference": "CmRaAAAAgZhZkjXblqSUItEIY9gm_YRaZ-YxhAlJMEXVVg4VovLW8qxRB7i4EIbGjwI1-u7gw3mMTCRPs05UeRBCi0_y8q5hSs-p5rxAuNiSiBuq5m1-D4_SuqjE4c3nwki1qHJoEhDbipz2I_Y3DHT1ciyWUQ18GhQqUlgFT-dWi8cZmDu0XWZeLmC-tw", "width": 3000, "html_attributions": ["<a href=\"https://maps.google.com/maps/contrib/112490221553463694651\">Narendra Mehra</a>"], "height": 4000}], "scope": "GOOGLE", "business_status": "OPERATIONAL", "types": ["bank", "finance", "point_of_interest", "establishment"], "icon": "https://maps.gstatic.com/mapfiles/place_api/icons/v1/png_71/bank_dollar-71.png"}, {"rating": 5, "user_ratings_total": 1, "name": "Model Bank Kalina Branch", "reference": "ChIJi47r0_DI5zsRgJNLLfifWQM", "geometry": {"location": {"lat": 19.0779237, "lng": 72.8658768}, "viewport": {"northeast": {"lat": 19.0792798302915, "lng": 72.86722243029149}, "southwest": {"lat": 19.0765818697085, "lng": 72.86452446970848}}}, "place_id": "ChIJi47r0_DI5zsRgJNLLfifWQM", "plus_code": {"global_code": "7JFJ3VH8+59", "compound_code": "3VH8+59 Mumbai, Maharashtra, India"}, "vicinity": "Jamlipada, Vidya Nagari, Kalina, Santacruz East, Mumbai", "photos": [{"photo_reference": "CmRaAAAA2X3yAEwuxEWbH2vpq9pwek6WLYOOg5KYpa0y0N4sKauNkP5kp2OQPln69awQTJk84ZGdc5nD0IFgc8a4Ie-TvZmoUpNP6zRhjWHoBetmPxfcAdbPJU-QjgmnSyb4qP2fEhAgELssI9-N_wKzWjutWo7PGhQU9Tl5c6vYdO3mzw0-0dfgb5nEnQ", "width": 4032, "html_attributions": ["<a href=\"https://maps.google.com/maps/contrib/103073181565624369320\">Luton Fernandes</a>"], "height": 2268}], "scope": "GOOGLE", "business_status": "OPERATIONAL", "types": ["bank", "finance", "point_of_interest", "establishment"], "icon": "https://maps.gstatic.com/mapfiles/place_api/icons/v1/png_71/bank_dollar-71.png"}]}