{"status": "OK", "next_page_token": "CsQDtgEAAI1go5JOj-h-0-xsJWNvNwoDLCCOuTtMPeI4IFyFHHRAfcDXCHrzZjnbrcyaQXTEXZFkBfdM7PH0jM0hNHFKZXsH89EOakmKajnr0STDSw6BaoN-LV5PckElREZSakHwpmdoKq76r5NOj0t64zKZsgquwP0nz3Qas1ulULM218135_v_krGNnvRa-yEsB9LhiF0hG7ilTQFS2rdoXzlIfZq879CLQAUTWXD5nkuPmRm6N6oM686Yv1nqfBorph59js_blLO61FUB6FgPvqlAdT02s2Hkj55ignPS2PC6LtqurRWwVgB_HpzWi2aCOfP1A5S98WoVmUjyBNZGhMFKSwgf7kaEye3_6n6I_7cCKxdmQ4Mh9HGLf6l76aNdKHSell_KjBPEN4T2LQzCN-XpQsoXU0q3s9GgmECgeHnuUSheVlaGLQfEaOeete3s4ex8ijMspq5BXoEB8fj85C2cLIDCFn8IB7KfR8Y4v_d95l61xuuvEFqnnUmPLuvmw5lhdTvHhQh8iBdSAax5tkI5ThLTG6LHUDE6M-sU2lWXGJq6ETRba4mSySSK2gKtFgpydtHWwVb68_-ks_yzxAj7rbYSEKDMbGKYvDpEzajUyskcprsaFPzAPVmb3jnVnXdSUJsiaHlyqcTh", "html_attributions": [], "results": [{"rating": 3.5, "user_ratings_total": 26, "name": "State Bank of India", "reference": "ChIJwwE6OZLR5zsRNfsr89-iOfk", "geometry": {"location": {"lat": 18.9147129, "lng": 72.818246}, "viewport": {"northeast": {"lat": 18.9161365802915, "lng": 72.81945523029151}, "southwest": {"lat": 18.91343861970849, "lng": 72.81675726970849}}}, "opening_hours": {"open_now": false}, "place_id": "ChIJwwE6OZLR5zsRNfsr89-iOfk", "plus_code": {"global_code": "7JCJWR79+V7", "compound_code": "WR79+V7 Mumbai, Maharashtra, India"}, "vicinity": "No 6, The Arcade, World Trade Centre World Trade Centre, Cuffe Parade, Mumbai", "scope": "GOOGLE", "business_status": "OPERATIONAL", "types": ["bank", "finance", "point_of_interest", "establishment"], "icon": "https://maps.gstatic.com/mapfiles/place_api/icons/v1/png_71/bank_dollar-71.png"}, {"rating": 4.2, "user_ratings_total": 6, "name": "Vijaya Bank", "reference": "ChIJq6qq6pPR5zsRtzEZgjXTLac", "geometry": {"location": {"lat": 18.9144014, "lng": 72.82212179999999}, "viewport": {"northeast": {"lat": 18.9158177302915, "lng": 72.8233873302915}, "southwest": {"lat": 18.9131197697085, "lng": 72.82068936970849}}}, "opening_hours": {"open_now": false}, "place_id": "ChIJq6qq6pPR5zsRtzEZgjXTLac", "plus_code": {"global_code": "7JCJWR7C+QR", "compound_code": "WR7C+QR Mumbai, Maharashtra, India"}, "vicinity": "29, Clover Apartment, Opposite Hotel Taj President, Cuffe Parade, Colaba, Mumbai - 400005", "scope": "GOOGLE", "business_status": "OPERATIONAL", "types": ["bank", "finance", "point_of_interest", "establishment"], "icon": "https://maps.gstatic.com/mapfiles/place_api/icons/v1/png_71/bank_dollar-71.png"}, {"rating": 4.2, "user_ratings_total": 16, "name": "Punjab National Bank", "reference": "ChIJq6qq6pPR5zsReG3ZhSwszxk", "geometry": {"location": {"lat": 18.9164048, "lng": 72.8171088}, "viewport": {"northeast": {"lat": 18.9176855802915, "lng": 72.8183910802915}, "southwest": {"lat": 18.9149876197085, "lng": 72.81569311970848}}}, "opening_hours": {"open_now": false}, "place_id": "ChIJq6qq6pPR5zsReG3ZhSwszxk", "plus_code": {"global_code": "7JCJWR88+HR", "compound_code": "WR88+HR Mumbai, Maharashtra, India"}, "vicinity": "7th Maker Tower E Colaba, Cuffe Parade, Mumbai", "photos": [{"photo_reference": "CmRaAAAAwZkou8Dm8Gf4yMXnooAT2Ar2p5gTXuzvgEZgm3iem6yiGUtER-99LJoxMPNsNwyoO2CnCuclvvantC1_nl5PjhK7LGQnhFqZt6DXgKFYQs67T1jQF9ctzUtW0-ZQvYwcEhC4Ao1-onE-zAoTDkchVgKEGhQnKY1vKEaVCuFwAidObhJwYx_HkQ", "width": 4032, "html_attributions": ["<a href=\"https://maps.google.com/maps/contrib/103177467766015149251\">BALBIR Singh</a>"], "height": 3024}], "scope": "GOOGLE", "business_status": "OPERATIONAL", "types": ["bank", "finance", "point_of_interest", "establishment"], "icon": "https://maps.gstatic.com/mapfiles/place_api/icons/v1/png_71/bank_dollar-71.png"}, {"rating": 3.9, "user_ratings_total": 8, "name": "Dena Bank", "reference": "ChIJo-uiesDR5zsROupmDRekhbA", "geometry": {"location": {"lat": 18.9180004, "lng": 72.8279185}, "viewport": {"northeast": {"lat": 18.9193197302915, "lng": 72.82929933029149}, "southwest": {"lat": 18.9166217697085, "lng": 72.82660136970848}}}, "opening_hours": {"open_now": false}, "place_id": "ChIJo-uiesDR5zsROupmDRekhbA", "plus_code": {"global_code": "7JCJWR9H+65", "compound_code": "WR9H+65 Mumbai, Maharashtra, India"}, "vicinity": "32 Dena Bank Building, 2nd Pasta Lane, Shahid Bhagat Singh Road, Colaba, Mumbai", "photos": [{"photo_reference": "CmRaAAAAtY4gegOmq8ORggeRhB99o4WRjapMUPia8ktpr5k2yd9tmRqVD4y8qZznd37riueuxotjJMZqhFBzYwQk08HI9uj-cpNGABNLs2ty4OE4evWM3LiV9OTRo89yIZqZaSvGEhC4P2DdVs2Nap35lajmoeJ4GhSNrZWEuvU9INprXrIJVA85iueESw", "width": 4608, "html_attributions": ["<a href=\"https://maps.google.com/maps/contrib/114268707856401668099\">Haresh Gaikwad</a>"], "height": 2592}], "scope": "GOOGLE", "business_status": "OPERATIONAL", "types": ["bank", "finance", "point_of_interest", "establishment"], "icon": "https://maps.gstatic.com/mapfiles/place_api/icons/v1/png_71/bank_dollar-71.png"}, {"rating": 4.5, "user_ratings_total": 2, "name": "Punjab & Sind Bank", "reference": "ChIJ____b-nR5zsRf66X_LKpW20", "geometry": {"location": {"lat": 18.924879, "lng": 72.8280566}, "viewport": {"northeast": {"lat": 18.9262270302915, "lng": 72.82942973029151}, "southwest": {"lat": 18.9235290697085, "lng": 72.82673176970849}}}, "opening_hours": {"open_now": false}, "place_id": "ChIJ____b-nR5zsRf66X_LKpW20", "vicinity": "Dilwara Society, 8 MK Road, Nariman Point, Mumbai", "scope": "GOOGLE", "business_status": "OPERATIONAL", "types": ["bank", "finance", "point_of_interest", "establishment"], "icon": "https://maps.gstatic.com/mapfiles/place_api/icons/v1/png_71/bank_dollar-71.png"}, {"rating": 4.8, "user_ratings_total": 4, "name": "Syndicate Bank", "reference": "ChIJq6qq6pPR5zsRIFa64tHkebo", "geometry": {"location": {"lat": 18.9162224, "lng": 72.8171042}, "viewport": {"northeast": {"lat": 18.9175584802915, "lng": 72.81844058029151}, "southwest": {"lat": 18.9148605197085, "lng": 72.81574261970849}}}, "opening_hours": {"open_now": false}, "place_id": "ChIJq6qq6pPR5zsRIFa64tHkebo", "plus_code": {"global_code": "7JCJWR88+FR", "compound_code": "WR88+FR Mumbai, Maharashtra, India"}, "vicinity": "India", "scope": "GOOGLE", "business_status": "OPERATIONAL", "types": ["bank", "finance", "point_of_interest", "establishment"], "icon": "https://maps.gstatic.com/mapfiles/place_api/icons/v1/png_71/bank_dollar-71.png"}, {"rating": 4, "user_ratings_total": 4, "name": "Vijaya Bank", "reference": "ChIJO0Lu5OvR5zsRSQgPcACJA6M", "geometry": {"location": {"lat": 18.9242498, "lng": 72.822876}, "viewport": {"northeast": {"lat": 18.9258558302915, "lng": 72.8239041802915}, "southwest": {"lat": 18.9231578697085, "lng": 72.82120621970849}}}, "place_id": "ChIJO0Lu5OvR5zsRSQgPcACJA6M", "plus_code": {"global_code": "7JCJWRFF+M5", "compound_code": "WRFF+M5 Mumbai, Maharashtra, India"}, "vicinity": "Maker Chambers 4, Jamnalal Bajaj Road, Nariman Point, Mumbai", "photos": [{"photo_reference": "CmRaAAAAMh1RMP_Ez1fo_sVknUYD99vmEdFutaobnG9bkXJrk9NTzCHZSaabCh5s_qAZ3bM7sAb_iYEPg8mAI4AFUr5xQNWcN1JEyJSJcb23S0L5W4knhC_Io9NldyXrf7dBq-qmEhDRX_CUNwLuboV5HdASDMb5GhTrx_X7OPzEp6mSzZHGCoBwsQ4KIg", "width": 1080, "html_attributions": ["<a href=\"https://maps.google.com/maps/contrib/101066898771060409546\">Yusuf Hussain</a>"], "height": 557}], "scope": "GOOGLE", "business_status": "OPERATIONAL", "types": ["bank", "finance", "point_of_interest", "establishment"], "icon": "https://maps.gstatic.com/mapfiles/place_api/icons/v1/png_71/bank_dollar-71.png"}, {"rating": 2.5, "user_ratings_total": 2, "name": "Allahabad Bank", "reference": "ChIJOUAnze7R5zsRwraLVbOXVFQ", "geometry": {"location": {"lat": 18.9264344, "lng": 72.8220312}, "viewport": {"northeast": {"lat": 18.9278765302915, "lng": 72.8235037802915}, "southwest": {"lat": 18.9251785697085, "lng": 72.8208058197085}}}, "opening_hours": {"open_now": false}, "place_id": "ChIJOUAnze7R5zsRwraLVbOXVFQ", "plus_code": {"global_code": "7JCJWRGC+HR", "compound_code": "WRGC+HR Mumbai, Maharashtra, India"}, "vicinity": "SHOW ROOM NO 4 MITTAL CHAMBERS, Nariman Point, Mumbai", "scope": "GOOGLE", "business_status": "OPERATIONAL", "types": ["bank", "finance", "point_of_interest", "establishment"], "icon": "https://maps.gstatic.com/mapfiles/place_api/icons/v1/png_71/bank_dollar-71.png"}, {"name": "Commerzbank", "reference": "ChIJ____b-nR5zsRzF4r-5FWkLI", "geometry": {"location": {"lat": 18.9259034, "lng": 72.8215669}, "viewport": {"northeast": {"lat": 18.9273513802915, "lng": 72.82299728029149}, "southwest": {"lat": 18.9246534197085, "lng": 72.82029931970848}}}, "opening_hours": {"open_now": false}, "place_id": "ChIJ____b-nR5zsRzF4r-5FWkLI", "plus_code": {"global_code": "7JCJWRGC+9J", "compound_code": "WRGC+9J Mumbai, Maharashtra, India"}, "vicinity": "9-03 Nariman Bhavan, 227 Nariman Point, Mumbai", "scope": "GOOGLE", "business_status": "OPERATIONAL", "types": ["bank", "finance", "point_of_interest", "establishment"], "icon": "https://maps.gstatic.com/mapfiles/place_api/icons/v1/png_71/bank_dollar-71.png"}, {"name": "Fuji Bank Ltd", "reference": "ChIJ____b-nR5zsR51d-cCRFS30", "geometry": {"location": {"lat": 18.9249827, "lng": 72.8222116}, "viewport": {"northeast": {"lat": 18.92631808029151, "lng": 72.82357908029151}, "southwest": {"lat": 18.9236201197085, "lng": 72.82088111970849}}}, "place_id": "ChIJ____b-nR5zsR51d-cCRFS30", "plus_code": {"global_code": "7JCJWRFC+XV", "compound_code": "WRFC+XV Mumbai, Maharashtra, India"}, "vicinity": "India", "scope": "GOOGLE", "business_status": "OPERATIONAL", "types": ["bank", "finance", "point_of_interest", "establishment"], "icon": "https://maps.gstatic.com/mapfiles/place_api/icons/v1/png_71/bank_dollar-71.png"}, {"name": "Banca Intesa Spa", "reference": "ChIJ____b-nR5zsRmKXozjw5qbM", "geometry": {"location": {"lat": 18.9258864, "lng": 72.8242198}, "viewport": {"northeast": {"lat": 18.9270557302915, "lng": 72.82553783029151}, "southwest": {"lat": 18.9243577697085, "lng": 72.8228398697085}}}, "place_id": "ChIJ____b-nR5zsRmKXozjw5qbM", "plus_code": {"global_code": "7JCJWRGF+9M", "compound_code": "WRGF+9M Mumbai, Maharashtra, India"}, "vicinity": "242, Barrister Rajni Patel Marg, Nariman Point, Mumbai", "scope": "GOOGLE", "business_status": "OPERATIONAL", "types": ["bank", "finance", "point_of_interest", "establishment"], "icon": "https://maps.gstatic.com/mapfiles/place_api/icons/v1/png_71/bank_dollar-71.png"}, {"name": "Landesbank Baden Wrttemberg", "reference": "ChIJ____b-nR5zsR16xktsdS-6A", "geometry": {"location": {"lat": 18.9239036, "lng": 72.82223720000002}, "viewport": {"northeast": {"lat": 18.9252846302915, "lng": 72.82361743029152}, "southwest": {"lat": 18.9225866697085, "lng": 72.82091946970851}}}, "place_id": "ChIJ____b-nR5zsR16xktsdS-6A", "plus_code": {"global_code": "7JCJWRFC+HV", "compound_code": "WRFC+HV Mumbai, Maharashtra, India"}, "vicinity": "920, Maker Chamber, Nariman Point, Mumbai - 400021", "scope": "GOOGLE", "business_status": "OPERATIONAL", "types": ["bank", "finance", "point_of_interest", "establishment"], "icon": "https://maps.gstatic.com/mapfiles/place_api/icons/v1/png_71/bank_dollar-71.png"}, {"rating": 2.8, "user_ratings_total": 5, "name": "Union Bank Of India Cuffe Parade", "reference": "ChIJa_qlUJHR5zsRkvIo6B_w0PE", "geometry": {"location": {"lat": 18.916147, "lng": 72.8194623}, "viewport": {"northeast": {"lat": 18.9174405302915, "lng": 72.82076413029151}, "southwest": {"lat": 18.9147425697085, "lng": 72.81806616970849}}}, "opening_hours": {"open_now": false}, "place_id": "ChIJa_qlUJHR5zsRkvIo6B_w0PE", "plus_code": {"global_code": "7JCJWR89+FQ", "compound_code": "WR89+FQ Mumbai, Maharashtra, India"}, "vicinity": "625, G.D. Somani Memorial School Bldg, GD Somani Road, Cuffe Parade, Mumbai", "photos": [{"photo_reference": "CmRaAAAANOFMNhnlEnKd-cz14LG2qsCt4cMj0IoqXms15eMCtHTIyJE5B89EO8tVT_tELILN5gtkkHjJl74Op206MXPV8102G8qsS6FgUbKyGokcMB0Kmd-EP2KaamU5FTCQg_75EhBBI9ErSpJPNY9Tm-t_2t-vGhQbAXaRwrAj5Eb2Itqp_-P6Nqke6Q", "width": 4032, "html_attributions": ["<a href=\"https://maps.google.com/maps/contrib/116396215821903981961\">ashutosh giri</a>"], "height": 3024}], "scope": "GOOGLE", "business_status": "OPERATIONAL", "types": ["bank", "finance", "point_of_interest", "establishment"], "icon": "https://maps.gstatic.com/mapfiles/place_api/icons/v1/png_71/bank_dollar-71.png"}, {"rating": 5, "user_ratings_total": 2, "name": "FEDAI", "reference": "ChIJS4OJlZLR5zsRyo4wlqshauY", "geometry": {"location": {"lat": 18.9170103, "lng": 72.8173238}, "viewport": {"northeast": {"lat": 18.9183137302915, "lng": 72.8188121302915}, "southwest": {"lat": 18.9156157697085, "lng": 72.8161141697085}}}, "opening_hours": {"open_now": false}, "place_id": "ChIJS4OJlZLR5zsRyo4wlqshauY", "plus_code": {"global_code": "7JCJWR88+RW", "compound_code": "WR88+RW Mumbai, Maharashtra, India"}, "vicinity": "90, GD Somani Road, Cuffe Parade, Mumbai", "scope": "GOOGLE", "business_status": "OPERATIONAL", "types": ["bank", "finance", "point_of_interest", "establishment"], "icon": "https://maps.gstatic.com/mapfiles/place_api/icons/v1/png_71/bank_dollar-71.png"}, {"rating": 3.5, "user_ratings_total": 4, "name": "Bank of Baroda ATM", "reference": "ChIJm1E4AZPR5zsR2gQk5gvb8UM", "geometry": {"location": {"lat": 18.9160377, "lng": 72.81936590000001}, "viewport": {"northeast": {"lat": 18.9174112302915, "lng": 72.8207357302915}, "southwest": {"lat": 18.9147132697085, "lng": 72.8180377697085}}}, "opening_hours": {"open_now": true}, "place_id": "ChIJm1E4AZPR5zsR2gQk5gvb8UM", "plus_code": {"global_code": "7JCJWR89+CP", "compound_code": "WR89+CP Mumbai, Maharashtra, India"}, "vicinity": "GD Somani Rd, Cuffe Parade, Mumbai", "photos": [{"photo_reference": "CmRaAAAAkMh7eKjd7nV1qcT3SZInh1nRhcZAcwHPyJz8-5OhBzG3nBuKhtgkYkQTWD1Hvp34fBMc8tnysmL55diiw3E-fCGG3L0cs5Jh3ImBsY_TUDPSfu0SVpYEtLmqpQdkxarJEhAyBYpTLBKo-nm_UOdKUrrlGhQBOCR0BZYogMRdkE4GgBJiySBDTA", "width": 4032, "html_attributions": ["<a href=\"https://maps.google.com/maps/contrib/103934935428197456237\">Shraddha Joshi</a>"], "height": 3024}], "scope": "GOOGLE", "business_status": "OPERATIONAL", "types": ["atm", "bank", "finance", "point_of_interest", "establishment"], "icon": "https://maps.gstatic.com/mapfiles/place_api/icons/v1/png_71/atm-71.png"}, {"rating": 4, "user_ratings_total": 1, "name": "CANARA BANK ATM", "reference": "ChIJy6MwjpLR5zsRfdt47dUn9cs", "geometry": {"location": {"lat": 18.916893, "lng": 72.817311}, "viewport": {"northeast": {"lat": 18.9183753302915, "lng": 72.8184662302915}, "southwest": {"lat": 18.9156773697085, "lng": 72.8157682697085}}}, "opening_hours": {"open_now": true}, "place_id": "ChIJy6MwjpLR5zsRfdt47dUn9cs", "plus_code": {"global_code": "7JCJWR88+QW", "compound_code": "WR88+QW Mumbai, Maharashtra, India"}, "vicinity": "Maker Tower F, WING, Cuffe Parade, Mumbai", "scope": "GOOGLE", "business_status": "OPERATIONAL", "types": ["atm", "bank", "finance", "point_of_interest", "establishment"], "icon": "https://maps.gstatic.com/mapfiles/place_api/icons/v1/png_71/atm-71.png"}, {"rating": 5, "user_ratings_total": 1, "name": "YES Bank", "reference": "ChIJQ0hUGZHR5zsRoDiKtTQCeGM", "geometry": {"location": {"lat": 18.9167691, "lng": 72.8174386}, "viewport": {"northeast": {"lat": 18.9182113802915, "lng": 72.8188764802915}, "southwest": {"lat": 18.9155134197085, "lng": 72.81617851970849}}}, "opening_hours": {"open_now": false}, "place_id": "ChIJQ0hUGZHR5zsRoDiKtTQCeGM", "plus_code": {"global_code": "7JCJWR88+PX", "compound_code": "WR88+PX Mumbai, Maharashtra, India"}, "vicinity": "near Gd Somani Marg, SN 1 & 2, Maker Arcade Shopping Centre Nariman Point, near Gd Somani Marg, Cuffe Parade, Mumbai", "photos": [{"photo_reference": "CmRaAAAA02ks228JuoeewYTCms5SbtqBQbh6vUZkudxrzLEgBIFCn5YGapH3XsE5B9lMUMjxQu9CnJDOS6InkIDktUh5Dll7KLfUqJX27dvZ6WwF2PNmiyqoJ4ug1tR-cDXAcwF1EhB7OR4enrIYyPhlqCNb9C1aGhSQvtpeTvVK2vFS-QRz1EbYTVg02A", "width": 1080, "html_attributions": ["<a href=\"https://maps.google.com/maps/contrib/113859179069856993171\">Tushar Boruah</a>"], "height": 1920}], "scope": "GOOGLE", "business_status": "OPERATIONAL", "types": ["bank", "finance", "point_of_interest", "establishment"], "icon": "https://maps.gstatic.com/mapfiles/place_api/icons/v1/png_71/bank_dollar-71.png"}, {"rating": 5, "user_ratings_total": 1, "name": "Punjab National Bank - Branch Capital Market", "reference": "ChIJtwS17JLR5zsRxnH_Ciz_WwM", "geometry": {"location": {"lat": 18.9165783, "lng": 72.8176041}, "viewport": {"northeast": {"lat": 18.9178882302915, "lng": 72.8190012302915}, "southwest": {"lat": 18.9151902697085, "lng": 72.8163032697085}}}, "opening_hours": {"open_now": false}, "place_id": "ChIJtwS17JLR5zsRxnH_Ciz_WwM", "plus_code": {"global_code": "7JCJWR89+J2", "compound_code": "WR89+J2 Mumbai, Maharashtra, India"}, "vicinity": "7th Floor, Maker Tower F, Chamundeshwari Nagar, Cuffe Parade, Mumbai", "scope": "GOOGLE", "business_status": "OPERATIONAL", "types": ["bank", "finance", "point_of_interest", "establishment"], "icon": "https://maps.gstatic.com/mapfiles/place_api/icons/v1/png_71/bank_dollar-71.png"}, {"rating": 3.7, "user_ratings_total": 3, "name": "Bank Of Baroda", "reference": "ChIJSYpBoZPR5zsR9H2BnLaTuzw", "geometry": {"location": {"lat": 18.91557, "lng": 72.820245}, "viewport": {"northeast": {"lat": 18.9168579802915, "lng": 72.82154218029152}, "southwest": {"lat": 18.91416001970849, "lng": 72.8188442197085}}}, "opening_hours": {"open_now": false}, "place_id": "ChIJSYpBoZPR5zsR9H2BnLaTuzw", "plus_code": {"global_code": "7JCJWR8C+63", "compound_code": "WR8C+63 Mumbai, Maharashtra, India"}, "vicinity": "GD Somani Road, Ganesh Murti Nagar, Cuffe Parade, Mumbai", "scope": "GOOGLE", "business_status": "OPERATIONAL", "types": ["bank", "finance", "point_of_interest", "establishment"], "icon": "https://maps.gstatic.com/mapfiles/place_api/icons/v1/png_71/bank_dollar-71.png"}, {"name": "Fedral Babnk Ltd", "reference": "ChIJ2dOW9-vR5zsRPgih8jGuhhU", "geometry": {"location": {"lat": 18.9239036, "lng": 72.82223720000002}, "viewport": {"northeast": {"lat": 18.9252846302915, "lng": 72.82361743029152}, "southwest": {"lat": 18.9225866697085, "lng": 72.82091946970851}}}, "place_id": "ChIJ2dOW9-vR5zsRPgih8jGuhhU", "plus_code": {"global_code": "7JCJWRFC+HV", "compound_code": "WRFC+HV Mumbai, Maharashtra, India"}, "vicinity": "1342, Maker Chamber, Nariman Point, Mumbai - 400021", "scope": "GOOGLE", "business_status": "OPERATIONAL", "types": ["bank", "finance", "point_of_interest", "establishment"], "icon": "https://maps.gstatic.com/mapfiles/place_api/icons/v1/png_71/bank_dollar-71.png"}]}