{"status": "OK", "html_attributions": [], "results": [{"rating": 4.5, "user_ratings_total": 4, "name": "ICICI Bank Kalbadevi, Mumbai - Branch & ATM", "reference": "ChIJ-___vxjO5zsRVjMVrV63OIQ", "geometry": {"location": {"lat": 18.949479, "lng": 72.826438}, "viewport": {"northeast": {"lat": 18.9508278802915, "lng": 72.82778688029151}, "southwest": {"lat": 18.9481299197085, "lng": 72.82508891970849}}}, "opening_hours": {"open_now": false}, "place_id": "ChIJ-___vxjO5zsRVjMVrV63OIQ", "plus_code": {"global_code": "7JCJWRXG+QH", "compound_code": "WRXG+QH Mumbai, Maharashtra, India"}, "vicinity": "13/17 p h purohit marg,(ramwadi), Adarsh hotel building, Kalbadevi,, Mumbai", "photos": [{"photo_reference": "CmRaAAAAhjgrwihW1QK__h6ofHnt9c-XUqQwpUK2keslAYhsmrTd31LYqY1B2X-0NrhDyqdMsQeS1gnk_e9eK4S_o2mXvSO-01Pa2FpSlnjwyZtZMlHtTCPi0bxQQZ1BuIq8hYvcEhAjnPgds6hzIj2WZoLqDPFbGhSKsXWV6neyT8MTuuVY3gWee9cgWA", "width": 1024, "html_attributions": ["<a href=\"https://maps.google.com/maps/contrib/112248157786414926829\">ICICI Bank Kalbadevi, Mumbai - Branch &amp; ATM</a>"], "height": 768}], "scope": "GOOGLE", "business_status": "OPERATIONAL", "types": ["bank", "finance", "point_of_interest", "establishment"], "icon": "https://maps.gstatic.com/mapfiles/place_api/icons/v1/png_71/bank_dollar-71.png"}, {"rating": 2.9, "user_ratings_total": 17, "name": "State Bank of India", "reference": "ChIJU0zHAhrO5zsRsoy4oVbax4g", "geometry": {"location": {"lat": 18.9510126, "lng": 72.82346489999999}, "viewport": {"northeast": {"lat": 18.9523746302915, "lng": 72.82483013029152}, "southwest": {"lat": 18.9496766697085, "lng": 72.8221321697085}}}, "opening_hours": {"open_now": false}, "place_id": "ChIJU0zHAhrO5zsRsoy4oVbax4g", "plus_code": {"global_code": "7JCJXR2F+C9", "compound_code": "XR2F+C9 Mumbai, Maharashtra, India"}, "vicinity": "No 144, Majestic Shopping Centre, Jagannath Shankar Seth Road, Girgaon, Mumbai", "photos": [{"photo_reference": "CmRaAAAA7iBURdc8oMuEIgi2aqkLZLWzShFT-gltqyVQeJN_L1K1UYKUXzEoEvqBN1JsoBB4WhZ4BWnynaynSrqTSOeYW0CwfOLbxqQ6vdbzjqhlClSk7rTrVmPedAhbZ4kOuE_fEhBN19yZGru_8GPIqWfhCbKnGhQrRmjeByJ0YU_0I33qizS8CYLDGQ", "width": 4128, "html_attributions": ["<a href=\"https://maps.google.com/maps/contrib/113767382710667923517\">Mayuresh Shidhaye</a>"], "height": 3096}], "scope": "GOOGLE", "business_status": "OPERATIONAL", "types": ["bank", "finance", "point_of_interest", "establishment"], "icon": "https://maps.gstatic.com/mapfiles/place_api/icons/v1/png_71/bank_dollar-71.png"}, {"rating": 2, "user_ratings_total": 2, "name": "YES Bank ATM", "reference": "ChIJdSo9DCDO5zsRNOamTvHQ6X4", "geometry": {"location": {"lat": 18.9450375, "lng": 72.8310441}, "viewport": {"northeast": {"lat": 18.9464393302915, "lng": 72.8324541802915}, "southwest": {"lat": 18.9437413697085, "lng": 72.8297562197085}}}, "opening_hours": {"open_now": true}, "place_id": "ChIJdSo9DCDO5zsRNOamTvHQ6X4", "plus_code": {"global_code": "7JCJWRWJ+2C", "compound_code": "WRWJ+2C Mumbai, Maharashtra, India"}, "vicinity": "Metro House, Mahatma Gandhi Road, Dhobi Talao, Marine Lines, Mumbai", "photos": [{"photo_reference": "CmRaAAAApq0cySDd4zqI57-MYv_B4kJnjF5DqbIrHkeQM55ngQLlVdYhgTeCCsz63ZG5lhLssWUcNyONr1gP6_4FgE1WFB03YYX77GrZi0TpPveOUTyNywiUTZuskI7A32BhWYfEEhCK0K5v8F3JeJq7J25B16zYGhTii9jU3bTsWXErI432f16TytLFng", "width": 400, "html_attributions": ["<a href=\"https://maps.google.com/maps/contrib/101313550436765180772\">YES Bank ATM</a>"], "height": 400}], "scope": "GOOGLE", "business_status": "OPERATIONAL", "types": ["atm", "bank", "finance", "point_of_interest", "establishment"], "icon": "https://maps.gstatic.com/mapfiles/place_api/icons/v1/png_71/atm-71.png"}, {"rating": 2.8, "user_ratings_total": 13, "name": "Axis Bank", "reference": "ChIJ7YLiAN7R5zsRGt9jztwzirY", "geometry": {"location": {"lat": 18.9302674, "lng": 72.8268959}, "viewport": {"northeast": {"lat": 18.9315030302915, "lng": 72.8281957802915}, "southwest": {"lat": 18.9288050697085, "lng": 72.82549781970849}}}, "opening_hours": {"open_now": false}, "place_id": "ChIJ7YLiAN7R5zsRGt9jztwzirY", "plus_code": {"global_code": "7JCJWRJG+4Q", "compound_code": "WRJG+4Q Mumbai, Maharashtra, India"}, "vicinity": "Block No 3, Vaswani Mansion, 120, Ground Floor, Dinshaw Vacha Road, Churchgate, Mumbai", "photos": [{"photo_reference": "CmRaAAAAbku7LbhbarNxsUjMBi3uY5D5kbkP3XlECTa9aV8MjR5nuj8y5bnkEn5kIwHM0RWJaL9AcsgXwqpBX34aGaETIb4juY2YP389MAqJBDdshSKqtajaSXU0NYyFn09b8MeCEhBYBPXTyBezjtifST0odTSxGhSfX6wHtdWRUTbU0jiZxFrCNw65gg", "width": 1576, "html_attributions": ["<a href=\"https://maps.google.com/maps/contrib/115729902009196495033\">rk nagraj</a>"], "height": 1579}], "scope": "GOOGLE", "business_status": "OPERATIONAL", "types": ["bank", "finance", "point_of_interest", "establishment"], "icon": "https://maps.gstatic.com/mapfiles/place_api/icons/v1/png_71/bank_dollar-71.png"}, {"rating": 3.5, "user_ratings_total": 6, "name": "HDFC Bank ATM", "reference": "ChIJ1U5POejR5zsRXAgVuSpIIxw", "geometry": {"location": {"lat": 18.9299, "lng": 72.8265}, "viewport": {"northeast": {"lat": 18.9313588802915, "lng": 72.8278948802915}, "southwest": {"lat": 18.9286609197085, "lng": 72.82519691970849}}}, "opening_hours": {"open_now": true}, "place_id": "ChIJ1U5POejR5zsRXAgVuSpIIxw", "plus_code": {"global_code": "7JCJWRHG+XJ", "compound_code": "WRHG+XJ Mumbai, Maharashtra, India"}, "vicinity": "Gr Flr, Industry House, HT Parekh Marg, Churchgate, Mumbai", "scope": "GOOGLE", "business_status": "OPERATIONAL", "types": ["atm", "bank", "finance", "point_of_interest", "establishment"], "icon": "https://maps.gstatic.com/mapfiles/place_api/icons/v1/png_71/atm-71.png"}, {"rating": 2.2, "user_ratings_total": 17, "name": "HDFC Bank", "reference": "ChIJn5C4ihrO5zsRYFQR37cucpU", "geometry": {"location": {"lat": 18.9518138, "lng": 72.81912129999999}, "viewport": {"northeast": {"lat": 18.95307363029151, "lng": 72.82038833029151}, "southwest": {"lat": 18.9503756697085, "lng": 72.81769036970849}}}, "opening_hours": {"open_now": false}, "place_id": "ChIJn5C4ihrO5zsRYFQR37cucpU", "plus_code": {"global_code": "7JCJXR29+PJ", "compound_code": "XR29+PJ Mumbai, Maharashtra, India"}, "vicinity": "opposite Charni Road, Lord House Maharashi Karve Marg, Charni Road East, opposite Charni Road, Station, Mumbai", "photos": [{"photo_reference": "CmRaAAAAHSG8oQ2VPYbBt-fFFt3US4BxoHaCriMGaFHDQWLtg-WIz5SrRvkWk2Y4LmkUV1PsWdtdW3_wXC-qEYe7sSus4FfABehZcgf4Ikv-MdzmhIK7yI-oJcyJAzN0TfOulUTOEhAYMN0ibIYYIn92YtSpEqu9GhQc7YFtari1eS_7lhW28MzvVz6Ddw", "width": 1646, "html_attributions": ["<a href=\"https://maps.google.com/maps/contrib/113454711402653291329\">Deepkumar Girdhar</a>"], "height": 1068}], "scope": "GOOGLE", "business_status": "OPERATIONAL", "types": ["bank", "finance", "point_of_interest", "establishment"], "icon": "https://maps.gstatic.com/mapfiles/place_api/icons/v1/png_71/bank_dollar-71.png"}, {"rating": 3, "user_ratings_total": 19, "name": "HDFC Bank", "reference": "ChIJFz-S_iDO5zsRnnSIKZh8YFA", "geometry": {"location": {"lat": 18.945388, "lng": 72.83116400000002}, "viewport": {"northeast": {"lat": 18.9467756802915, "lng": 72.83247638029151}, "southwest": {"lat": 18.9440777197085, "lng": 72.8297784197085}}}, "opening_hours": {"open_now": false}, "place_id": "ChIJFz-S_iDO5zsRnnSIKZh8YFA", "plus_code": {"global_code": "7JCJWRWJ+5F", "compound_code": "WRWJ+5F Mumbai, Maharashtra, India"}, "vicinity": "22/25, Ashoka Shopp Centre, LT Marg, Crawford Mkt, Mumbai", "photos": [{"photo_reference": "CmRaAAAAuagnbPeX5aspHAHRsoIFq_PlQ61fc5hV_ACbqy1zFY7kW2yIEO5-ED4bl7eX80sgkYeo4mcqirNme5GwMN9Inu6q57RKdsHe27RfezvQyjJG3PakXMIKXok6cyqrPr4NEhDpk-bBHMEJQRMnXy7T1o9BGhQvr_kmup-kWZ6r8-RnDfn41Emwag", "width": 4032, "html_attributions": ["<a href=\"https://maps.google.com/maps/contrib/106105915170624095432\">Shibbi Johnny</a>"], "height": 2268}], "scope": "GOOGLE", "business_status": "OPERATIONAL", "types": ["bank", "finance", "point_of_interest", "establishment"], "icon": "https://maps.gstatic.com/mapfiles/place_api/icons/v1/png_71/bank_dollar-71.png"}, {"name": "YES Bank ATM", "reference": "ChIJkUhbYRrO5zsR5HH54xc_Gbg", "geometry": {"location": {"lat": 18.95181789999999, "lng": 72.8188773}, "viewport": {"northeast": {"lat": 18.9531267802915, "lng": 72.8201944302915}, "southwest": {"lat": 18.9504288197085, "lng": 72.81749646970849}}}, "opening_hours": {"open_now": true}, "place_id": "ChIJkUhbYRrO5zsR5HH54xc_Gbg", "plus_code": {"global_code": "7JCJXR29+PH", "compound_code": "XR29+PH Mumbai, Maharashtra, India"}, "vicinity": "Laud mansion, Shop 2 & 3, opposite Charni road, Maharshi Karve Road, Charni Road, Station, Mumbai", "photos": [{"photo_reference": "CmRaAAAA9BeBuqSKeLAgNsZvqD6Bgj7o4U1HYOtb_4g8op37Yfrlo1PHrhcMYBkAW9eKHnJWmVaWkyCkUc-7yDJ5DeQBgCYqqGz4xZpbIUqUovbd1XmaPfqt1TPfmu9uPR72YwnVEhC9k1efPImdRJ_bLR1MMbpLGhR81Cn-8PCw0lTH0FEfIYURT-meKw", "width": 400, "html_attributions": ["<a href=\"https://maps.google.com/maps/contrib/106055479019916137135\">YES Bank ATM</a>"], "height": 400}], "scope": "GOOGLE", "business_status": "OPERATIONAL", "types": ["atm", "bank", "finance", "point_of_interest", "establishment"], "icon": "https://maps.gstatic.com/mapfiles/place_api/icons/v1/png_71/atm-71.png"}, {"name": "Federal Bank", "reference": "ChIJJU90Le_R5zsRDV59FNmpb0M", "geometry": {"location": {"lat": 18.9281745, "lng": 72.8218584}, "viewport": {"northeast": {"lat": 18.9294979802915, "lng": 72.82306718029152}, "southwest": {"lat": 18.9268000197085, "lng": 72.8203692197085}}}, "opening_hours": {"open_now": true}, "place_id": "ChIJJU90Le_R5zsRDV59FNmpb0M", "plus_code": {"global_code": "7JCJWRHC+7P", "compound_code": "WRHC+7P Mumbai, Maharashtra, India"}, "vicinity": "Express Towers, Barrister Rajni Patel Marg, Nariman Point, Mumbai", "scope": "GOOGLE", "business_status": "OPERATIONAL", "types": ["bank", "finance", "point_of_interest", "establishment"], "icon": "https://maps.gstatic.com/mapfiles/place_api/icons/v1/png_71/bank_dollar-71.png"}, {"rating": 2.9, "user_ratings_total": 14, "name": "YES Bank", "reference": "ChIJD_m7ihrO5zsR-LETBDj7atM", "geometry": {"location": {"lat": 18.9519461, "lng": 72.81894989999999}, "viewport": {"northeast": {"lat": 18.9532950802915, "lng": 72.8202988802915}, "southwest": {"lat": 18.95059711970849, "lng": 72.8176009197085}}}, "opening_hours": {"open_now": false}, "place_id": "ChIJD_m7ihrO5zsR-LETBDj7atM", "plus_code": {"global_code": "7JCJXR29+QH", "compound_code": "XR29+QH Mumbai, Maharashtra, India"}, "vicinity": "Railway Station, Shop No 2 & 3, Laud Mansion Maharshi Karve Road, opposite Charni road, Charni Road, Charni Road, Branch, Mumbai", "photos": [{"photo_reference": "CmRaAAAAJQ_rsqJJk49qlMuwJgvUIUJ53_3W95oD5ppZrvmIg_DCHQdhqJ3qfjWewsFRsx2Cm3k_SpyrNKwjZS0maVbDQdkHfoy1d4deYo6uSFvF6Pl-CDMGGPanFu_NCOcBhjA3EhDxvOTClPK-3YQEhCGnjjXAGhQ_ljVQfKbACm1ZaQV4GAMNTDMS3w", "width": 1022, "html_attributions": ["<a href=\"https://maps.google.com/maps/contrib/113454711402653291329\">Deepkumar Girdhar</a>"], "height": 1736}], "scope": "GOOGLE", "business_status": "OPERATIONAL", "types": ["bank", "finance", "point_of_interest", "establishment"], "icon": "https://maps.gstatic.com/mapfiles/place_api/icons/v1/png_71/bank_dollar-71.png"}, {"rating": 1.8, "user_ratings_total": 5, "name": "HDFC Bank", "reference": "ChIJ1XckE-jR5zsRwKt0rIdCYi8", "geometry": {"location": {"lat": 18.9292538, "lng": 72.8256531}, "viewport": {"northeast": {"lat": 18.9306999302915, "lng": 72.82706323029151}, "southwest": {"lat": 18.9280019697085, "lng": 72.8243652697085}}}, "opening_hours": {"open_now": false}, "place_id": "ChIJ1XckE-jR5zsRwKt0rIdCYi8", "plus_code": {"global_code": "7JCJWRHG+P7", "compound_code": "WRHG+P7 Mumbai, Maharashtra, India"}, "vicinity": "opposite HDFC Roman House, Ground Floor, Industry House, opposite HDFC Roman House, Road Number 3, Churchgate, Mumbai", "photos": [{"photo_reference": "CmRaAAAAFCPOn4nvvo5usf3gRXzyYz6__qu95quUT8pkNIvRF8hix5h5brpaHo7GnTrT2Ib7EqC6o9q8fmScp_o-PG1vlfCnsK8LMBNQ66hdWFNbjUMtzbTMD-Ylilgr1SkSoolUEhAp9WZ3YctZBTj_P-QIXKJMGhQkC0mxozFIAiOOV6DlNA07WwHTUQ", "width": 2322, "html_attributions": ["<a href=\"https://maps.google.com/maps/contrib/117129535997780595260\">052. Mohammad Awes Shaikh Chand</a>"], "height": 4128}], "scope": "GOOGLE", "business_status": "OPERATIONAL", "types": ["bank", "finance", "point_of_interest", "establishment"], "icon": "https://maps.gstatic.com/mapfiles/place_api/icons/v1/png_71/bank_dollar-71.png"}, {"rating": 2.8, "user_ratings_total": 8, "name": "HDFC Bank", "reference": "ChIJC-aA0ujR5zsRSPhsppBIy-g", "geometry": {"location": {"lat": 18.9281713, "lng": 72.8222833}, "viewport": {"northeast": {"lat": 18.9293380802915, "lng": 72.8236491302915}, "southwest": {"lat": 18.9266401197085, "lng": 72.8209511697085}}}, "opening_hours": {"open_now": false}, "place_id": "ChIJC-aA0ujR5zsRSPhsppBIy-g", "plus_code": {"global_code": "7JCJWRHC+7W", "compound_code": "WRHC+7W Mumbai, Maharashtra, India"}, "vicinity": "Ground Floor, Express Towers Building, Nariman Point, Mumbai", "photos": [{"photo_reference": "CmRaAAAAFJLSiDW054BO5oMHYeTCJQWFDEMfjLJUL6xf7zp8Fl2oDzwnlR053gRufEGcdJPpuen_Zn_iGRfEsKpzMJ6cU_L15Jh9Hjwfaq-NvKYwHxFjwGjl8QX1NJiqxfnLNJvlEhA_xKxJlX9GGmaLqJRV_cRHGhSwW3bKZ5YD9HAq7urBFFp0YiJ-cQ", "width": 300, "html_attributions": ["<a href=\"https://maps.google.com/maps/contrib/100871831095253185770\">HDFC Bank</a>"], "height": 300}], "scope": "GOOGLE", "business_status": "OPERATIONAL", "types": ["bank", "finance", "point_of_interest", "establishment"], "icon": "https://maps.gstatic.com/mapfiles/place_api/icons/v1/png_71/bank_dollar-71.png"}, {"rating": 4.2, "user_ratings_total": 6, "name": "SyndicateBank Mumbai Kalbadevi Branch", "reference": "ChIJCzdrBiLO5zsRHODQVq3rwaY", "geometry": {"location": {"lat": 18.948738, "lng": 72.82888299999999}, "viewport": {"northeast": {"lat": 18.95006568029151, "lng": 72.8302271802915}, "southwest": {"lat": 18.9473677197085, "lng": 72.8275292197085}}}, "place_id": "ChIJCzdrBiLO5zsRHODQVq3rwaY", "plus_code": {"global_code": "7JCJWRXH+FH", "compound_code": "WRXH+FH Mumbai, Maharashtra, India"}, "vicinity": "Shop No.12 & 13, Ground Floor, Diamond Mansion 366/68, Kalbadevi Road, Doctor Viegas Street, Mumbai", "photos": [{"photo_reference": "CmRaAAAAcw2-y3QaBZmRVeiUEN5D78LBnGfoQxbCVlPVBfUz5KjP2__Lv05QUJPmxvQzd6-V_b-66GiTwB4wTa5A4PaVuoec5tzCKk7hKrOSPyrm2KQo8rmCYvF1s-Xq9eFdzUVFEhA36FAbdJrVFMXxmIC_B9M8GhRR9IfLks4BJNN_HsjBfshhZkmPqw", "width": 4608, "html_attributions": ["<a href=\"https://maps.google.com/maps/contrib/104869444892822094813\">sandeep mohan</a>"], "height": 3456}], "scope": "GOOGLE", "business_status": "OPERATIONAL", "types": ["bank", "finance", "point_of_interest", "establishment"], "icon": "https://maps.gstatic.com/mapfiles/place_api/icons/v1/png_71/bank_dollar-71.png"}, {"rating": 4.5, "user_ratings_total": 6, "name": "Union Bank Of India", "reference": "ChIJx3DUG9zR5zsRSWgTyHG-FPM", "geometry": {"location": {"lat": 18.9367309, "lng": 72.832498}, "viewport": {"northeast": {"lat": 18.9381131802915, "lng": 72.8338607302915}, "southwest": {"lat": 18.9354152197085, "lng": 72.8311627697085}}}, "opening_hours": {"open_now": false}, "place_id": "ChIJx3DUG9zR5zsRSWgTyHG-FPM", "plus_code": {"global_code": "7JCJWRPJ+MX", "compound_code": "WRPJ+MX Mumbai, Maharashtra, India"}, "vicinity": "Forbes Building, Charanjit Rai Marg, Fort, Mumbai", "photos": [{"photo_reference": "CmRaAAAAvCfckNG7zXfH97pgthgaamkswDuwAMA8v_gcmOt5Zfi1qIho47xpmlnaODjn8Q54Kautj2Y1nvkqwDH3sC9hhQuj29R4X06gIBzbGwcvVNorXFY1_dtIDRMUGpV2I5SMEhApKG13N650kCHBMmMnse5OGhReby2RV1snHjdzH7ZIMCE2yYtwNw", "width": 1920, "html_attributions": ["<a href=\"https://maps.google.com/maps/contrib/101128769193990914719\">Mr. Ashok Rajbhar</a>"], "height": 1080}], "scope": "GOOGLE", "business_status": "OPERATIONAL", "types": ["atm", "bank", "finance", "point_of_interest", "establishment"], "icon": "https://maps.gstatic.com/mapfiles/place_api/icons/v1/png_71/bank_dollar-71.png"}, {"rating": 3.3, "user_ratings_total": 44, "name": "Standard Chartered Mumbai 23-25 M G Road, Mumbai Branch", "reference": "ChIJ8_LQBMPR5zsRsRGBm8yKRFI", "geometry": {"location": {"lat": 18.9339261, "lng": 72.83138129999999}, "viewport": {"northeast": {"lat": 18.9352602302915, "lng": 72.8326444802915}, "southwest": {"lat": 18.93256226970849, "lng": 72.8299465197085}}}, "opening_hours": {"open_now": false}, "place_id": "ChIJ8_LQBMPR5zsRsRGBm8yKRFI", "plus_code": {"global_code": "7JCJWRMJ+HH", "compound_code": "WRMJ+HH Mumbai, Maharashtra, India"}, "vicinity": "23-25, Mahatma Gandhi Road, Mumbai", "photos": [{"photo_reference": "CmRaAAAA1O2kGntWpayFm89xtRsXduhYaZJv3hzDKkzSySVQy17GEl4w1nOXKFj2LKuZGhtD0h-GorMD_Awh3jcFSr7S1dXSGz46-4VZYBA-cRNzBanUN3wTzCWSOjTKmVLpCOdKEhAJyqHUOJuHMvADSwZRykpJGhSIqJqJMD59LUBBiPwJWbQW3uLU0g", "width": 4160, "html_attributions": ["<a href=\"https://maps.google.com/maps/contrib/115079341680040458781\">Tinu Sharma</a>"], "height": 3120}], "scope": "GOOGLE", "business_status": "OPERATIONAL", "types": ["bank", "atm", "finance", "point_of_interest", "establishment"], "icon": "https://maps.gstatic.com/mapfiles/place_api/icons/v1/png_71/bank_dollar-71.png"}, {"rating": 3.7, "user_ratings_total": 11, "name": "Bank Of India", "reference": "ChIJF4sp8xnO5zsRj6k4smVwptA", "geometry": {"location": {"lat": 18.952154, "lng": 72.8226399}, "viewport": {"northeast": {"lat": 18.9534408302915, "lng": 72.8239155802915}, "southwest": {"lat": 18.9507428697085, "lng": 72.82121761970849}}}, "opening_hours": {"open_now": false}, "place_id": "ChIJF4sp8xnO5zsRj6k4smVwptA", "plus_code": {"global_code": "7JCJXR2F+V3", "compound_code": "XR2F+V3 Mumbai, Maharashtra, India"}, "vicinity": "Vaidya Wadi, Thakurdwar, Girgaon, Mumbai", "photos": [{"photo_reference": "CmRaAAAA_ERvrQ-gs_gPIh9KSb4R4JNXRJuAgdsOjBWeH6qfB7qY52lnhpXEb1JXIvo-irZ2IYPeaw8Bc7QnSM9UEViVC-kui5dcNJTwSDIboNbNdS9u9_N-SqJQ2ERY97KmYW0IEhDHXvJXndLxsmLtAmMlOmr4GhReSOd7N0e5knaSywCrt3v_xSKZTg", "width": 4096, "html_attributions": ["<a href=\"https://maps.google.com/maps/contrib/107682470952571311109\">Saurabh Samel</a>"], "height": 3072}], "scope": "GOOGLE", "business_status": "OPERATIONAL", "types": ["bank", "finance", "point_of_interest", "establishment"], "icon": "https://maps.gstatic.com/mapfiles/place_api/icons/v1/png_71/bank_dollar-71.png"}, {"rating": 2.8, "user_ratings_total": 35, "name": "State Bank of India", "reference": "ChIJyWH1DefR5zsR0yuEas0Qa4k", "geometry": {"location": {"lat": 18.9407939, "lng": 72.82657000000002}, "viewport": {"northeast": {"lat": 18.9421337302915, "lng": 72.82788618029151}, "southwest": {"lat": 18.9394357697085, "lng": 72.8251882197085}}}, "opening_hours": {"open_now": false}, "place_id": "ChIJyWH1DefR5zsR0yuEas0Qa4k", "plus_code": {"global_code": "7JCJWRRG+8J", "compound_code": "WRRG+8J Mumbai, Maharashtra, India"}, "vicinity": "1st Floor, The International, Maharshi Karve Road, Churchgate, Mumbai", "photos": [{"photo_reference": "CmRaAAAAI6Q-fGSvg_rvCo8EXwwYuh7S1MBrF5mn0bFkGK7tt3yVhhMZd_YGJlNRjK81DOZ6edeFxst15DCiTb-S4xo9APUy3QCP9G91rhBIn7AcmLi-BSO0nUo4g32jf1dEpudoEhAlRKcvN6wNgRoH6KuI1WqoGhRCPTWgucx9MEXiuV2xL9FyYo-gXg", "width": 5344, "html_attributions": ["<a href=\"https://maps.google.com/maps/contrib/118036544243408129792\">Darshan Maurya</a>"], "height": 4008}], "scope": "GOOGLE", "business_status": "OPERATIONAL", "types": ["bank", "finance", "point_of_interest", "establishment"], "icon": "https://maps.gstatic.com/mapfiles/place_api/icons/v1/png_71/bank_dollar-71.png"}, {"rating": 3.3, "user_ratings_total": 8, "name": "SBI DN Road Branch", "reference": "ChIJQ3AFGtzR5zsRzYDyC2HV1yU", "geometry": {"location": {"lat": 18.9364711, "lng": 72.8327585}, "viewport": {"northeast": {"lat": 18.9377615302915, "lng": 72.8342683802915}, "southwest": {"lat": 18.9350635697085, "lng": 72.83157041970848}}}, "opening_hours": {"open_now": false}, "place_id": "ChIJQ3AFGtzR5zsRzYDyC2HV1yU", "plus_code": {"global_code": "7JCJWRPM+H4", "compound_code": "WRPM+H4 Mumbai, Maharashtra, India"}, "vicinity": "Videocon Heritage, Charanjit Rai Marg, Bhagwan Bhuvan,71-73,Mint Road, AK Nayak Marg, Azad Maidan, Fort, Mumbai", "photos": [{"photo_reference": "CmRaAAAAQfV3FPCNlkAFtjYhjxiEPBVVeOn1jfpQUE2sDGVip892D1yX0s8W94ZP_3nGw1F9VfSn044MCq9It0Z1D5nMsVq_VIYNB5HDRs0Tcv4kvxbd8hZFViU8qX7vZBLS62kWEhDn0TdP8fNs6RBxy5pJT1iMGhSiIa7_gaq6_TKxQ43_aLfNyjBVOQ", "width": 4160, "html_attributions": ["<a href=\"https://maps.google.com/maps/contrib/112369046177060993200\">Dane Sailor</a>"], "height": 3120}], "scope": "GOOGLE", "business_status": "OPERATIONAL", "types": ["bank", "finance", "point_of_interest", "establishment"], "icon": "https://maps.gstatic.com/mapfiles/place_api/icons/v1/png_71/bank_dollar-71.png"}, {"rating": 3.3, "user_ratings_total": 7, "name": "United Bank of India", "reference": "ChIJRb0F3O7R5zsRkNN81325CQM", "geometry": {"location": {"lat": 18.9274733, "lng": 72.82126939999999}, "viewport": {"northeast": {"lat": 18.9287576302915, "lng": 72.8227019302915}, "southwest": {"lat": 18.9260596697085, "lng": 72.8200039697085}}}, "opening_hours": {"open_now": false}, "place_id": "ChIJRb0F3O7R5zsRkNN81325CQM", "plus_code": {"global_code": "7JCJWRGC+XG", "compound_code": "WRGC+XG Mumbai, Maharashtra, India"}, "vicinity": "1st Floor, Shopping arcade, Hotel Oberoi Tower, Nariman Point, Mumbai", "scope": "GOOGLE", "business_status": "OPERATIONAL", "types": ["bank", "finance", "point_of_interest", "establishment"], "icon": "https://maps.gstatic.com/mapfiles/place_api/icons/v1/png_71/bank_dollar-71.png"}, {"name": "Axis Bank ATM", "reference": "ChIJGQmODejR5zsRPU6EU0mhcNU", "geometry": {"location": {"lat": 18.9295932, "lng": 72.8275148}, "viewport": {"northeast": {"lat": 18.9312211302915, "lng": 72.82843793029151}, "southwest": {"lat": 18.9285231697085, "lng": 72.8257399697085}}}, "opening_hours": {"open_now": true}, "place_id": "ChIJGQmODejR5zsRPU6EU0mhcNU", "plus_code": {"global_code": "7JCJWRHH+R2", "compound_code": "WRHH+R2 Mumbai, Maharashtra, India"}, "vicinity": "Block No, Vaswani Mansion, 120, Ground Floor, 3, Dinshaw Vachha Rd, Churchgate, Mumbai", "photos": [{"photo_reference": "CmRaAAAA0s4Qx4DLx0Zxb4nQZcyK8oCBkjIyRW7XT_CS_QnPTEdvLNLjEUvLCGvmdkVUkPaWBLi4UIHy6gr_jt3HNOUo9A1nSGWOtlXH_ieDM-PyvVxhzY5LekrmxkzChmidxeVQEhBon4sO9a49bJU7uWVRlkqTGhRB0FrjcdPjgukwklsVur2UtZ_2Zw", "width": 2322, "html_attributions": ["<a href=\"https://maps.google.com/maps/contrib/114379532453402794060\">Juber Shaikh</a>"], "height": 4128}], "scope": "GOOGLE", "business_status": "OPERATIONAL", "types": ["atm", "bank", "finance", "point_of_interest", "establishment"], "icon": "https://maps.gstatic.com/mapfiles/place_api/icons/v1/png_71/atm-71.png"}]}