{"status": "OK", "html_attributions": [], "results": [{"rating": 3.9, "user_ratings_total": 26, "name": "Kempapura Agrahara Police Station", "reference": "ChIJr4nFM_89rjsR_z8yQZheKJQ", "geometry": {"location": {"lat": 12.9727828, "lng": 77.5614877}, "viewport": {"northeast": {"lat": 12.9741319302915, "lng": 77.56283068029151}, "southwest": {"lat": 12.9714339697085, "lng": 77.5601327197085}}}, "place_id": "ChIJr4nFM_89rjsR_z8yQZheKJQ", "plus_code": {"global_code": "7J4VXHF6+4H", "compound_code": "XHF6+4H Bengaluru, Karnataka, India"}, "vicinity": "near Magadi Road Park, BBMP Building, 2nd Cross Road, Magadi Road, near Magadi Road Park, Bengaluru", "photos": [{"photo_reference": "ATtYBwIeqAG4NfNx_wyBa1kDWE1yBcJ2-2ekSxT1m8u4aYUyZVRIneA8131r1-rjc3hWPh9CexF923V7mqhTNotyv4w3lzUN1hw7vFkzMoH89vtEc3NLxUnsvYkF8E_VdY2iJ73D8Ay0ZJ5n8MEcvyGow-RKGJ751Mqk3Vfr9BGbaMFljTil", "width": 4000, "html_attributions": ["<a href=\"https://maps.google.com/maps/contrib/103490997582885122664\">HAFEEZUR RAHAMAN MOHAMMED</a>"], "height": 3000}], "scope": "GOOGLE", "business_status": "OPERATIONAL", "types": ["police", "point_of_interest", "establishment"], "icon": "https://maps.gstatic.com/mapfiles/place_api/icons/v1/png_71/police-71.png"}, {"rating": 3.6, "user_ratings_total": 30, "name": "Vijayanagar Police Station", "reference": "ChIJKW7D5909rjsRr290ByaxQdA", "geometry": {"location": {"lat": 12.9707497, "lng": 77.5378652}, "viewport": {"northeast": {"lat": 12.9720912802915, "lng": 77.5390972302915}, "southwest": {"lat": 12.9693933197085, "lng": 77.53639926970848}}}, "opening_hours": {"open_now": true}, "place_id": "ChIJKW7D5909rjsRr290ByaxQdA", "plus_code": {"global_code": "7J4VXGCQ+74", "compound_code": "XGCQ+74 Bengaluru, Karnataka, India"}, "vicinity": "Service Road, SBI Staff Colony, Hoshalli Extension, Stage 1, Vijayanagar, Bengaluru", "photos": [{"photo_reference": "ATtYBwJhy6iBIrBZgOY-Y4UrjsUxsE6fFy-H3uLK_cgoUCZ4lD-TcQMSeorpGcLQSXs4zJRYTEl_U4TL6BAv0YiDsX2gF3OzLXKBEvXXeUTl4sJBv8_oOF5_R53SSRUJpIV0mpDijrvMIwOGlt9qciUGTmCmD4nwtJr1SrhrI687FoW_hHPV", "width": 4608, "html_attributions": ["<a href=\"https://maps.google.com/maps/contrib/101933369840645912445\">Sandesh S</a>"], "height": 3456}], "scope": "GOOGLE", "business_status": "OPERATIONAL", "types": ["police", "point_of_interest", "establishment"], "icon": "https://maps.gstatic.com/mapfiles/place_api/icons/v1/png_71/police-71.png"}, {"rating": 3.7, "user_ratings_total": 62, "name": "JJR Nagar Police Station", "reference": "ChIJX9UdQwc-rjsRmqQyRITXkTU", "geometry": {"location": {"lat": 12.964135, "lng": 77.5551804}, "viewport": {"northeast": {"lat": 12.9655094302915, "lng": 77.55644813029151}, "southwest": {"lat": 12.9628114697085, "lng": 77.5537501697085}}}, "place_id": "ChIJX9UdQwc-rjsRmqQyRITXkTU", "plus_code": {"global_code": "7J4VXH74+M3", "compound_code": "XH74+M3 Bengaluru, Karnataka, India"}, "vicinity": "Jagajeevanram Nagar, Bengaluru", "photos": [{"photo_reference": "ATtYBwKePa1C68B6eJsQD7is-r-bwMiXwMuDTLiYDJfPRSA__tpV9cGiG42AHs4THK-Gky_TKuDp9zpZUq217dxz35J7ejy8rDTgSmsXDfBWxYXxpuDM4bDUJ1PnflnvCzV1HYy9NB7Gx3YtGLfHY7sYXFFfJncgTp2cpiDwBSBYlKaZ-t2U", "width": 2560, "html_attributions": ["<a href=\"https://maps.google.com/maps/contrib/111332264771690911311\">Nithyananda N</a>"], "height": 1920}], "scope": "GOOGLE", "business_status": "OPERATIONAL", "types": ["police", "point_of_interest", "establishment"], "icon": "https://maps.gstatic.com/mapfiles/place_api/icons/v1/png_71/police-71.png"}, {"rating": 3.3, "user_ratings_total": 51, "name": "Magadi Road Police Station", "reference": "ChIJd9YUxPo9rjsR-cc7kFYgXNA", "geometry": {"location": {"lat": 12.9745365, "lng": 77.551508}, "viewport": {"northeast": {"lat": 12.9758672302915, "lng": 77.5528714802915}, "southwest": {"lat": 12.9731692697085, "lng": 77.5501735197085}}}, "opening_hours": {"open_now": true}, "place_id": "ChIJd9YUxPo9rjsR-cc7kFYgXNA", "plus_code": {"global_code": "7J4VXHF2+RJ", "compound_code": "XHF2+RJ Bengaluru, Karnataka, India"}, "vicinity": "Magadi Main Road, Police Quarters, Rajajinagar, Bengaluru", "photos": [{"photo_reference": "ATtYBwJzmeVKAVOR9rhsQC-7BGR_nalOb0TWcQSUe8mqFWq8OHGg28QSMMejQ0ZrxMPCdnyxZd02Rl2k87-i7nbkaQzFYlxKzjUBn6R-yqQ0oF7GoqomhG3WMn3i6PtQQ5fCulDthtBr38fScjK45uBKkVMwuTPWHaxz6iBNAYt3DsoyDa0k", "width": 1152, "html_attributions": ["<a href=\"https://maps.google.com/maps/contrib/114332578691308307541\">Yayavaram Girikumar</a>"], "height": 864}], "scope": "GOOGLE", "business_status": "OPERATIONAL", "types": ["police", "point_of_interest", "establishment"], "icon": "https://maps.gstatic.com/mapfiles/place_api/icons/v1/png_71/police-71.png"}, {"name": "Mc Circle Signal", "reference": "ChIJ2VMDA_k9rjsRAaSzJWw_KCs", "geometry": {"location": {"lat": 12.9756357, "lng": 77.5481799}, "viewport": {"northeast": {"lat": 12.9770074302915, "lng": 77.5494717302915}, "southwest": {"lat": 12.9743094697085, "lng": 77.5467737697085}}}, "place_id": "ChIJ2VMDA_k9rjsRAaSzJWw_KCs", "plus_code": {"global_code": "7J4VXGGX+77", "compound_code": "XGGX+77 Bengaluru, Karnataka, India"}, "vicinity": "Madappa Garden, Rajaji Nagar Industrial Town, Rajajinagar, Bengaluru", "scope": "GOOGLE", "business_status": "OPERATIONAL", "types": ["police", "point_of_interest", "establishment"], "icon": "https://maps.gstatic.com/mapfiles/place_api/icons/v1/png_71/police-71.png"}, {"rating": 4.3, "user_ratings_total": 9, "name": "C.A.R. POLICE QTRS", "reference": "ChIJud8yPQE-rjsRRIDNWjiUW-4", "geometry": {"location": {"lat": 12.9618705, "lng": 77.55751939999999}, "viewport": {"northeast": {"lat": 12.9632177802915, "lng": 77.5588814302915}, "southwest": {"lat": 12.9605198197085, "lng": 77.5561834697085}}}, "opening_hours": {"open_now": true}, "place_id": "ChIJud8yPQE-rjsRRIDNWjiUW-4", "plus_code": {"global_code": "7J4VXH65+P2", "compound_code": "XH65+P2 Bengaluru, Karnataka, India"}, "vicinity": "25, 3rd Cross Road, Cobaley Colony, Azad Nagar, Bengaluru", "scope": "GOOGLE", "business_status": "OPERATIONAL", "types": ["police", "point_of_interest", "establishment"], "icon": "https://maps.gstatic.com/mapfiles/place_api/icons/v1/png_71/police-71.png"}, {"name": "VIP MT Section", "reference": "ChIJ4xnKIbs_rjsRu328YIW56q4", "geometry": {"location": {"lat": 12.9622512, "lng": 77.56028669999999}, "viewport": {"northeast": {"lat": 12.9636676802915, "lng": 77.5615406802915}, "southwest": {"lat": 12.9609697197085, "lng": 77.5588427197085}}}, "place_id": "ChIJ4xnKIbs_rjsRu328YIW56q4", "plus_code": {"global_code": "7J4VXH66+W4", "compound_code": "XH66+W4 Bengaluru, Karnataka, India"}, "vicinity": "Anjanappa Gardens, Cottonpete, Bengaluru", "scope": "GOOGLE", "business_status": "OPERATIONAL", "types": ["police", "point_of_interest", "establishment"], "icon": "https://maps.gstatic.com/mapfiles/place_api/icons/v1/png_71/police-71.png"}, {"name": "Magadi road police chowk", "reference": "ChIJNaxEN-I9rjsR7TJusACDTl8", "geometry": {"location": {"lat": 12.9668768, "lng": 77.54590979999999}, "viewport": {"northeast": {"lat": 12.9682041302915, "lng": 77.54723448029151}, "southwest": {"lat": 12.9655061697085, "lng": 77.5445365197085}}}, "place_id": "ChIJNaxEN-I9rjsR7TJusACDTl8", "vicinity": "Kempapura Agrahara", "scope": "GOOGLE", "types": ["premise", "police", "point_of_interest", "establishment"], "icon": "https://maps.gstatic.com/mapfiles/place_api/icons/v1/png_71/police-71.png"}]}