{"status": "OK", "next_page_token": "ATtYBwKZY3WQ-ohR8aTrw67H06cp9UzKzeEiCXYxOphczcuBnnAk1w95-22O1DArrf-D-Qg1scOSO7Zzbu9J5a3pDglK9gsqCO5wwUdchi_EdXxhkhlzw0CoqPVZ1LBR_-3hlmsfxcM7MRheSiB6bWe-OALkRGh0mbIhn3I_dof8oCtMXbgjChWp2GxjOI9IhxbeY4F2k2riytRiP5Jn_qZU0LgDNjwTcf-MFPDqJtc5WsuXVmxX_nNyCqNquV8w23obYIY3nWHjdmtBQsWj3-za4K4l-Khm7H-hc80DJbn3bFE4GeOThSq6hNUH9JC4dp9PS6yTGY1FHh3r1hwbfGncjyQI4e-w1lLl1uOv2sIAIy7m8f-afyE-FJnRd-UkrdC5dZGE_Yqxuwj7twW7KphPYSFjJVKFzmmdj-4NtNzq3qi7HDduyL2GjWME7jcl-pBKNIEvrYUvI8t9YBOj9knr9wh3QkeIcKuNBMtAlyTnh3r3dNLr1IGAXxLU5D3jTNPJOYnBPkEhCQpJLL12DJvSUXltrL3VkwZOxgkoySkpH2hJQsoWyf9PuKyfT72MxImG26p9ynM08F4ONtzd3Z9jP94qop8e4nUQolDzYazSf4USe-oQ9n9Cy9eeLneHnbEP2AMISA", "html_attributions": [], "results": [{"rating": 5, "user_ratings_total": 1, "name": "Dr. Anand (ENT Specialist & surgeon)", "reference": "ChIJ9W0ghJQZDTkRlNEYJFZcFVo", "geometry": {"location": {"lat": 28.4351311, "lng": 77.0350928}, "viewport": {"northeast": {"lat": 28.4364916302915, "lng": 77.03650223029152}, "southwest": {"lat": 28.4337936697085, "lng": 77.0338042697085}}}, "opening_hours": {"open_now": false}, "place_id": "ChIJ9W0ghJQZDTkRlNEYJFZcFVo", "plus_code": {"global_code": "7JWVC2PP+32", "compound_code": "C2PP+32 Gurugram, Haryana, India"}, "vicinity": "Samvit Hospital, Sohna Road, Gurugram", "scope": "GOOGLE", "business_status": "OPERATIONAL", "types": ["hospital", "doctor", "health", "point_of_interest", "establishment"], "icon": "https://maps.gstatic.com/mapfiles/place_api/icons/v1/png_71/generic_business-71.png"}, {"name": "Orthopedic and Heart Clinic", "reference": "ChIJTUsFHOIZDTkRzc4ky26IE1w", "geometry": {"location": {"lat": 28.4299008, "lng": 77.0321359}, "viewport": {"northeast": {"lat": 28.4312828302915, "lng": 77.03341138029151}, "southwest": {"lat": 28.4285848697085, "lng": 77.0307134197085}}}, "place_id": "ChIJTUsFHOIZDTkRzc4ky26IE1w", "plus_code": {"global_code": "7JWVC2HJ+XV", "compound_code": "C2HJ+XV Sector 33, Gurugram, Haryana, India"}, "vicinity": "APARTMENT, JMD Garden, FLAT NO. 1101, D TOWER, Sohna Road, Sector 33", "scope": "GOOGLE", "business_status": "OPERATIONAL", "types": ["hospital", "health", "point_of_interest", "establishment"], "icon": "https://maps.gstatic.com/mapfiles/place_api/icons/v1/png_71/hospital-71.png"}, {"rating": 5, "user_ratings_total": 8, "name": "Rakesh Ambulance", "reference": "ChIJtzXiI0YZDTkRilR578ayfkU", "geometry": {"location": {"lat": 28.4369791, "lng": 77.0416055}, "viewport": {"northeast": {"lat": 28.4382687802915, "lng": 77.04316263029152}, "southwest": {"lat": 28.4355708197085, "lng": 77.0404646697085}}}, "opening_hours": {"open_now": true}, "place_id": "ChIJtzXiI0YZDTkRilR578ayfkU", "plus_code": {"global_code": "7JWVC2PR+QJ", "compound_code": "C2PR+QJ Gurugram, Haryana, India"}, "vicinity": "Sector 38, Gurugram", "scope": "GOOGLE", "business_status": "OPERATIONAL", "types": ["hospital", "health", "point_of_interest", "establishment"], "icon": "https://maps.gstatic.com/mapfiles/place_api/icons/v1/png_71/hospital-71.png"}, {"name": "MedTours Global", "reference": "ChIJtaSSinUYDTkRNqStup_AIwk", "geometry": {"location": {"lat": 28.4226457, "lng": 77.0376039}, "viewport": {"northeast": {"lat": 28.42405653029151, "lng": 77.0389910802915}, "southwest": {"lat": 28.4213585697085, "lng": 77.03629311970849}}}, "place_id": "ChIJtaSSinUYDTkRNqStup_AIwk", "plus_code": {"global_code": "7JWVC2FQ+32", "compound_code": "C2FQ+32 Gurugram, Haryana, India"}, "vicinity": "Vipul Business Park, Unit No 201, 2nd Floor, Sohna Road, Sector 48, Gurugram", "scope": "GOOGLE", "business_status": "OPERATIONAL", "types": ["hospital", "health", "point_of_interest", "establishment"], "icon": "https://maps.gstatic.com/mapfiles/place_api/icons/v1/png_71/hospital-71.png"}, {"rating": 4.9, "user_ratings_total": 16, "name": "Dr. Vaibhav Sharma", "reference": "ChIJTzxbu3AZDTkRGLcn_L-jzq8", "geometry": {"location": {"lat": 28.4226457, "lng": 77.0376039}, "viewport": {"northeast": {"lat": 28.42405653029151, "lng": 77.0389910802915}, "southwest": {"lat": 28.4213585697085, "lng": 77.03629311970849}}}, "opening_hours": {"open_now": false}, "place_id": "ChIJTzxbu3AZDTkRGLcn_L-jzq8", "plus_code": {"global_code": "7JWVC2FQ+32", "compound_code": "C2FQ+32 Gurugram, Haryana, India"}, "vicinity": "Vipul Business Park, Polaris Hospital, opp. Raheja mall ,Sohna Road near, Sector 48, Gurugram", "photos": [{"photo_reference": "ATtYBwKM-RdbQsqtCyHWCRyYhZ5gle73YHFYBpK8MBVoq1lyo6PkOZcJyQK7NVn9WXHBHIsLCQdXVV2zYDMiiFu9TXQJlFSHfcpZ0pwnCyOWCVEcXaWgtcDmYhd28lrL5-nst_Xk6xSFZY0LxTAsmfpZkeoicESykSoUzutdPpI-cdSoVlrm", "width": 870, "html_attributions": ["<a href=\"https://maps.google.com/maps/contrib/108424204808192062806\">Dr. Vaibhav Sharma</a>"], "height": 1160}], "scope": "GOOGLE", "business_status": "OPERATIONAL", "types": ["hospital", "doctor", "health", "point_of_interest", "establishment"], "icon": "https://maps.gstatic.com/mapfiles/place_api/icons/v1/png_71/generic_business-71.png"}, {"name": "VHC", "reference": "ChIJ49DC49UZDTkR05JZMhmmm0w", "geometry": {"location": {"lat": 28.4370198, "lng": 77.0360899}, "viewport": {"northeast": {"lat": 28.4383339302915, "lng": 77.0374144802915}, "southwest": {"lat": 28.4356359697085, "lng": 77.03471651970848}}}, "place_id": "ChIJ49DC49UZDTkR05JZMhmmm0w", "plus_code": {"global_code": "7JWVC2PP+RC", "compound_code": "C2PP+RC Gurugram, Haryana, India"}, "vicinity": "160, Sohna Road, Islampur Village, Sector 38, Gurugram", "scope": "GOOGLE", "business_status": "OPERATIONAL", "types": ["hospital", "health", "point_of_interest", "establishment"], "icon": "https://maps.gstatic.com/mapfiles/place_api/icons/v1/png_71/hospital-71.png"}, {"name": "cosmodent teeth and dermal spa", "reference": "ChIJzxgobSkZDTkRNqXbYmpjFu4", "geometry": {"location": {"lat": 28.4338412, "lng": 77.0478802}, "viewport": {"northeast": {"lat": 28.4351543802915, "lng": 77.04928283029152}, "southwest": {"lat": 28.4324564197085, "lng": 77.0465848697085}}}, "place_id": "ChIJzxgobSkZDTkRNqXbYmpjFu4", "plus_code": {"global_code": "7JWVC2MX+G5", "compound_code": "C2MX+G5 Gurugram, Haryana, India"}, "vicinity": "Unnamed Road, Medicity, Islampur Colony, Sector 38, Gurugram", "scope": "GOOGLE", "business_status": "OPERATIONAL", "types": ["hospital", "health", "point_of_interest", "establishment"], "icon": "https://maps.gstatic.com/mapfiles/place_api/icons/v1/png_71/hospital-71.png"}, {"rating": 5, "user_ratings_total": 1, "name": "Shakir Saifi", "reference": "ChIJzzPX32wYDTkRHnSf0eQ6tms", "geometry": {"location": {"lat": 28.4367809, "lng": 77.034836}, "viewport": {"northeast": {"lat": 28.43812318029151, "lng": 77.03614998029151}, "southwest": {"lat": 28.4354252197085, "lng": 77.0334520197085}}}, "opening_hours": {"open_now": false}, "place_id": "ChIJzzPX32wYDTkRHnSf0eQ6tms", "plus_code": {"global_code": "7JWVC2PM+PW", "compound_code": "C2PM+PW Gurugram, Haryana, India"}, "vicinity": "Sohna Road, Badshahpur, Sector 38, Gurugram", "photos": [{"photo_reference": "ATtYBwJZGJcpFWj39g6bfl7013RCIiQoP6BVd9l2hsXhMEFwCESqzGn4IGEp81YStEsl-WTZiMilUw422T2Y050tRUoNa5qEOx6GnJ_D_vI6ttvlKSiNOku8CbRMP1Bo12nmN3CLvqBRvbu2OSJirpY7tJjGOuSFmMCd65xzX4azTlLvzkA8", "width": 3264, "html_attributions": ["<a href=\"https://maps.google.com/maps/contrib/101875240552049154887\">Shakir Saifi</a>"], "height": 2448}], "scope": "GOOGLE", "business_status": "OPERATIONAL", "types": ["hospital", "health", "point_of_interest", "establishment"], "icon": "https://maps.gstatic.com/mapfiles/place_api/icons/v1/png_71/hospital-71.png"}, {"name": "Zi Institute", "reference": "ChIJvzm0bLkZDTkRW4R0NR-HLsE", "geometry": {"location": {"lat": 28.4374671, "lng": 77.04389789999999}, "viewport": {"northeast": {"lat": 28.4387798302915, "lng": 77.04521123029151}, "southwest": {"lat": 28.4360818697085, "lng": 77.0425132697085}}}, "opening_hours": {"open_now": true}, "place_id": "ChIJvzm0bLkZDTkRW4R0NR-HLsE", "plus_code": {"global_code": "7JWVC2PV+XH", "compound_code": "C2PV+XH Gurugram, Haryana, India"}, "vicinity": "Medicity, Islampur Colony, Sector 38, Gurugram", "scope": "GOOGLE", "business_status": "OPERATIONAL", "types": ["hospital", "health", "point_of_interest", "establishment"], "icon": "https://maps.gstatic.com/mapfiles/place_api/icons/v1/png_71/hospital-71.png"}, {"rating": 5, "user_ratings_total": 4, "name": "Dr Rajneesh Kapoor - Awarded Indian Cardiologist I Vice Chairman -Interventional Cardiology , Medanta Hospital, Gurugram , India I", "reference": "ChIJmfce0-IZDTkRVsMMcnMHW3c", "geometry": {"location": {"lat": 28.4382828, "lng": 77.0407323}, "viewport": {"northeast": {"lat": 28.4395819302915, "lng": 77.0421453302915}, "southwest": {"lat": 28.4368839697085, "lng": 77.0394473697085}}}, "opening_hours": {"open_now": true}, "place_id": "ChIJmfce0-IZDTkRVsMMcnMHW3c", "plus_code": {"global_code": "7JWVC2QR+87", "compound_code": "C2QR+87 Gurugram, Haryana, India"}, "vicinity": "3rd floor , Medanta Hospital, CH Baktawar Singh Road, Sector 38, Gurugram", "photos": [{"photo_reference": "ATtYBwKrhpihPK4DBRhRRUcoJTh5KRYrTdoIe1R7ALZvgB5QOcGboCsP6vq7-6l5vwB_ZKWiScljH4xAQpW_5W8UNgyCkIOQggQBHDxGY0db8FQeV4aGHbdBMNMDJBGvYuu_WoO5yjnNop3cKeLy-swmX9NOWgv6uH0rsdQYsmuCPepGwnG4", "width": 4000, "html_attributions": ["<a href=\"https://maps.google.com/maps/contrib/117691707302583057560\">Dr Rajneesh Kapoor - Awarded Indian Cardiologist I Vice Chairman -Interventional Cardiology , Medanta Hospital, Gurugram , India I</a>"], "height": 2000}], "scope": "GOOGLE", "business_status": "OPERATIONAL", "types": ["hospital", "doctor", "health", "point_of_interest", "establishment"], "icon": "https://maps.gstatic.com/mapfiles/place_api/icons/v1/png_71/generic_business-71.png"}, {"name": "Cdas", "reference": "ChIJ4SxOgkcZDTkRWqtp7L3tamI", "geometry": {"location": {"lat": 28.4275535, "lng": 77.0491679}, "viewport": {"northeast": {"lat": 28.42888208029151, "lng": 77.0505169802915}, "southwest": {"lat": 28.4261841197085, "lng": 77.04781901970848}}}, "place_id": "ChIJ4SxOgkcZDTkRWqtp7L3tamI", "plus_code": {"global_code": "7JWVC2HX+2M", "compound_code": "C2HX+2M Gurugram, Haryana, India"}, "vicinity": "Sector 47, Gurugram", "scope": "GOOGLE", "business_status": "OPERATIONAL", "types": ["hospital", "health", "point_of_interest", "establishment"], "icon": "https://maps.gstatic.com/mapfiles/place_api/icons/v1/png_71/hospital-71.png"}, {"name": "Diabetes & Hypertension Center", "reference": "ChIJHX8ds34ZDTkRJ80QtLKYFSM", "geometry": {"location": {"lat": 28.4275535, "lng": 77.0491679}, "viewport": {"northeast": {"lat": 28.42888208029151, "lng": 77.0505169802915}, "southwest": {"lat": 28.4261841197085, "lng": 77.04781901970848}}}, "place_id": "ChIJHX8ds34ZDTkRJ80QtLKYFSM", "plus_code": {"global_code": "7JWVC2HX+2M", "compound_code": "C2HX+2M Gurugram, Haryana, India"}, "vicinity": "#100, Upper Ground Floor, Sector 47, Gurugram", "scope": "GOOGLE", "business_status": "OPERATIONAL", "types": ["hospital", "health", "point_of_interest", "establishment"], "icon": "https://maps.gstatic.com/mapfiles/place_api/icons/v1/png_71/hospital-71.png"}, {"name": "Dr Narendra Gupta -Best Diabetes, Obesity, High Blood pressure doctor", "reference": "ChIJqWrG6TYZDTkRzcEL9J1JFw8", "geometry": {"location": {"lat": 28.4275535, "lng": 77.0491679}, "viewport": {"northeast": {"lat": 28.42888208029151, "lng": 77.0505169802915}, "southwest": {"lat": 28.4261841197085, "lng": 77.04781901970848}}}, "place_id": "ChIJqWrG6TYZDTkRzcEL9J1JFw8", "plus_code": {"global_code": "7JWVC2HX+2M", "compound_code": "C2HX+2M Gurugram, Haryana, India"}, "vicinity": "behind DPS School, #100, behind DPS School, Sector 47, Gurugram", "scope": "GOOGLE", "business_status": "OPERATIONAL", "types": ["hospital", "health", "point_of_interest", "establishment"], "icon": "https://maps.gstatic.com/mapfiles/place_api/icons/v1/png_71/hospital-71.png"}, {"rating": 5, "user_ratings_total": 5, "name": "Medanta AyurVAID Hospital", "reference": "ChIJo6fhgsIZDTkRgE12i1kgqgk", "geometry": {"location": {"lat": 28.4384489, "lng": 77.0407101}, "viewport": {"northeast": {"lat": 28.4398003302915, "lng": 77.0420610302915}, "southwest": {"lat": 28.43710236970849, "lng": 77.03936306970849}}}, "opening_hours": {"open_now": true}, "place_id": "ChIJo6fhgsIZDTkRgE12i1kgqgk", "plus_code": {"global_code": "7JWVC2QR+97", "compound_code": "C2QR+97 Gurugram, Haryana, India"}, "vicinity": "5th Floor - B1, Medanta Medicity Ayurveda Department, Sector 38 Gurugaon, Delhi", "photos": [{"photo_reference": "ATtYBwJXJFXoeUKWG473ls8l0yYsBd6NxpMEKPhBvr0uN_VlbppNpkkW9RkrS9d3JGuM2bqh_DmcL9QvoYYqp669Qx4XQ_CsaYg1WD5WCK2DilleckPtMQ8y4MqKgjKIYzpL1SzAXW-hhXy0f9kl3IFPhWOogemLn-8heJy6CRsjznFHRlrz", "width": 750, "html_attributions": ["<a href=\"https://maps.google.com/maps/contrib/116165965899893141299\">Medanta AyurVAID Hospital</a>"], "height": 562}], "scope": "GOOGLE", "business_status": "OPERATIONAL", "types": ["hospital", "health", "point_of_interest", "establishment"], "icon": "https://maps.gstatic.com/mapfiles/place_api/icons/v1/png_71/hospital-71.png"}, {"rating": 4.7, "user_ratings_total": 6, "name": "Medanta Liver Transplantation & Regenerative Medicine Institute", "reference": "ChIJnzGIH2wYDTkRq1mxUN45p-s", "geometry": {"location": {"lat": 28.4384917, "lng": 77.0390592}, "viewport": {"northeast": {"lat": 28.4397631302915, "lng": 77.04048703029152}, "southwest": {"lat": 28.4370651697085, "lng": 77.0377890697085}}}, "opening_hours": {"open_now": true}, "place_id": "ChIJnzGIH2wYDTkRq1mxUN45p-s", "plus_code": {"global_code": "7JWVC2QQ+9J", "compound_code": "C2QQ+9J Gurugram, Haryana, India"}, "vicinity": "Medanta - The Medicity, CH Baktawar Singh Road, Sector 38,, Gurugram", "scope": "GOOGLE", "business_status": "OPERATIONAL", "types": ["hospital", "health", "point_of_interest", "establishment"], "icon": "https://maps.gstatic.com/mapfiles/place_api/icons/v1/png_71/hospital-71.png"}, {"name": "Ozone Hospitality", "reference": "ChIJAQAAwZ0iDTkRRbN7wpNeP24", "geometry": {"location": {"lat": 28.4212187, "lng": 77.0404348}, "viewport": {"northeast": {"lat": 28.4225523302915, "lng": 77.04165773029152}, "southwest": {"lat": 28.4198543697085, "lng": 77.0389597697085}}}, "place_id": "ChIJAQAAwZ0iDTkRRbN7wpNeP24", "vicinity": "Platinum Tower, Unit 425-426, Spaze, Sector 47, Gurugram", "scope": "GOOGLE", "business_status": "OPERATIONAL", "types": ["hospital", "health", "point_of_interest", "establishment"], "icon": "https://maps.gstatic.com/mapfiles/place_api/icons/v1/png_71/hospital-71.png"}, {"name": "Medical & Wellness Tours", "reference": "ChIJSad_dgsYDTkR3DztnrABpjA", "geometry": {"location": {"lat": 28.4265649, "lng": 77.03070799999999}, "viewport": {"northeast": {"lat": 28.4280305302915, "lng": 77.0320184802915}, "southwest": {"lat": 28.42533256970849, "lng": 77.02932051970849}}}, "place_id": "ChIJSad_dgsYDTkR3DztnrABpjA", "plus_code": {"global_code": "7JWVC2GJ+J7", "compound_code": "C2GJ+J7 Gurugram, Haryana, India"}, "vicinity": "41 \u2013 BS ,Malibu Town ,Sohna Road ,Sector -47, Guragon", "scope": "GOOGLE", "business_status": "OPERATIONAL", "types": ["hospital", "health", "point_of_interest", "establishment"], "icon": "https://maps.gstatic.com/mapfiles/place_api/icons/v1/png_71/hospital-71.png"}, {"rating": 4.5, "user_ratings_total": 59, "name": "Polaris Hospital", "reference": "ChIJZRKDinUYDTkRKhSjoGW82Ik", "geometry": {"location": {"lat": 28.4212749, "lng": 77.0377273}, "viewport": {"northeast": {"lat": 28.4226414302915, "lng": 77.03907028029151}, "southwest": {"lat": 28.4199434697085, "lng": 77.0363723197085}}}, "opening_hours": {"open_now": true}, "place_id": "ChIJZRKDinUYDTkRKhSjoGW82Ik", "plus_code": {"global_code": "7JWVC2CQ+G3", "compound_code": "C2CQ+G3 Gurugram, Haryana, India"}, "vicinity": "near Vipul Business Park, Polaris Hospital Opp. Raheja Mall, Sohna Road, Sector-48,Gurugram, near Vipul Business Park, Gurugram", "photos": [{"photo_reference": "ATtYBwLGr-uvGCS3ZN0wgphM3Qs-PPIUVB8nPS0_VYQUIfp46Qg5zLn_r1UMGpYey4_GZUG9wceRk1asiLleegZSkBHAZnRxvpmcQO0W4dLA-1mku-_lorxCXlg3-gFIiB2BPVyKA7Yd_6xDB3eXM16ysmOxHtwYqRU6FskYha_YIEApeXKk", "width": 1024, "html_attributions": ["<a href=\"https://maps.google.com/maps/contrib/103549800902176221262\">Polaris Hospital - Knee Replacement| Spine surgery| Arthroscopic Surgery in Gurgaon</a>"], "height": 576}], "scope": "GOOGLE", "business_status": "OPERATIONAL", "types": ["hospital", "doctor", "health", "point_of_interest", "establishment"], "icon": "https://maps.gstatic.com/mapfiles/place_api/icons/v1/png_71/hospital-71.png"}, {"rating": 5, "user_ratings_total": 1, "name": "Medanta Dialysis Center", "reference": "ChIJd-Uej24ZDTkRxnxNBWgFCqw", "geometry": {"location": {"lat": 28.4390139, "lng": 77.0394507}, "viewport": {"northeast": {"lat": 28.4404019802915, "lng": 77.04074873029151}, "southwest": {"lat": 28.4377040197085, "lng": 77.0380507697085}}}, "place_id": "ChIJd-Uej24ZDTkRxnxNBWgFCqw", "plus_code": {"global_code": "7JWVC2QQ+JQ", "compound_code": "C2QQ+JQ Gurugram, Haryana, India"}, "vicinity": "Medanta Dialysis Center, Sector 38, Gurugram", "scope": "GOOGLE", "business_status": "OPERATIONAL", "types": ["hospital", "health", "point_of_interest", "establishment"], "icon": "https://maps.gstatic.com/mapfiles/place_api/icons/v1/png_71/hospital-71.png"}, {"name": "Andro Cure India LLP", "reference": "ChIJyRiR9fsZDTkRwf8Pu3PuqvI", "geometry": {"location": {"lat": 28.4355085, "lng": 77.0484254}, "viewport": {"northeast": {"lat": 28.4368574802915, "lng": 77.04977438029151}, "southwest": {"lat": 28.43415951970849, "lng": 77.04707641970849}}}, "opening_hours": {"open_now": true}, "place_id": "ChIJyRiR9fsZDTkRwf8Pu3PuqvI", "plus_code": {"global_code": "7JWVC2PX+69", "compound_code": "C2PX+69 Gurugram, Haryana, India"}, "vicinity": "Sector 39 Road, Sector 39, Gurugram", "scope": "GOOGLE", "business_status": "OPERATIONAL", "types": ["hospital", "health", "point_of_interest", "establishment"], "icon": "https://maps.gstatic.com/mapfiles/place_api/icons/v1/png_71/hospital-71.png"}]}