{"status": "OK", "html_attributions": [], "results": [{"name": "Dr vinod Sabharwal", "reference": "ChIJ9yAjMc8aDTkRyBnxVboxS5c", "geometry": {"location": {"lat": 28.5955261, "lng": 77.03994000000002}, "viewport": {"northeast": {"lat": 28.59807955, "lng": 77.0413186302915}, "southwest": {"lat": 28.59467494999999, "lng": 77.0386206697085}}}, "opening_hours": {"open_now": false}, "place_id": "ChIJ9yAjMc8aDTkRyBnxVboxS5c", "plus_code": {"global_code": "7JWVH2WQ+6X", "compound_code": "H2WQ+6X Dwarka, New Delhi, Delhi, India"}, "vicinity": "plot no.9sector, EXPRESS Clinic, 12A, Dwarka", "photos": [{"photo_reference": "ATtYBwIFj4zP2aWXLcBHnmm-UqDbaXg4Mf7SEyrGibX9jgUM5cHYBLVww6CznTpxDeMPf6IC3bYgdnKu5n_2x2Y9ylalKaauQnn-r3cWW9LZXbUgfDhJAKJE9rQ_5L2Gez6IyW4fOZFqkdQ42yKwtlkw37566ZaLWbn4epdAHcqfG6TxKTzI", "width": 3144, "html_attributions": ["<a href=\"https://maps.google.com/maps/contrib/116832980906341523812\">Dr vinod Sabharwal</a>"], "height": 4192}], "scope": "GOOGLE", "business_status": "OPERATIONAL", "types": ["hospital", "health", "point_of_interest", "establishment"], "icon": "https://maps.gstatic.com/mapfiles/place_api/icons/v1/png_71/hospital-71.png"}, {"rating": 5, "user_ratings_total": 5, "name": "Atomick Biotech Pvt Ltd", "reference": "ChIJe65Jec8aDTkRqvgu_j8KWok", "geometry": {"location": {"lat": 28.5954221, "lng": 77.0417752}, "viewport": {"northeast": {"lat": 28.59677108029151, "lng": 77.04312418029151}, "southwest": {"lat": 28.5940731197085, "lng": 77.04042621970851}}}, "opening_hours": {"open_now": true}, "place_id": "ChIJe65Jec8aDTkRqvgu_j8KWok", "plus_code": {"global_code": "7JWVH2WR+5P", "compound_code": "H2WR+5P Delhi, India"}, "vicinity": "S10, Manish Chamber-3, LSC Market, Sec-12, Dwarka, Plot No.4, Pocket 6, Sector 12 Dwarka, Dwarka, Delhi", "photos": [{"photo_reference": "ATtYBwLj2DmpIq3HGeTMzlGNeyN9tfqud7ruY3h5LtkBpUY7bq2crmvCAihyvFZPcHim-f-JLXlPkqbk0oc2T1ZaIoFnkV_GKVtbWlIsh_uIciP4FWcV1N-s8h8Sbk-d5M3W1VJpSmrRNmi-MTm0KXM3yTkuwBzaEd5R7iuBlzc_lPf-Bwb9", "width": 310, "html_attributions": ["<a href=\"https://maps.google.com/maps/contrib/113664275343756368632\">Atomick Biotech Pvt Ltd</a>"], "height": 359}], "scope": "GOOGLE", "business_status": "OPERATIONAL", "types": ["hospital", "health", "point_of_interest", "establishment"], "icon": "https://maps.gstatic.com/mapfiles/place_api/icons/v1/png_71/hospital-71.png"}, {"name": "Path", "reference": "ChIJGcLluD8bDTkRuH7qA8pSNhE", "geometry": {"location": {"lat": 28.5956213, "lng": 77.04072040000001}, "viewport": {"northeast": {"lat": 28.59700233029151, "lng": 77.04209818029152}, "southwest": {"lat": 28.5943043697085, "lng": 77.03940021970851}}}, "opening_hours": {"open_now": true}, "place_id": "ChIJGcLluD8bDTkRuH7qA8pSNhE", "plus_code": {"global_code": "7JWVH2WR+67", "compound_code": "H2WR+67 New Delhi, Delhi, India"}, "vicinity": "Parmanand Colony, Pocket 8, Block B, Sector 12 Dwarka, Dwarka, New Delhi", "scope": "GOOGLE", "business_status": "OPERATIONAL", "types": ["hospital", "health", "point_of_interest", "establishment"], "icon": "https://maps.gstatic.com/mapfiles/place_api/icons/v1/png_71/hospital-71.png"}, {"rating": 5, "user_ratings_total": 1, "name": "Chemist", "reference": "ChIJtc5YeM8aDTkR1ZjZiZFsGOo", "geometry": {"location": {"lat": 28.5955629, "lng": 77.0419416}, "viewport": {"northeast": {"lat": 28.5967665302915, "lng": 77.0430913302915}, "southwest": {"lat": 28.5940685697085, "lng": 77.0403933697085}}}, "place_id": "ChIJtc5YeM8aDTkR1ZjZiZFsGOo", "plus_code": {"global_code": "7JWVH2WR+6Q", "compound_code": "H2WR+6Q Delhi, India"}, "vicinity": "Road Number 203, Pocket 6, Sector 12 Dwarka, Dwarka, Delhi", "scope": "GOOGLE", "business_status": "OPERATIONAL", "types": ["hospital", "health", "point_of_interest", "establishment"], "icon": "https://maps.gstatic.com/mapfiles/place_api/icons/v1/png_71/hospital-71.png"}, {"rating": 5, "user_ratings_total": 7, "name": "Kallu Yadav Ambulance Service", "reference": "ChIJ3VulTnMbDTkRVRNrkx5eF7E", "geometry": {"location": {"lat": 28.5883024, "lng": 77.0335375}, "viewport": {"northeast": {"lat": 28.5896265802915, "lng": 77.03486438029151}, "southwest": {"lat": 28.5869286197085, "lng": 77.0321664197085}}}, "opening_hours": {"open_now": true}, "place_id": "ChIJ3VulTnMbDTkRVRNrkx5eF7E", "plus_code": {"global_code": "7JWVH2QM+8C", "compound_code": "H2QM+8C Delhi, India"}, "vicinity": "Sector 18A, Sector 18, Sector 18A Dwarka, Kakrola, Delhi", "photos": [{"photo_reference": "ATtYBwIeEv-pkkvwyz003P6sT__-oEQtXEDZJOob-xc73c75TXwEREaaulnne1XATUOZy_dB5h4DaehUfpUT9pi73WTE1HDYKz0cMU1vXj-XidDYsMQFDWuWJt894sDdS-Xq-tsjjE8jQHYY_9JZfQe-14hDpehe3uEPHLl-zN9gUcvLoFGr", "width": 774, "html_attributions": ["<a href=\"https://maps.google.com/maps/contrib/103361412972161686286\">Balender Yadav</a>"], "height": 1032}], "scope": "GOOGLE", "business_status": "OPERATIONAL", "types": ["hospital", "health", "point_of_interest", "establishment"], "icon": "https://maps.gstatic.com/mapfiles/place_api/icons/v1/png_71/hospital-71.png"}, {"rating": 4, "user_ratings_total": 2, "name": "Fat Clinics- Weight Loss Inch Loss Laser Fat Removal Cryolipolysis Liposuction", "reference": "ChIJZ5jIucrjDDkRzpIbBAos2-E", "geometry": {"location": {"lat": 28.5852832, "lng": 77.0441668}, "viewport": {"northeast": {"lat": 28.5866637802915, "lng": 77.0455431802915}, "southwest": {"lat": 28.5839658197085, "lng": 77.04284521970848}}}, "opening_hours": {"open_now": false}, "place_id": "ChIJZ5jIucrjDDkRzpIbBAos2-E", "plus_code": {"global_code": "7JWVH2PV+4M", "compound_code": "H2PV+4M New Delhi, Delhi, India"}, "vicinity": "2 Akshardham Apartments, Sector 19, Pocket 3, Dwarka, New Delhi", "photos": [{"photo_reference": "ATtYBwKAfyJRPLzBE3rep7Ksy8BvuDVH15NzMBJ3o-lJThVjZhib97Pz71yL1fE309JRtfV_lHOkcyGhB9WcBRByO_oraxXqRJKKVIEtCX5fSUyLU-hJEL73XdQLU4Z1G_iwY12zoozw7MYXSMdsy1BWmxm0qM8AoSOTwk5qthYh2UxMmhk", "width": 990, "html_attributions": ["<a href=\"https://maps.google.com/maps/contrib/106674607474884282452\">Fat Clinics- Weight Loss Inch Loss Laser Fat Removal Cryolipolysis Liposuction</a>"], "height": 371}], "scope": "GOOGLE", "business_status": "OPERATIONAL", "types": ["hospital", "health", "point_of_interest", "establishment"], "icon": "https://maps.gstatic.com/mapfiles/place_api/icons/v1/png_71/hospital-71.png"}, {"rating": 4.3, "user_ratings_total": 6, "name": "JAGAN HEALTH CARE CENTRE", "reference": "ChIJrzwETN0aDTkReJ6Wv9gxr3I", "geometry": {"location": {"lat": 28.5850345, "lng": 77.04412479999999}, "viewport": {"northeast": {"lat": 28.5863425802915, "lng": 77.04543703029151}, "southwest": {"lat": 28.58364461970849, "lng": 77.04273906970849}}}, "place_id": "ChIJrzwETN0aDTkReJ6Wv9gxr3I", "plus_code": {"global_code": "7JWVH2PV+2J", "compound_code": "H2PV+2J New Delhi, Delhi, India"}, "vicinity": "Flat no. 153, Pkt. 3, Sec.-19, New Delhi", "scope": "GOOGLE", "business_status": "OPERATIONAL", "types": ["hospital", "health", "point_of_interest", "establishment"], "icon": "https://maps.gstatic.com/mapfiles/place_api/icons/v1/png_71/generic_business-71.png"}, {"name": "GoodHealth Guardians", "reference": "ChIJVVXlVr8aDTkRBD4T_S0H28o", "geometry": {"location": {"lat": 28.5879762, "lng": 77.0331929}, "viewport": {"northeast": {"lat": 28.5894997802915, "lng": 77.0346974302915}, "southwest": {"lat": 28.5868018197085, "lng": 77.0319994697085}}}, "place_id": "ChIJVVXlVr8aDTkRBD4T_S0H28o", "plus_code": {"global_code": "7JWVH2QM+57", "compound_code": "H2QM+57 New Delhi, Delhi, India"}, "vicinity": "Janak Apartments, B-604, Janaksar Residency, Sector 18A, Dwarka, New Delhi", "scope": "GOOGLE", "business_status": "OPERATIONAL", "types": ["hospital", "health", "point_of_interest", "establishment"], "icon": "https://maps.gstatic.com/mapfiles/place_api/icons/v1/png_71/hospital-71.png"}, {"rating": 1, "user_ratings_total": 1, "name": "Yuvaan Wellness", "reference": "ChIJtfoTA9saDTkRf1FsO9OPMpk", "geometry": {"location": {"lat": 28.59244159999999, "lng": 77.0472068}, "viewport": {"northeast": {"lat": 28.5938746302915, "lng": 77.0484409302915}, "southwest": {"lat": 28.59117666970849, "lng": 77.04574296970848}}}, "opening_hours": {"open_now": true}, "place_id": "ChIJtfoTA9saDTkRf1FsO9OPMpk", "plus_code": {"global_code": "7JWVH2RW+XV", "compound_code": "H2RW+XV New Delhi, Delhi, India"}, "vicinity": "A 10, Sector 8 Dwarka, Dwarka, New Delhi", "scope": "GOOGLE", "business_status": "OPERATIONAL", "types": ["hospital", "health", "point_of_interest", "establishment"], "icon": "https://maps.gstatic.com/mapfiles/place_api/icons/v1/png_71/hospital-71.png"}, {"rating": 5, "user_ratings_total": 1, "name": "Child Clinic", "reference": "ChIJSfI46j4bDTkRn-wcl487als", "geometry": {"location": {"lat": 28.5967696, "lng": 77.0417913}, "viewport": {"northeast": {"lat": 28.5980673802915, "lng": 77.04321723029152}, "southwest": {"lat": 28.5953694197085, "lng": 77.0405192697085}}}, "opening_hours": {"open_now": true}, "place_id": "ChIJSfI46j4bDTkRn-wcl487als", "plus_code": {"global_code": "7JWVH2WR+PP", "compound_code": "H2WR+PP New Delhi, Delhi, India"}, "vicinity": "stop for shop plot9, Sector 12A Road, Dwarka, New Delhi", "scope": "GOOGLE", "business_status": "OPERATIONAL", "types": ["hospital", "health", "point_of_interest", "establishment"], "icon": "https://maps.gstatic.com/mapfiles/place_api/icons/v1/png_71/hospital-71.png"}, {"rating": 5, "user_ratings_total": 138, "name": "CEDRUS/CEDAR SUPERSPECIALITY CLINICS (Center for Endocrinology Diabetes Arthritis & Rheumatism)", "reference": "ChIJ__-vB78EDTkRtojCELzIOtU", "geometry": {"location": {"lat": 28.5968732, "lng": 77.04119229999999}, "viewport": {"northeast": {"lat": 28.5982221802915, "lng": 77.0425412802915}, "southwest": {"lat": 28.5955242197085, "lng": 77.03984331970848}}}, "opening_hours": {"open_now": true}, "place_id": "ChIJ__-vB78EDTkRtojCELzIOtU", "plus_code": {"global_code": "7JWVH2WR+PF", "compound_code": "H2WR+PF Delhi, India"}, "vicinity": "PLOT 107 & 108, SECTOR 12A DWARKA Behind Modern Bazar/ Krishna Mart/ Bikanerwala, Block A, Sector 12 Dwarka, Dwarka, Delhi", "photos": [{"photo_reference": "ATtYBwJWunWhfUwOP_UQoGIbISck9EtgyUX51B7UfnDpKXIUumLjzWjKTG6gqlHt4BVOfP-vujmF2jiioRI2LrHHo0J0SAPXebJHIitThzoWIXfOWX_O9zgEGUDVEq01UHts4H24QhnRcMfqn21e3rwopajWjc5GKZuPgIWDpYWA-hbVzR-Q", "width": 1276, "html_attributions": ["<a href=\"https://maps.google.com/maps/contrib/107170300012255661995\">CEDRUS/CEDAR SUPERSPECIALITY CLINICS (Center for Endocrinology Diabetes Arthritis &amp; Rheumatism)</a>"], "height": 456}], "scope": "GOOGLE", "business_status": "OPERATIONAL", "types": ["hospital", "doctor", "health", "point_of_interest", "establishment"], "icon": "https://maps.gstatic.com/mapfiles/place_api/icons/v1/png_71/hospital-71.png"}, {"rating": 5, "user_ratings_total": 15, "name": "Dr Sarita sabharwal", "reference": "ChIJ34faS8UaDTkR-4JdduYEP50", "geometry": {"location": {"lat": 28.5968119, "lng": 77.042019}, "viewport": {"northeast": {"lat": 28.5981588302915, "lng": 77.0433722802915}, "southwest": {"lat": 28.59546086970849, "lng": 77.0406743197085}}}, "opening_hours": {"open_now": false}, "place_id": "ChIJ34faS8UaDTkR-4JdduYEP50", "plus_code": {"global_code": "7JWVH2WR+PR", "compound_code": "H2WR+PR Delhi, India"}, "vicinity": "opp. Indraprasta Cng Petrolpump, Sec12 A plot no 9, opp. Indraprasta Cng Petrolpump, Dwarka, Delhi", "photos": [{"photo_reference": "ATtYBwJacR5o2WTFbwO-LKOtuhPqxj-i6pMfbL-97jc7EB2vfRJ1e48Haf9IUDtL3r-qb0vSJYAihOe5sBrkHHhdaiyO0QC6fyfOA_G4MUWoCFhUa-Jp7AcYGuo9CeG9kOo4-63zpNqihEbBn56VRftIjXTrWFD_RILdb0ESBTuk8KrPhAwc", "width": 5184, "html_attributions": ["<a href=\"https://maps.google.com/maps/contrib/101989435155220678102\">Dr Sarita sabharwal</a>"], "height": 3880}], "scope": "GOOGLE", "business_status": "OPERATIONAL", "types": ["hospital", "health", "point_of_interest", "establishment"], "icon": "https://maps.gstatic.com/mapfiles/place_api/icons/v1/png_71/hospital-71.png"}, {"rating": 4.8, "user_ratings_total": 73, "name": "Dr. Meha Sharma", "reference": "ChIJkVS4SsEaDTkR1xy0W6P_sxY", "geometry": {"location": {"lat": 28.5970573, "lng": 77.0413384}, "viewport": {"northeast": {"lat": 28.5984062802915, "lng": 77.04268738029151}, "southwest": {"lat": 28.5957083197085, "lng": 77.0399894197085}}}, "opening_hours": {"open_now": true}, "place_id": "ChIJkVS4SsEaDTkR1xy0W6P_sxY", "plus_code": {"global_code": "7JWVH2WR+RG", "compound_code": "H2WR+RG New Delhi, Delhi, India"}, "vicinity": "CEDAR SUPERSPECIALITY CLINIC, PLOT 107 & 108, SECTOR 12A DWARKA Behind Modern Bazaar/ Krishna Mart/ Bikanerwala, New Delhi", "photos": [{"photo_reference": "ATtYBwJAFKeGL48RAM_UV7nzYQSrWU8OaW156KITohwEJ5EawH6oKJewwfyYYMW57IJHFJ4WpSBC7xMsg-5rpnFC406MoyNiQeXurV6-IoZq099av9ZdxsbFrSgf1SJTkwXQg7UWwFhxBNU3vpsVEgbWu00Rg3KCtXdd2Jh8q1ijJRKXMUZb", "width": 3480, "html_attributions": ["<a href=\"https://maps.google.com/maps/contrib/104782084257853276117\">Dr. Meha Sharma</a>"], "height": 4640}], "scope": "GOOGLE", "business_status": "OPERATIONAL", "types": ["hospital", "doctor", "health", "point_of_interest", "establishment"], "icon": "https://maps.gstatic.com/mapfiles/place_api/icons/v1/png_71/hospital-71.png"}, {"name": "Epilepsy Clinic", "reference": "ChIJSUBRJM8aDTkR3nRPn9i7u64", "geometry": {"location": {"lat": 28.5972265, "lng": 77.0401025}, "viewport": {"northeast": {"lat": 28.5985866302915, "lng": 77.04143488029149}, "southwest": {"lat": 28.5958886697085, "lng": 77.03873691970848}}}, "opening_hours": {"open_now": true}, "place_id": "ChIJSUBRJM8aDTkR3nRPn9i7u64", "plus_code": {"global_code": "7JWVH2WR+V2", "compound_code": "H2WR+V2 Delhi, India"}, "vicinity": "Road Number 203, Block A, Sector 12 Dwarka, Dwarka, Delhi", "scope": "GOOGLE", "business_status": "OPERATIONAL", "types": ["hospital", "health", "point_of_interest", "establishment"], "icon": "https://maps.gstatic.com/mapfiles/place_api/icons/v1/png_71/hospital-71.png"}, {"name": "Kalpavriksh Neurology Lab", "reference": "ChIJqwZUI88aDTkRRIKrbGsNK2k", "geometry": {"location": {"lat": 28.5973354, "lng": 77.0403388}, "viewport": {"northeast": {"lat": 28.5987297802915, "lng": 77.04162098029151}, "southwest": {"lat": 28.5960318197085, "lng": 77.0389230197085}}}, "opening_hours": {"open_now": true}, "place_id": "ChIJqwZUI88aDTkRRIKrbGsNK2k", "plus_code": {"global_code": "7JWVH2WR+W4", "compound_code": "H2WR+W4 Delhi, India"}, "vicinity": "66, Block A, Sector 12 Dwarka, Dwarka, Delhi", "scope": "GOOGLE", "business_status": "OPERATIONAL", "types": ["hospital", "doctor", "health", "point_of_interest", "establishment"], "icon": "https://maps.gstatic.com/mapfiles/place_api/icons/v1/png_71/generic_business-71.png"}, {"name": "Dr Lal Path Lab", "reference": "ChIJa1ol1NobDTkR_1PkUAH9DY8", "geometry": {"location": {"lat": 28.594577, "lng": 77.03267559999999}, "viewport": {"northeast": {"lat": 28.5959259802915, "lng": 77.0340245802915}, "southwest": {"lat": 28.59322801970849, "lng": 77.0313266197085}}}, "place_id": "ChIJa1ol1NobDTkR_1PkUAH9DY8", "plus_code": {"global_code": "7JWVH2VM+R3", "compound_code": "H2VM+R3 Delhi, India"}, "vicinity": "Rosewood Appartment, Pocket A, Sector 13, Kakrola, Delhi", "scope": "GOOGLE", "business_status": "OPERATIONAL", "types": ["hospital", "health", "point_of_interest", "establishment"], "icon": "https://maps.gstatic.com/mapfiles/place_api/icons/v1/png_71/hospital-71.png"}, {"name": "Dev Medicos", "reference": "ChIJv___v9saDTkRrrKg8-52KYE", "geometry": {"location": {"lat": 28.591455, "lng": 77.04925}, "viewport": {"northeast": {"lat": 28.59287833029151, "lng": 77.0505848302915}, "southwest": {"lat": 28.5901803697085, "lng": 77.04788686970848}}}, "opening_hours": {"open_now": true}, "place_id": "ChIJv___v9saDTkRrrKg8-52KYE", "plus_code": {"global_code": "7JWVH2RX+HP", "compound_code": "H2RX+HP Delhi, India"}, "vicinity": "Shop No. 121, F.F. Vardhman Dee Cee Plaza Plot No. 5,, Sector 11 Dwarka, Dwarka, Delhi", "scope": "GOOGLE", "business_status": "OPERATIONAL", "types": ["hospital", "health", "point_of_interest", "establishment"], "icon": "https://maps.gstatic.com/mapfiles/place_api/icons/v1/png_71/hospital-71.png"}, {"name": "Jaffarpur", "reference": "ChIJXbl_Ez4bDTkRZ84PBSc5R6o", "geometry": {"location": {"lat": 28.5914547, "lng": 77.0492503}, "viewport": {"northeast": {"lat": 28.5928781802915, "lng": 77.05058513029151}, "southwest": {"lat": 28.5901802197085, "lng": 77.0478871697085}}}, "opening_hours": {"open_now": false}, "place_id": "ChIJXbl_Ez4bDTkRZ84PBSc5R6o", "plus_code": {"global_code": "7JWVH2RX+HP", "compound_code": "H2RX+HP Delhi, India"}, "vicinity": "Sector 11 Dwarka, Delhi", "photos": [{"photo_reference": "ATtYBwLLTD4pshNxlaWUdcxdr5NBwLo_TfnXNnEb68NZwuUc0EJeAy-1slr_RrWgKA1hDY4tNHGikMfP383Rfq-3whzvjqwnhdQgZTfpjr1rUllZVjackVj2P4jYULWVul75InWwHnkat7LlIcSA8y2Be4cK5zmrxiqCZeV8Ge5NKmB_RkcM", "width": 1936, "html_attributions": ["<a href=\"https://maps.google.com/maps/contrib/109286764056817538813\">Vinod Jangra</a>"], "height": 1936}], "scope": "GOOGLE", "business_status": "OPERATIONAL", "types": ["hospital", "health", "point_of_interest", "establishment"], "icon": "https://maps.gstatic.com/mapfiles/place_api/icons/v1/png_71/hospital-71.png"}, {"name": "PRP treatment Dwarka", "reference": "ChIJv0Lb6sQbDTkRwCqPxO9NYsk", "geometry": {"location": {"lat": 28.5860795, "lng": 77.0486422}, "viewport": {"northeast": {"lat": 28.5873976302915, "lng": 77.04996478029152}, "southwest": {"lat": 28.5846996697085, "lng": 77.0472668197085}}}, "opening_hours": {"open_now": false}, "place_id": "ChIJv0Lb6sQbDTkRwCqPxO9NYsk", "plus_code": {"global_code": "7JWVH2PX+CF", "compound_code": "H2PX+CF New Delhi, Delhi, India"}, "vicinity": "2, Akshardham Apartments, Sector 19, Pocket 3, Dwarka, New Delhi", "scope": "GOOGLE", "business_status": "OPERATIONAL", "types": ["hospital", "health", "point_of_interest", "establishment"], "icon": "https://maps.gstatic.com/mapfiles/place_api/icons/v1/png_71/hospital-71.png"}, {"name": "Athena Meditrip", "reference": "ChIJuy1pu90aDTkRzMR1KAH4gC8", "geometry": {"location": {"lat": 28.5860795, "lng": 77.0486423}, "viewport": {"northeast": {"lat": 28.5873975802915, "lng": 77.04996488029151}, "southwest": {"lat": 28.5846996197085, "lng": 77.0472669197085}}}, "place_id": "ChIJuy1pu90aDTkRzMR1KAH4gC8", "vicinity": "Sector 19, Dwarka, New Delhi", "scope": "GOOGLE", "business_status": "OPERATIONAL", "types": ["hospital", "health", "point_of_interest", "establishment"], "icon": "https://maps.gstatic.com/mapfiles/place_api/icons/v1/png_71/hospital-71.png"}]}