{"status": "OK", "html_attributions": [], "results": [{"rating": 3, "user_ratings_total": 3, "name": "Govt. Dispensary", "reference": "ChIJP4daHu6pDTkRn3w2rcSu-yE", "geometry": {"location": {"lat": 28.810557, "lng": 77.09083509999999}, "viewport": {"northeast": {"lat": 28.8119066302915, "lng": 77.0921423802915}, "southwest": {"lat": 28.8092086697085, "lng": 77.0894444197085}}}, "opening_hours": {"open_now": true}, "place_id": "ChIJP4daHu6pDTkRn3w2rcSu-yE", "plus_code": {"global_code": "7JWVR36R+68", "compound_code": "R36R+68 Delhi, India"}, "vicinity": "Phase 2, Holambi Kalan, Delhi", "photos": [{"photo_reference": "ATtYBwKM02eYAz4a8xCBHcjdBo9e8KEZOaTeBO7wUp-p6kGsLwvQQ_zpHOc7SOLucGPE4Sw1EkIZHYWtItcfYP0klz5Ooh87phcAiM9N6hFSwFSlk-gE3X2NZ4dxDp2xVPXbMo7wuQDchfDSMFkqF6qzvj7rscNQrdQ9-5yRyBWlJnnO3T6m", "width": 3096, "html_attributions": ["<a href=\"https://maps.google.com/maps/contrib/102504748484639760235\">Prem G</a>"], "height": 4128}], "scope": "GOOGLE", "business_status": "OPERATIONAL", "types": ["hospital", "health", "point_of_interest", "establishment"], "icon": "https://maps.gstatic.com/mapfiles/place_api/icons/v1/png_71/hospital-71.png"}, {"rating": 5, "user_ratings_total": 1, "name": "Jila Sitapur Canchipur", "reference": "ChIJVa-FPrypDTkRT2canou929g", "geometry": {"location": {"lat": 28.80626809999999, "lng": 77.0839931}, "viewport": {"northeast": {"lat": 28.80761768029149, "lng": 77.0853438302915}, "southwest": {"lat": 28.8049197197085, "lng": 77.0826458697085}}}, "place_id": "ChIJVa-FPrypDTkRT2canou929g", "plus_code": {"global_code": "7JWVR34M+GH", "compound_code": "R34M+GH Delhi, India"}, "vicinity": "Unnamed Road, G-3 & G-4 Narela, Holambi Kalan, Delhi", "scope": "GOOGLE", "business_status": "OPERATIONAL", "types": ["hospital", "health", "point_of_interest", "establishment"], "icon": "https://maps.gstatic.com/mapfiles/place_api/icons/v1/png_71/hospital-71.png"}, {"rating": 5, "user_ratings_total": 2, "permanently_closed": true, "name": "Hari Om Health Point", "reference": "ChIJjbsXad2pDTkRamdKH67nG50", "geometry": {"location": {"lat": 28.80312839999999, "lng": 77.07853279999999}, "viewport": {"northeast": {"lat": 28.8044935302915, "lng": 77.0798824302915}, "southwest": {"lat": 28.8017955697085, "lng": 77.07718446970848}}}, "place_id": "ChIJjbsXad2pDTkRamdKH67nG50", "plus_code": {"global_code": "7JWVR33H+7C", "compound_code": "R33H+7C Sector 4, Khera Khurd, Delhi, India"}, "vicinity": "Bawana Industrial Area, Sector 4", "photos": [{"photo_reference": "ATtYBwIdRNXqS1CvrR4ZN08xq2Awi949ivf2bJ6f_sYG-7dzR_M-1PIPz28hug_ZjWe8Ki5rOKDZpyFiGR_EjzGk6u-EzkxcPK_q_1LhsZv-1KXSJtzU54zYiHE11kmg-MqYHfYnNQ_DZNzskhx7i0DAIuD3CjyvduLNSCDev30TGZTJdfab", "width": 4160, "html_attributions": ["<a href=\"https://maps.google.com/maps/contrib/118177699137963011544\">Sikandar Singh</a>"], "height": 2340}], "scope": "GOOGLE", "business_status": "CLOSED_TEMPORARILY", "types": ["hospital", "health", "point_of_interest", "establishment"], "icon": "https://maps.gstatic.com/mapfiles/place_api/icons/v1/png_71/hospital-71.png"}, {"name": "Bharti Medical Center And Dental Hospital", "reference": "ChIJLx7QsfGpDTkRL9un4S5RaHc", "geometry": {"location": {"lat": 28.8096156, "lng": 77.0930941}, "viewport": {"northeast": {"lat": 28.8109330802915, "lng": 77.09444258029151}, "southwest": {"lat": 28.8082351197085, "lng": 77.09174461970849}}}, "opening_hours": {"open_now": true}, "place_id": "ChIJLx7QsfGpDTkRL9un4S5RaHc", "plus_code": {"global_code": "7JWVR35V+R6", "compound_code": "R35V+R6 Delhi, India"}, "vicinity": "Holambi Main Road, G-3 & G-4 Narela, Holambi Kalan, Delhi", "scope": "GOOGLE", "business_status": "OPERATIONAL", "types": ["hospital", "health", "point_of_interest", "establishment"], "icon": "https://maps.gstatic.com/mapfiles/place_api/icons/v1/png_71/hospital-71.png"}, {"name": "Dr. Lal Path Lab", "reference": "ChIJocwxE10HDTkRw5aBHKJjKiI", "geometry": {"location": {"lat": 28.8152148, "lng": 77.0669613}, "viewport": {"northeast": {"lat": 28.8160240302915, "lng": 77.06766205000001}, "southwest": {"lat": 28.8133260697085, "lng": 77.06485905000001}}}, "place_id": "ChIJocwxE10HDTkRw5aBHKJjKiI", "plus_code": {"global_code": "7JWVR388+3Q", "compound_code": "R388+3Q Puth Khurd Village, Delhi, India"}, "vicinity": "Shop No. 3, Opp. Maharishi Balmiki Hospital, Bawana Road, Puth Khurd Village, New Delhi", "scope": "GOOGLE", "business_status": "OPERATIONAL", "types": ["hospital", "health", "point_of_interest", "establishment"], "icon": "https://maps.gstatic.com/mapfiles/place_api/icons/v1/png_71/hospital-71.png"}]}