{"status": "OK", "next_page_token": "ATtYBwKTdqynLgSX2sSzyaJSAc-x6gcEgff-yVeJYsiNMhKCEH2vCwUMebPxJV2F99VS0HnLYCMIWsC6Gq3bT1kl0JyCqzp3jlIvovn9wkYKh4SDaddBtHThdIfyD0Dd8zR8D5dH0HXiEMVY9Xf1U_0HBjg-XErPYxSvLd8loNsVvyan7XBdSHkdonyWuqXS2OLzHzVZTCqrSgLiWdmqgFQTJV7_XrYymXnBipNs7z-qif1jPD003PBBBZEkvGYgdK9Z9zIUbJuP7Y0rDObIa29hRP52iYE2xJJNiRpzhYp5QyFb_WbfDrGoIvKmwGuI1-xjspmpdChMNla7Dcg0T5KHouSV-1cr4SpEZSCUMtf2so0dhcgcb3m2MSZEeh9_-vqr0UoTzuD_KS8UujXNdnMJ6TduWUPMThd9ABqlTgEMD_TEYpTXHlP1ZBeJ7An5WLFtjPziu-VwQvK89eZlHA8n3RuBWU-5nC3pF7enbnq0RWxYjAzV5W1r5GfC737SeWedzDXKD_jE1i1FIfgMVRBBwezL3ftsx7vnJ2GPb2IYqWyoCmJLBz7TjcEKPmcbxBLqWikT4kjGZezDCmhTaigSZgcWEK150CQ_uiPyNqM6iSgJXaR-0Ch6DPIOeIGq678hmPPp4w", "html_attributions": [], "results": [{"name": "Mcd dispensary", "reference": "ChIJryDXEhT9DDkRB7d9F2sOgc4", "geometry": {"location": {"lat": 28.6834211, "lng": 77.26233119999999}, "viewport": {"northeast": {"lat": 28.6848045802915, "lng": 77.2637117302915}, "southwest": {"lat": 28.6821066197085, "lng": 77.2610137697085}}}, "place_id": "ChIJryDXEhT9DDkRB7d9F2sOgc4", "plus_code": {"global_code": "7JWVM7M6+9W", "compound_code": "M7M6+9W Delhi, India"}, "vicinity": "K-42/3C, Brahampuri, Shahdara, Delhi", "scope": "GOOGLE", "business_status": "OPERATIONAL", "types": ["hospital", "health", "point_of_interest", "establishment"], "icon": "https://maps.gstatic.com/mapfiles/place_api/icons/v1/png_71/hospital-71.png"}, {"rating": 1, "user_ratings_total": 2, "name": "Housewife", "reference": "ChIJB4jvVO_9DDkRbG-88y9E7xI", "geometry": {"location": {"lat": 28.696944, "lng": 77.2603085}, "viewport": {"northeast": {"lat": 28.6983185802915, "lng": 77.2616784302915}, "southwest": {"lat": 28.6956206197085, "lng": 77.25898046970848}}}, "place_id": "ChIJB4jvVO_9DDkRbG-88y9E7xI", "plus_code": {"global_code": "7JWVM7W6+Q4", "compound_code": "M7W6+Q4 Delhi, India"}, "vicinity": "D 641, Street Number 18, Bhajanpura, Delhi", "scope": "GOOGLE", "business_status": "OPERATIONAL", "types": ["hospital", "health", "point_of_interest", "establishment"], "icon": "https://maps.gstatic.com/mapfiles/place_api/icons/v1/png_71/hospital-71.png"}, {"rating": 4, "user_ratings_total": 2, "name": "Chanchal Medicose", "reference": "ChIJSwDk4Wr8DDkR-0YnoiXAADA", "geometry": {"location": {"lat": 28.6950708, "lng": 77.2663046}, "viewport": {"northeast": {"lat": 28.6964271302915, "lng": 77.2676476302915}, "southwest": {"lat": 28.6937291697085, "lng": 77.26494966970849}}}, "place_id": "ChIJSwDk4Wr8DDkR-0YnoiXAADA", "plus_code": {"global_code": "7JWVM7W8+2G", "compound_code": "M7W8+2G Delhi, India"}, "vicinity": "Chanda Chok Road, Bhajanpura, Shahdara, Delhi", "photos": [{"photo_reference": "ATtYBwLlr8lHtduF3_cc2InD2L0_c5sh7jeTtNo8OccsBe3gtb5_t1zKoF0bfns94KXai-FdJW1W0WzRj2WXejuE7PQ_6dym3ut3IRa35sCzuiLYearAD0scir9WsL33Ah1KIzMb13Xj-l7XWpGxvPWWRUl8Uf8dAL7ii1dW5utyjEnOQUHo", "width": 4160, "html_attributions": ["<a href=\"https://maps.google.com/maps/contrib/117974471839614488851\">Pawan kumar</a>"], "height": 2340}], "scope": "GOOGLE", "business_status": "OPERATIONAL", "types": ["hospital", "health", "point_of_interest", "establishment"], "icon": "https://maps.gstatic.com/mapfiles/place_api/icons/v1/png_71/hospital-71.png"}, {"rating": 4.7, "user_ratings_total": 3838, "name": "Sharp Sight Centre Gamri Delhi Eye Hospital", "reference": "ChIJBVh8gzj8DDkR2yer6iMauPE", "geometry": {"location": {"lat": 28.69651889999999, "lng": 77.2556061}, "viewport": {"northeast": {"lat": 28.69778463029149, "lng": 77.2569632802915}, "southwest": {"lat": 28.69508666970849, "lng": 77.2542653197085}}}, "opening_hours": {"open_now": true}, "place_id": "ChIJBVh8gzj8DDkR2yer6iMauPE", "plus_code": {"global_code": "7JWVM7W4+J6", "compound_code": "M7W4+J6 New Delhi, Delhi, India"}, "vicinity": "opp. Mother Dairy, A-5, CYR Market, Ch. Rajesh Pilot Gurjar Marg, Pusta, opp. Mother Dairy, Street Number 5, Gamri Extension, New Delhi", "photos": [{"photo_reference": "ATtYBwL7utftq-9FxUJyH6jNnYxgYu8pK4bHgeMK0i4EdcwDuraq0ffB9x6fxerGsztuAQhGYf_dSxc0JD8ApSu50S13UiXiiVuRi1O1wOl58aCrwAm0Ps-zRqM8en5wUdwxAprD2C4R3FYmuNHlDRzAeYWrPjFW3PLY_A84xs467mp7Fe9y", "width": 4000, "html_attributions": ["<a href=\"https://maps.google.com/maps/contrib/111355711844122774990\">Sharp Sight Centre Gamri Delhi Eye Hospital</a>"], "height": 3000}], "scope": "GOOGLE", "business_status": "OPERATIONAL", "types": ["hospital", "health", "point_of_interest", "establishment"], "icon": "https://maps.gstatic.com/mapfiles/place_api/icons/v1/png_71/generic_business-71.png"}, {"rating": 5, "user_ratings_total": 3, "name": "Aam aadmi mohalla clinic north ghonda", "reference": "ChIJ57a0GhH9DDkRREmPMoHWc_o", "geometry": {"location": {"lat": 28.6929138, "lng": 77.26823739999999}, "viewport": {"northeast": {"lat": 28.6941723302915, "lng": 77.2695754802915}, "southwest": {"lat": 28.6914743697085, "lng": 77.26687751970849}}}, "opening_hours": {"open_now": true}, "place_id": "ChIJ57a0GhH9DDkRREmPMoHWc_o", "plus_code": {"global_code": "7JWVM7V9+57", "compound_code": "M7V9+57 Delhi, India"}, "vicinity": "Krishna Park North GhondaBlock B, Subash Vihar, Shahdara, Delhi", "photos": [{"photo_reference": "ATtYBwJ3l2fK-FG2BTOgpQTp7M8tYsOpo_IVJCxwHcRfVT7gN5DtIrmPCr80GXOLOpjlxbvik4dtuH6hB_aArj1xnRla1ROjKcV0fWzo_9_4n4wSmM6n5Ksp3gSsug4GWuQKxkJllq-RF5J3Su8ZpkeA67wkWLCd9XGvI3A1awFje6aCJDdW", "width": 2368, "html_attributions": ["<a href=\"https://maps.google.com/maps/contrib/113969440022627510259\">Ajay kumar Sharma</a>"], "height": 4160}], "scope": "GOOGLE", "business_status": "OPERATIONAL", "types": ["hospital", "health", "point_of_interest", "establishment"], "icon": "https://maps.gstatic.com/mapfiles/place_api/icons/v1/png_71/hospital-71.png"}, {"name": "MUHAMMADIYA charitable medical centre", "reference": "ChIJJ-e5fpf9DDkRucGO7CJLie8", "geometry": {"location": {"lat": 28.6822428, "lng": 77.2632258}, "viewport": {"northeast": {"lat": 28.6836101802915, "lng": 77.2645904802915}, "southwest": {"lat": 28.6809122197085, "lng": 77.2618925197085}}}, "opening_hours": {"open_now": true}, "place_id": "ChIJJ-e5fpf9DDkRucGO7CJLie8", "plus_code": {"global_code": "7JWVM7J7+V7", "compound_code": "M7J7+V7 Delhi, India"}, "vicinity": "no.21, CS-91/250 R-block, near usmaniya masjid, Brahampuri Road", "scope": "GOOGLE", "business_status": "OPERATIONAL", "types": ["hospital", "health", "point_of_interest", "establishment"], "icon": "https://maps.gstatic.com/mapfiles/place_api/icons/v1/png_71/hospital-71.png"}, {"rating": 3.7, "user_ratings_total": 3, "name": "Natraj Medicos", "reference": "ChIJ_TAtTxX8DDkRo6ibhhPnSfE", "geometry": {"location": {"lat": 28.697252, "lng": 77.264594}, "viewport": {"northeast": {"lat": 28.6986075302915, "lng": 77.2659611802915}, "southwest": {"lat": 28.6959095697085, "lng": 77.26326321970849}}}, "opening_hours": {"open_now": true}, "place_id": "ChIJ_TAtTxX8DDkRo6ibhhPnSfE", "plus_code": {"global_code": "7JWVM7W7+WR", "compound_code": "M7W7+WR Delhi, India"}, "vicinity": "H42, Shastri Park Road, Block D, Shastri Park, Shahdara, Delhi", "scope": "GOOGLE", "business_status": "OPERATIONAL", "types": ["hospital", "health", "point_of_interest", "establishment"], "icon": "https://maps.gstatic.com/mapfiles/place_api/icons/v1/png_71/hospital-71.png"}, {"name": "Delhi ENT and Eye Centre", "reference": "ChIJR-5TrRP8DDkRTzH95iCjXW8", "geometry": {"location": {"lat": 28.6917134, "lng": 77.27003789999999}, "viewport": {"northeast": {"lat": 28.69306258029149, "lng": 77.2713849302915}, "southwest": {"lat": 28.6903646197085, "lng": 77.26868696970848}}}, "place_id": "ChIJR-5TrRP8DDkRTzH95iCjXW8", "plus_code": {"global_code": "7JWVM7RC+M2", "compound_code": "M7RC+M2 Delhi, India"}, "vicinity": "C 1/14, Yamuna Vihar, Shahdara, Delhi", "scope": "GOOGLE", "business_status": "OPERATIONAL", "types": ["hospital", "health", "point_of_interest", "establishment"], "icon": "https://maps.gstatic.com/mapfiles/place_api/icons/v1/png_71/hospital-71.png"}, {"rating": 3.3, "user_ratings_total": 15, "name": "Mangla nursing home", "reference": "ChIJYWG6SW_8DDkREXaMMocPpoA", "geometry": {"location": {"lat": 28.6870032, "lng": 77.2697398}, "viewport": {"northeast": {"lat": 28.6883632302915, "lng": 77.27104928029149}, "southwest": {"lat": 28.6856652697085, "lng": 77.26835131970849}}}, "opening_hours": {"open_now": true}, "place_id": "ChIJYWG6SW_8DDkREXaMMocPpoA", "plus_code": {"global_code": "7JWVM7P9+RV", "compound_code": "M7P9+RV Delhi, India"}, "vicinity": "151,Rajput Mohalla Bramhpuri, Main Road, Ghonda, Shahdara, Delhi", "scope": "GOOGLE", "business_status": "OPERATIONAL", "types": ["hospital", "health", "point_of_interest", "establishment"], "icon": "https://maps.gstatic.com/mapfiles/place_api/icons/v1/png_71/generic_business-71.png"}, {"rating": 5, "user_ratings_total": 3, "name": "Mohan Ram Diagnostic Center", "reference": "ChIJVeDSMW_8DDkRf-g0Zv3jB5U", "geometry": {"location": {"lat": 28.6863351, "lng": 77.2694667}, "viewport": {"northeast": {"lat": 28.6876831802915, "lng": 77.2708193302915}, "southwest": {"lat": 28.6849852197085, "lng": 77.2681213697085}}}, "opening_hours": {"open_now": true}, "place_id": "ChIJVeDSMW_8DDkRf-g0Zv3jB5U", "plus_code": {"global_code": "7JWVM7P9+GQ", "compound_code": "M7P9+GQ Delhi, India"}, "vicinity": "Brahampuri Road, Near, Shiv Mandir Gali, Ghonda, Shahdara, Delhi", "photos": [{"photo_reference": "ATtYBwIun9pCTxd5mOZamjo-poSjqf9i_FmZgxf1TVXPrDsJHREhfUOVrpwwC3qNja0wFcOIccA7f714qYFHOUlUGMfA-ShulZ4UsXKSS6ZP3FY4Q48cP6KPUsB1GDumjg2Y2gwaiyTyT6KTttq0CrkQLPFwrwDcIiZGg0pVzsxChpNsjXUa", "width": 4608, "html_attributions": ["<a href=\"https://maps.google.com/maps/contrib/100833750940856513841\">Mohan Ram Diagnostic Center</a>"], "height": 3456}], "scope": "GOOGLE", "business_status": "OPERATIONAL", "types": ["hospital", "health", "point_of_interest", "establishment"], "icon": "https://maps.gstatic.com/mapfiles/place_api/icons/v1/png_71/hospital-71.png"}, {"rating": 5, "user_ratings_total": 1, "name": "Piles and Fistula Clinic", "reference": "ChIJUfRr6Pb9DDkRmMfv8Vwk58g", "geometry": {"location": {"lat": 28.6856657, "lng": 77.2692126}, "viewport": {"northeast": {"lat": 28.6870107302915, "lng": 77.2705741802915}, "southwest": {"lat": 28.6843127697085, "lng": 77.2678762197085}}}, "place_id": "ChIJUfRr6Pb9DDkRmMfv8Vwk58g", "plus_code": {"global_code": "7JWVM7P9+7M", "compound_code": "M7P9+7M Delhi, India"}, "vicinity": "C-185, Brahampuri Road, Street Number 2, Chauhan Banger, Delhi", "scope": "GOOGLE", "business_status": "OPERATIONAL", "types": ["hospital", "health", "point_of_interest", "establishment"], "icon": "https://maps.gstatic.com/mapfiles/place_api/icons/v1/png_71/hospital-71.png"}, {"rating": 4.5, "user_ratings_total": 2, "name": "MBG HOSPITAL", "reference": "ChIJQbUjOIb9DDkRclx4nXGrpn8", "geometry": {"location": {"lat": 28.6839584, "lng": 77.2679655}, "viewport": {"northeast": {"lat": 28.6853234802915, "lng": 77.2693203302915}, "southwest": {"lat": 28.6826255197085, "lng": 77.2666223697085}}}, "opening_hours": {"open_now": true}, "place_id": "ChIJQbUjOIb9DDkRclx4nXGrpn8", "plus_code": {"global_code": "7JWVM7M9+H5", "compound_code": "M7M9+H5 Delhi, India"}, "vicinity": "D-4, Block C, Block D, Brahampuri, Shahdara, Delhi", "photos": [{"photo_reference": "ATtYBwJwXVBhZsp1agMszqq5DcyWxafPMG3GvbHKGJNSHyR4KG5gtylpowCHTxKr9oOIGcDGR4OxhKHtNjKIvpoZ9oUfD1utBkKas9_WdIUjjCLwLmlGYRehs_ipCBjPMACvcfSc9VoHOVlzp5qBU7d6IrS6YEwsOEcdykngWB5yNd_NZwBz", "width": 4160, "html_attributions": ["<a href=\"https://maps.google.com/maps/contrib/109329130733096893027\">Technical Sandeep Rathore</a>"], "height": 3120}], "scope": "GOOGLE", "business_status": "OPERATIONAL", "types": ["hospital", "health", "point_of_interest", "establishment"], "icon": "https://maps.gstatic.com/mapfiles/place_api/icons/v1/png_71/hospital-71.png"}, {"rating": 3, "user_ratings_total": 1, "name": "Prem Medicos", "reference": "ChIJF1fo1z_8DDkR5ghvHZI1rk4", "geometry": {"location": {"lat": 28.6987477, "lng": 77.26338179999999}, "viewport": {"northeast": {"lat": 28.7001320802915, "lng": 77.26478043029151}, "southwest": {"lat": 28.6974341197085, "lng": 77.26208246970849}}}, "opening_hours": {"open_now": true}, "place_id": "ChIJF1fo1z_8DDkR5ghvHZI1rk4", "plus_code": {"global_code": "7JWVM7X7+F9", "compound_code": "M7X7+F9 Delhi, India"}, "vicinity": "Block D, Bhajanpura, Shahdara, Delhi", "scope": "GOOGLE", "business_status": "OPERATIONAL", "types": ["hospital", "health", "point_of_interest", "establishment"], "icon": "https://maps.gstatic.com/mapfiles/place_api/icons/v1/png_71/hospital-71.png"}, {"name": "First Health Care Solutions", "reference": "ChIJy8mkQVz8DDkRYDHr3u6eSt0", "geometry": {"location": {"lat": 28.680642, "lng": 77.2593306}, "viewport": {"northeast": {"lat": 28.6820223802915, "lng": 77.2606857802915}, "southwest": {"lat": 28.6793244197085, "lng": 77.25798781970849}}}, "opening_hours": {"open_now": true}, "place_id": "ChIJy8mkQVz8DDkRYDHr3u6eSt0", "plus_code": {"global_code": "7JWVM7J5+7P", "compound_code": "M7J5+7P Delhi, India"}, "vicinity": "C-111, Pehla Pustha, Jain Mandir, Main Road, New Usmanpur, Shahdara, Delhi", "scope": "GOOGLE", "business_status": "OPERATIONAL", "types": ["hospital", "health", "point_of_interest", "establishment"], "icon": "https://maps.gstatic.com/mapfiles/place_api/icons/v1/png_71/hospital-71.png"}, {"rating": 4, "user_ratings_total": 1, "name": "Jeet Dental Clinic", "reference": "ChIJvTv4GWb8DDkRqVd_30MpIHc", "geometry": {"location": {"lat": 28.6844518, "lng": 77.2687658}, "viewport": {"northeast": {"lat": 28.6858045802915, "lng": 77.2701028302915}, "southwest": {"lat": 28.6831066197085, "lng": 77.2674048697085}}}, "opening_hours": {"open_now": true}, "place_id": "ChIJvTv4GWb8DDkRqVd_30MpIHc", "plus_code": {"global_code": "7JWVM7M9+QG", "compound_code": "M7M9+QG Delhi, India"}, "vicinity": "417/12, Brahampuri Road, Jafrabad, Shahdara, Delhi", "scope": "GOOGLE", "business_status": "OPERATIONAL", "types": ["hospital", "health", "point_of_interest", "establishment"], "icon": "https://maps.gstatic.com/mapfiles/place_api/icons/v1/png_71/hospital-71.png"}, {"name": "Brij Hospital", "reference": "ChIJ77j2bmb8DDkRs0BLm6o7-qA", "geometry": {"location": {"lat": 28.6836496, "lng": 77.2683337}, "viewport": {"northeast": {"lat": 28.6849928802915, "lng": 77.26969798029151}, "southwest": {"lat": 28.6822949197085, "lng": 77.26700001970849}}}, "place_id": "ChIJ77j2bmb8DDkRs0BLm6o7-qA", "plus_code": {"global_code": "7JWVM7M9+F8", "compound_code": "M7M9+F8 Delhi, India"}, "vicinity": "Third Pusta Main Road, Block C, Block D, Brahampuri, Shahdara, Delhi", "scope": "GOOGLE", "business_status": "OPERATIONAL", "types": ["hospital", "health", "point_of_interest", "establishment"], "icon": "https://maps.gstatic.com/mapfiles/place_api/icons/v1/png_71/hospital-71.png"}, {"name": "INAAYA CLINIC", "reference": "ChIJaUAFeOz9DDkRrhDlNuZgVPs", "geometry": {"location": {"lat": 28.6857926, "lng": 77.270068}, "viewport": {"northeast": {"lat": 28.6871039302915, "lng": 77.2714007802915}, "southwest": {"lat": 28.6844059697085, "lng": 77.2687028197085}}}, "opening_hours": {"open_now": false}, "place_id": "ChIJaUAFeOz9DDkRrhDlNuZgVPs", "plus_code": {"global_code": "7JWVM7PC+82", "compound_code": "M7PC+82 Shahdara, Delhi, India"}, "vicinity": "C-182/15A, Street Number 2, Chauhan Banger, Shahdara", "scope": "GOOGLE", "business_status": "OPERATIONAL", "types": ["hospital", "health", "point_of_interest", "establishment"], "icon": "https://maps.gstatic.com/mapfiles/place_api/icons/v1/png_71/hospital-71.png"}, {"rating": 3.2, "user_ratings_total": 5, "name": "Dr. Rathore Clinic", "reference": "ChIJH-yqLT78DDkRMqSw3NWmXu8", "geometry": {"location": {"lat": 28.6995648, "lng": 77.2629578}, "viewport": {"northeast": {"lat": 28.7009866802915, "lng": 77.26425498029151}, "southwest": {"lat": 28.6982887197085, "lng": 77.2615570197085}}}, "opening_hours": {"open_now": true}, "place_id": "ChIJH-yqLT78DDkRMqSw3NWmXu8", "plus_code": {"global_code": "7JWVM7X7+R5", "compound_code": "M7X7+R5 Delhi, India"}, "vicinity": "Street number 9, c 188, Block C, Bhajanpura, Shahdara, Delhi", "scope": "GOOGLE", "business_status": "OPERATIONAL", "types": ["hospital", "health", "point_of_interest", "establishment"], "icon": "https://maps.gstatic.com/mapfiles/place_api/icons/v1/png_71/hospital-71.png"}, {"rating": 2, "user_ratings_total": 1, "name": "Techo Hospital", "reference": "ChIJ4SDfGjn8DDkRFGKXftfJcng", "geometry": {"location": {"lat": 28.699233, "lng": 77.255674}, "viewport": {"northeast": {"lat": 28.70058218029149, "lng": 77.25702103029151}, "southwest": {"lat": 28.6978842197085, "lng": 77.25432306970849}}}, "place_id": "ChIJ4SDfGjn8DDkRFGKXftfJcng", "plus_code": {"global_code": "7JWVM7X4+M7", "compound_code": "M7X4+M7 New Delhi, Delhi, India"}, "vicinity": "Gamri Village, Ghonda, Bhajanpura, Shahdara, New Delhi", "scope": "GOOGLE", "business_status": "OPERATIONAL", "types": ["hospital", "health", "point_of_interest", "establishment"], "icon": "https://maps.gstatic.com/mapfiles/place_api/icons/v1/png_71/hospital-71.png"}, {"name": "Mohan Lal Medical Centre", "reference": "ChIJq5KLG1D9DDkRReuB-K4pWp8", "geometry": {"location": {"lat": 28.6831822, "lng": 77.268333}, "viewport": {"northeast": {"lat": 28.6845405802915, "lng": 77.2696365802915}, "southwest": {"lat": 28.6818426197085, "lng": 77.2669386197085}}}, "opening_hours": {"open_now": true}, "place_id": "ChIJq5KLG1D9DDkRReuB-K4pWp8", "plus_code": {"global_code": "7JWVM7M9+78", "compound_code": "M7M9+78 Delhi, India"}, "vicinity": "1600, Ramkrushna, Street Number 6, Jafrabad, Shahdara, Delhi", "scope": "GOOGLE", "business_status": "OPERATIONAL", "types": ["hospital", "health", "point_of_interest", "establishment"], "icon": "https://maps.gstatic.com/mapfiles/place_api/icons/v1/png_71/hospital-71.png"}]}