{"status": "OK", "html_attributions": [], "results": [{"rating": 3, "user_ratings_total": 1, "name": "Aarogyadham Hospital", "reference": "ChIJzRLbqE7nDDkRmGMk6w5dMmQ", "geometry": {"location": {"lat": 28.4636331, "lng": 77.29251289999999}, "viewport": {"northeast": {"lat": 28.4649317802915, "lng": 77.2939577302915}, "southwest": {"lat": 28.46223381970849, "lng": 77.29125976970849}}}, "place_id": "ChIJzRLbqE7nDDkRmGMk6w5dMmQ", "plus_code": {"global_code": "7JWVF77V+F2", "compound_code": "F77V+F2 Faridabad, Haryana, India"}, "vicinity": "A 2559, A, 1755, Road Number 117, Greenfields, Sector 42, Faridabad", "scope": "GOOGLE", "business_status": "OPERATIONAL", "types": ["hospital", "health", "point_of_interest", "establishment"], "icon": "https://maps.gstatic.com/mapfiles/place_api/icons/v1/png_71/hospital-71.png"}, {"rating": 5, "user_ratings_total": 1, "name": "St. Brijmohan Lal Charitable Hospital", "reference": "ChIJyScKVivhDDkRiw-WWHEB5V0", "geometry": {"location": {"lat": 28.46423339999999, "lng": 77.27650799999999}, "viewport": {"northeast": {"lat": 28.4655032802915, "lng": 77.27779538029151}, "southwest": {"lat": 28.46280531970849, "lng": 77.27509741970849}}}, "place_id": "ChIJyScKVivhDDkRiw-WWHEB5V0", "plus_code": {"global_code": "7JWVF77G+MJ", "compound_code": "F77G+MJ Faridabad, Haryana, India"}, "vicinity": "St Brijmohan Lal Campus, Road, Anangpur, Faridabad", "photos": [{"photo_reference": "ATtYBwJ6jBlL5U7iqD80DiacaPYqGE9_0sSqHfnJvT55cJuoEaDZPNy2fkBG-tMVBITqWfoaFww1J62Dnps5Kjm84_HVjPobEYpR29xrrryIXDp2a8mP0m5j12y4tcWht55xZvutziaVjGhlXftVTni7bIAsTjvAU0cLEnjUURZiqjEROSYI", "width": 3000, "html_attributions": ["<a href=\"https://maps.google.com/maps/contrib/105876859688473576363\">Parveen Nagar</a>"], "height": 4000}], "scope": "GOOGLE", "business_status": "OPERATIONAL", "types": ["hospital", "health", "point_of_interest", "establishment"], "icon": "https://maps.gstatic.com/mapfiles/place_api/icons/v1/png_71/hospital-71.png"}, {"rating": 5, "user_ratings_total": 1, "name": "VCARE HEALTH SOLUTIONS.", "reference": "ChIJ43PfbjXnDDkRLe2x4_2zVQc", "geometry": {"location": {"lat": 28.4703519, "lng": 77.2883603}, "viewport": {"northeast": {"lat": 28.4717124802915, "lng": 77.28949063029151}, "southwest": {"lat": 28.4690145197085, "lng": 77.2867926697085}}}, "place_id": "ChIJ43PfbjXnDDkRLe2x4_2zVQc", "plus_code": {"global_code": "7JWVF7CQ+48", "compound_code": "F7CQ+48 Faridabad, Haryana, India"}, "vicinity": "NHPC Colony, Sector 41, Faridabad", "scope": "GOOGLE", "business_status": "OPERATIONAL", "types": ["hospital", "health", "point_of_interest", "establishment"], "icon": "https://maps.gstatic.com/mapfiles/place_api/icons/v1/png_71/hospital-71.png"}, {"rating": 5, "user_ratings_total": 7, "name": "Arise Health Care", "reference": "ChIJCdRlpb3nDDkRCNMXM_VWOik", "geometry": {"location": {"lat": 28.4651037, "lng": 77.28792419999999}, "viewport": {"northeast": {"lat": 28.4664526802915, "lng": 77.2892731802915}, "southwest": {"lat": 28.4637547197085, "lng": 77.2865752197085}}}, "opening_hours": {"open_now": true}, "place_id": "ChIJCdRlpb3nDDkRCNMXM_VWOik", "vicinity": "SCO C -- 3185, Block C, Greenfields, Sector 45, Faridabad", "photos": [{"photo_reference": "ATtYBwK2s3TKq5zTH9vxXUNrINX8oEHBEeFuxwm1QdTTtkfrHfyKwmY84R5n4EuHEd3ls9O2ZUXRT5KKatvnkzV9ThYAgEa44mhrRsV-iM2Ofui4g652pTW9aczINueTXvMFg7lsc9X4clcK0mUKWqRR06EpkAymb_5Wtf5sXkQmTV27_3Vz", "width": 4032, "html_attributions": ["<a href=\"https://maps.google.com/maps/contrib/112028919452802044883\">ASLAM PARWAIZ</a>"], "height": 1960}], "scope": "GOOGLE", "business_status": "OPERATIONAL", "types": ["hospital", "health", "point_of_interest", "establishment"], "icon": "https://maps.gstatic.com/mapfiles/place_api/icons/v1/png_71/hospital-71.png"}, {"name": "Medical Dispensary", "reference": "ChIJpeDxtJLnDDkR3GxhJWjHmrQ", "geometry": {"location": {"lat": 28.4709993, "lng": 77.2899171}, "viewport": {"northeast": {"lat": 28.4723863302915, "lng": 77.29125663029151}, "southwest": {"lat": 28.4696883697085, "lng": 77.2885586697085}}}, "place_id": "ChIJpeDxtJLnDDkR3GxhJWjHmrQ", "plus_code": {"global_code": "7JWVF7CQ+9X", "compound_code": "F7CQ+9X Faridabad, Haryana, India"}, "vicinity": "NHPC Colony, Sector 41, Faridabad", "scope": "GOOGLE", "business_status": "OPERATIONAL", "types": ["hospital", "health", "point_of_interest", "establishment"], "icon": "https://maps.gstatic.com/mapfiles/place_api/icons/v1/png_71/hospital-71.png"}, {"name": "SCIENTIFIC DIOGNOSTIC CENTRE", "reference": "ChIJ7d5DxqHnDDkReNLwE1QbdgM", "geometry": {"location": {"lat": 28.4753591, "lng": 77.2884076}, "viewport": {"northeast": {"lat": 28.4765535302915, "lng": 77.28912435000001}, "southwest": {"lat": 28.4738555697085, "lng": 77.28625734999999}}}, "opening_hours": {"open_now": true}, "place_id": "ChIJ7d5DxqHnDDkReNLwE1QbdgM", "plus_code": {"global_code": "7JWVF7GQ+49", "compound_code": "F7GQ+49 New Delhi, Delhi, India"}, "vicinity": "A-41/1, Sharma Market, Pul Pehlad Pur, New Delhi", "photos": [{"photo_reference": "ATtYBwKrSStsnRHU1r9tXxOv3zEsYZMva_oTRMadU0UAoEs1AVq82XdkvITl-CKmYz2nbB-WjaUi9UuwA1qar_-XMG4aoNKVN6pE4eWe6EJsjeQ9Urs2RAVT5P_s8UbNZpylBZf06n2eprJAYFlxTum2Y9EIMB30E44tvBPOE77wtsM8M0M", "width": 1920, "html_attributions": ["<a href=\"https://maps.google.com/maps/contrib/117832481773198514292\">Kalyan Singh</a>"], "height": 1080}], "scope": "GOOGLE", "business_status": "OPERATIONAL", "types": ["hospital", "health", "point_of_interest", "establishment"], "icon": "https://maps.gstatic.com/mapfiles/place_api/icons/v1/png_71/hospital-71.png"}, {"name": "New Delhi Hospital Subash Nagar", "reference": "ChIJW_N7jFnhDDkRAvo8z3rYUdU", "geometry": {"location": {"lat": 28.4703601, "lng": 77.2687424}, "viewport": {"northeast": {"lat": 28.4716931302915, "lng": 77.27009053029151}, "southwest": {"lat": 28.4689951697085, "lng": 77.26739256970849}}}, "place_id": "ChIJW_N7jFnhDDkRAvo8z3rYUdU", "plus_code": {"global_code": "7JWVF7C9+4F", "compound_code": "F7C9+4F Faridabad, Haryana, India"}, "vicinity": "Faridabad", "scope": "GOOGLE", "business_status": "OPERATIONAL", "types": ["hospital", "health", "point_of_interest", "establishment"], "icon": "https://maps.gstatic.com/mapfiles/place_api/icons/v1/png_71/hospital-71.png"}]}