{"status": "OK", "html_attributions": [], "results": [{"rating": 4.3, "user_ratings_total": 3, "name": "Dhama Medicos", "reference": "ChIJ76D_lZjkDDkRwh_FgmQ02Qs", "geometry": {"location": {"lat": 28.6065931, "lng": 77.2936758}, "viewport": {"northeast": {"lat": 28.6079268802915, "lng": 77.2950537302915}, "southwest": {"lat": 28.6052289197085, "lng": 77.29235576970848}}}, "opening_hours": {"open_now": true}, "place_id": "ChIJ76D_lZjkDDkRwh_FgmQ02Qs", "plus_code": {"global_code": "7JWVJ74V+JF", "compound_code": "J74V+JF New Delhi, Delhi, India"}, "vicinity": "6th Street, Pocket 5, Pratap Nagar, Mayur Vihar, New Delhi", "photos": [{"photo_reference": "ATtYBwKo09pR59zwmb9R8lw89Fr98CY-iYuRMigIJGqSlVHSVuNh5oEb2rxEHgjdn4aiM9L8AzN6tgGFKWXOC6XPRweaP3hhhKyub1-dMbKxCxt9tnouyz9dmqAQj0Ab8cIvmZ3om2mWk5Z5ol1hvn7cJ6V_R6YP6G6NiDH6PpgjajhOwYxA", "width": 1280, "html_attributions": ["<a href=\"https://maps.google.com/maps/contrib/114725656631596622100\">Dharmender Dhama</a>"], "height": 720}], "scope": "GOOGLE", "business_status": "OPERATIONAL", "types": ["hospital", "health", "point_of_interest", "establishment"], "icon": "https://maps.gstatic.com/mapfiles/place_api/icons/v1/png_71/hospital-71.png"}, {"rating": 5, "user_ratings_total": 4, "name": "Respiro Clinic -Dr Shekhar Varshney (Pulmonologist & Chest Physician)", "reference": "ChIJifyBAKzlDDkRxUJcz9TpChM", "geometry": {"location": {"lat": 28.6021295, "lng": 77.2911689}, "viewport": {"northeast": {"lat": 28.6034784802915, "lng": 77.29251788029151}, "southwest": {"lat": 28.6007805197085, "lng": 77.2898199197085}}}, "opening_hours": {"open_now": false}, "place_id": "ChIJifyBAKzlDDkRxUJcz9TpChM", "plus_code": {"global_code": "7JWVJ72R+VF", "compound_code": "J72R+VF Mayur Vihar, New Delhi, Delhi, India"}, "vicinity": "Metro Station, 185 A, Pocket -4, (Garud Apartment, near Mayur Vihar-1, Mayur Vihar", "photos": [{"photo_reference": "ATtYBwLC2-pOi5OPQ0zWOb-1yxTHiEeZEIkzai7AudKcEThQx2iyeRq635SPRKQDrJL30yBqS2ExOEkoRCJs6wP-I5WeXHfPxRlCvDNsVUn9oLziD77QXWtwPx-XSotQSiiarjFTbGmRMFuqGUdfKqM8eWX_aoKOYkx9J2C3fuNKp6SafBkz", "width": 1440, "html_attributions": ["<a href=\"https://maps.google.com/maps/contrib/116157634532629822162\">Respiro Clinic -Dr Shekhar Varshney (Pulmonologist &amp; Chest Physician)</a>"], "height": 809}], "scope": "GOOGLE", "business_status": "OPERATIONAL", "types": ["hospital", "doctor", "health", "point_of_interest", "establishment"], "icon": "https://maps.gstatic.com/mapfiles/place_api/icons/v1/png_71/generic_business-71.png"}, {"name": "PARAMEDICAL COUNCIL OF INDIA", "reference": "ChIJ2RYsEKLkDDkR60r6AYSDbJ4", "geometry": {"location": {"lat": 28.6083697, "lng": 77.293112}, "viewport": {"northeast": {"lat": 28.6097186802915, "lng": 77.29446098029149}, "southwest": {"lat": 28.60702071970849, "lng": 77.29176301970848}}}, "place_id": "ChIJ2RYsEKLkDDkR60r6AYSDbJ4", "vicinity": "Plot No:- P, 41, Mayur Vihar, New Delhi", "scope": "GOOGLE", "business_status": "OPERATIONAL", "types": ["hospital", "health", "point_of_interest", "establishment"], "icon": "https://maps.gstatic.com/mapfiles/place_api/icons/v1/png_71/hospital-71.png"}]}