{"status": "OK", "next_page_token": "ATtYBwJK2t5ZIR6SYwUEBw7QX2qbpvWK6B8DZyHXP9yhc3vJaQmdt5B5QemBwyAtY9r_b0_KLxqS0AsVKaooguSxYgBJ_SI5gyhtJGANgouPEPIo1fcvz6W5Ppsjc1yvBJHoOIWf8SbS3JcuiT34SsRqVavcHGiFx7cNrKdsKb6jLjNE4UlpNHVLrwUT7hRxEIsG4nRaV1UV4q1t6U-akKRWfpRVokwO--38T7V6leZBMPgK2J4lF8OnPWjNqGjTygtrRsUAAiIoXcjjTPB8WRa8EfGyFhmOqjxg99_z5krk3GMkSI1BBjTREwkIRWxKYnMQCCJU8WFGhEXIX9ko8oYqrnm_Fleju9jsyCAl6k52o0Kbi9GPoRUbbIa9y126Iey8reHuSO_IkII0QuiG4i_qb6RkocTY-j5uOy-3zGKExaMCznW6", "html_attributions": [], "results": [{"rating": 4.8, "user_ratings_total": 35, "name": "Deepak Ayurvedic Centre", "reference": "ChIJKSQUoIL8DDkRhx4ZQNrM4rQ", "geometry": {"location": {"lat": 28.6657049, "lng": 77.28643699999999}, "viewport": {"northeast": {"lat": 28.6670759302915, "lng": 77.2878372302915}, "southwest": {"lat": 28.66437796970851, "lng": 77.2851392697085}}}, "opening_hours": {"open_now": true}, "place_id": "ChIJKSQUoIL8DDkRhx4ZQNrM4rQ", "plus_code": {"global_code": "7JWVM78P+7H", "compound_code": "M78P+7H Delhi, India"}, "vicinity": "4/1463 Shalimar Park, Near DCP office, In front of Shalimar Park Community Centre Shahdara Shahdara", "photos": [{"photo_reference": "ATtYBwLUZWS83ST6o8CBZ-meG0-gtJbS98jKcOKF-JSKrDlXs52m2c1XYPMkjaD6ERy54Yx7F3wu1jIosslep0ynvGt5cNpWwMUkKEDJ8X8GXnmUN7a4OxYuM_o7IFMp34MgS2Is74-S6ovUbkVlymjrq2gUfQofLfDwxWwaVBnc9U0OSRXL", "width": 4200, "html_attributions": ["<a href=\"https://maps.google.com/maps/contrib/116454741275425307227\">Deepak Ayurvedic Centre</a>"], "height": 2800}], "scope": "GOOGLE", "business_status": "OPERATIONAL", "types": ["hospital", "health", "point_of_interest", "store", "establishment"], "icon": "https://maps.gstatic.com/mapfiles/place_api/icons/v1/png_71/generic_business-71.png"}, {"rating": 3.7, "user_ratings_total": 21, "name": "Government Hospital", "reference": "ChIJT65lzoX8DDkROseUf-E7Jp4", "geometry": {"location": {"lat": 28.668388, "lng": 77.2774766}, "viewport": {"northeast": {"lat": 28.6697313302915, "lng": 77.2789133802915}, "southwest": {"lat": 28.6670333697085, "lng": 77.27621541970849}}}, "opening_hours": {"open_now": true}, "place_id": "ChIJT65lzoX8DDkROseUf-E7Jp4", "plus_code": {"global_code": "7JWVM79G+9X", "compound_code": "M79G+9X Delhi, India"}, "vicinity": "286/5, West Kanti Nagar, Seelampur, Shahdara, Delhi", "photos": [{"photo_reference": "ATtYBwJj4gAzoHobJ1aafHX25d1m0bAVLOH1DaH4mRIQ0sd19dlP4pvn1QrSlkn_KH31w5JPrPpEp-lWqtZ7WYV1Gt62fVANs7h8m-EYHqOE-lbUBSBPp2X1M-u6H2KlwtZt8Bq8yInCQSWxi9ZhN28-1FSRGgpXpSVgGSU2_LQoF8-y5G2b", "width": 3264, "html_attributions": ["<a href=\"https://maps.google.com/maps/contrib/113098744285306592158\">Jobin Mathew</a>"], "height": 1836}], "scope": "GOOGLE", "business_status": "OPERATIONAL", "types": ["hospital", "health", "point_of_interest", "establishment"], "icon": "https://maps.gstatic.com/mapfiles/place_api/icons/v1/png_71/hospital-71.png"}, {"rating": 4, "user_ratings_total": 2, "name": "Dr. Lal PathLabs", "reference": "ChIJsaqq04f8DDkRSfc3iiN4Co4", "geometry": {"location": {"lat": 28.672089, "lng": 77.27553499999999}, "viewport": {"northeast": {"lat": 28.6735091802915, "lng": 77.27686858029149}, "southwest": {"lat": 28.6708112197085, "lng": 77.27417061970849}}}, "opening_hours": {"open_now": true}, "place_id": "ChIJsaqq04f8DDkRSfc3iiN4Co4", "plus_code": {"global_code": "7JWVM7CG+R6", "compound_code": "M7CG+R6 Delhi, India"}, "vicinity": "Shope No,18, Welcome Seelampur, Delhi", "photos": [{"photo_reference": "ATtYBwJfvYAAWsWgTP5tZLqpzq2WPqHz6LMrJ-iBbKGVI-9Nej8V-h4TbKD2QtXTCWqAceMXP_uVyHVblVWQkAY8OV9bKTEZ63dukr69lXQ4VXdDnIOkCAUlQx22N1wByI8emTM3PaTgoZGA05RFqAbXp67VSzkNQ5m0vnNTIjkBaV3Bog8J", "width": 2048, "html_attributions": ["<a href=\"https://maps.google.com/maps/contrib/111379397500092335014\">Dr Lal Pathlabs</a>"], "height": 1152}], "scope": "GOOGLE", "business_status": "OPERATIONAL", "types": ["hospital", "health", "point_of_interest", "establishment"], "icon": "https://maps.gstatic.com/mapfiles/place_api/icons/v1/png_71/hospital-71.png"}, {"rating": 4.3, "user_ratings_total": 6, "name": "welcome medical centre", "reference": "ChIJ5zpduIn8DDkR48oMkxWzfzE", "geometry": {"location": {"lat": 28.6728821, "lng": 77.2712663}, "viewport": {"northeast": {"lat": 28.67415978029149, "lng": 77.2726220802915}, "southwest": {"lat": 28.67146181970849, "lng": 77.26992411970849}}}, "opening_hours": {"open_now": true}, "place_id": "ChIJ5zpduIn8DDkR48oMkxWzfzE", "plus_code": {"global_code": "7JWVM7FC+5G", "compound_code": "M7FC+5G Delhi, India"}, "vicinity": "z II 476/477 welcome colony seelumpur III shadara, Delhi", "scope": "GOOGLE", "business_status": "OPERATIONAL", "types": ["hospital", "health", "point_of_interest", "establishment"], "icon": "https://maps.gstatic.com/mapfiles/place_api/icons/v1/png_71/hospital-71.png"}, {"name": "Metropolis Lab", "reference": "ChIJY_mwRJ38DDkRQvnhGPomq94", "geometry": {"location": {"lat": 28.6632599, "lng": 77.2857342}, "viewport": {"northeast": {"lat": 28.6645982302915, "lng": 77.2870643802915}, "southwest": {"lat": 28.6619002697085, "lng": 77.28436641970849}}}, "place_id": "ChIJY_mwRJ38DDkRQvnhGPomq94", "plus_code": {"global_code": "7JWVM77P+87", "compound_code": "M77P+87 Delhi, India"}, "vicinity": "383/11-A, Swami Dayanand Marg, Azad Nagar East, Shahdara, Delhi", "photos": [{"photo_reference": "ATtYBwLHopmPC6bpgF3XTYgQQaOWbkfsP7A2YbXaEb4X3caW4Urnfhub7JvY4e2l72fU4uyk4AS_e96v5WFXkqp2vwEYpO1Ca2VXRo4RtLaPh4wAtjViJsXhojUz2vnT_eHg-f88AEojH1sXDef76UjNPobnrLWtO4IdFZJfdz3gLN2hFHGd", "width": 3120, "html_attributions": ["<a href=\"https://maps.google.com/maps/contrib/116033834765945307307\">Mr Ahmed</a>"], "height": 4160}], "scope": "GOOGLE", "business_status": "OPERATIONAL", "types": ["hospital", "health", "point_of_interest", "establishment"], "icon": "https://maps.gstatic.com/mapfiles/place_api/icons/v1/png_71/hospital-71.png"}, {"rating": 4.1, "user_ratings_total": 15, "name": "Healthy Heart Cardiac Center", "reference": "ChIJKULDZ538DDkRBN0ufAO8PyQ", "geometry": {"location": {"lat": 28.662789, "lng": 77.2858459}, "viewport": {"northeast": {"lat": 28.6641340802915, "lng": 77.2871988802915}, "southwest": {"lat": 28.6614361197085, "lng": 77.28450091970849}}}, "opening_hours": {"open_now": false}, "place_id": "ChIJKULDZ538DDkRBN0ufAO8PyQ", "plus_code": {"global_code": "7JWVM77P+48", "compound_code": "M77P+48 Delhi, India"}, "vicinity": "East Krishna Nagar, Block E, Krishna Nagar, Delhi", "photos": [{"photo_reference": "ATtYBwJDjmENBpNaEWPrZZ6IZOazH6iehpXUOoQ9RfDeBE-HQB7DPWyioW9jas_aytZm4GgCPvnptZCxcksWx-RpSODxZM5vigA0C04LbnkBB38U48JYz-SDlgu5GzuLdCGnGxz2pe1qufBJCFK5-yaKPV-qoSOo5yC4K4FeavgwvzlQ9eSs", "width": 4640, "html_attributions": ["<a href=\"https://maps.google.com/maps/contrib/101273546975903360799\">Kunal Sethi</a>"], "height": 3480}], "scope": "GOOGLE", "business_status": "OPERATIONAL", "types": ["hospital", "health", "point_of_interest", "establishment"], "icon": "https://maps.gstatic.com/mapfiles/place_api/icons/v1/png_71/hospital-71.png"}, {"rating": 5, "user_ratings_total": 75, "name": "Dr LK Sehgal- Best Dentist/Implant Clinic In Krishna Nagar/Near Shahdra In Transyamuna", "reference": "ChIJGdwFZp38DDkRBjo5yvsP2O0", "geometry": {"location": {"lat": 28.6626844, "lng": 77.28569569999999}, "viewport": {"northeast": {"lat": 28.6640371302915, "lng": 77.2870513302915}, "southwest": {"lat": 28.6613391697085, "lng": 77.2843533697085}}}, "opening_hours": {"open_now": true}, "place_id": "ChIJGdwFZp38DDkRBjo5yvsP2O0", "plus_code": {"global_code": "7JWVM77P+37", "compound_code": "M77P+37 Delhi, India"}, "vicinity": "C-36, East Krishna Nagar, Krishna Nagar, Delhi", "photos": [{"photo_reference": "ATtYBwJ1R5q1_j3XpWill5BvjPvmeLWd5VJQFxfnLav03MChiLWJGCVy2dT09roL9KGiDcG6kEGpgUaE73GDZ_1XLOUy7ffLFJDIL4JUJ-DBaLytoX0h8R8zN8rl1X7YSha5cR80xo5RPvIcJZ9x3eJAHz3amw-40i7jRzTx30T5Jb5CERUv", "width": 1038, "html_attributions": ["<a href=\"https://maps.google.com/maps/contrib/106953918317179014614\">Dr LK Sehgal- Best Dentist/Implant Clinic In Krishna Nagar/Near Shahdra In Transyamuna</a>"], "height": 582}], "scope": "GOOGLE", "business_status": "OPERATIONAL", "types": ["hospital", "health", "point_of_interest", "establishment"], "icon": "https://maps.gstatic.com/mapfiles/place_api/icons/v1/png_71/hospital-71.png"}, {"rating": 3.4, "user_ratings_total": 25, "name": "Chandiwala Hospital Shahdara", "reference": "ChIJh1tjbH_7DDkRkeMFVdIR4hs", "geometry": {"location": {"lat": 28.6749538, "lng": 77.2903888}, "viewport": {"northeast": {"lat": 28.67629428029149, "lng": 77.2916944802915}, "southwest": {"lat": 28.6735963197085, "lng": 77.28899651970849}}}, "place_id": "ChIJh1tjbH_7DDkRkeMFVdIR4hs", "plus_code": {"global_code": "7JWVM7FR+X5", "compound_code": "M7FR+X5 New Delhi, Delhi, India"}, "vicinity": "Makki Sarai Railway Road, Shahdara, New Delhi", "photos": [{"photo_reference": "ATtYBwLB9yO_dPzUhAikMQWcO0twuL-IWRgAUXgw6hk7KgZSCYjOfgEz64YpXwC_-xWxGiyvPYcqbPE-5PiM35OzSCMoiAl266yAfJJJCh2aOvX1N12f_PZkXtcI76gH10U88cz8SooWzfSLqh19t4mchdr2MhglQ6_AJSYcXMjQ6V3MjGi-", "width": 4608, "html_attributions": ["<a href=\"https://maps.google.com/maps/contrib/105082916861727850444\">prashant</a>"], "height": 2592}], "scope": "GOOGLE", "business_status": "OPERATIONAL", "types": ["hospital", "health", "point_of_interest", "establishment"], "icon": "https://maps.gstatic.com/mapfiles/place_api/icons/v1/png_71/hospital-71.png"}, {"rating": 2.5, "user_ratings_total": 73, "name": "Khandelwal Hospital And Urology Center", "reference": "ChIJ____i2H7DDkR3e90MeFm1tg", "geometry": {"location": {"lat": 28.6604027, "lng": 77.2878045}, "viewport": {"northeast": {"lat": 28.6617652302915, "lng": 77.28917823029151}, "southwest": {"lat": 28.6590672697085, "lng": 77.28648026970849}}}, "opening_hours": {"open_now": true}, "place_id": "ChIJ____i2H7DDkR3e90MeFm1tg", "plus_code": {"global_code": "7JWVM76Q+54", "compound_code": "M76Q+54 New Delhi, Delhi, India"}, "vicinity": "B-16, Main Road, East Krishna Nagar, East Krishna Nagar, New Delhi", "photos": [{"photo_reference": "ATtYBwJfTHT7Pg6TPjmP1obf0by1jCw3JyP8HnIAz_JJQgAr1pR7ilP7l2C2uCeSfzrYwNHBEyXtSpUEYjjVQHO4ZFdVOdNzWjubLW0v7XiAK5YS8kb7ydedVFl4cdxMhi8wL9up1uZbTBdBlc9ZxmKJF58r1U-UhKqzjAybOewTrDab-fXk", "width": 2340, "html_attributions": ["<a href=\"https://maps.google.com/maps/contrib/112256434142673643629\">Ashutosh Mishra</a>"], "height": 4160}], "scope": "GOOGLE", "business_status": "OPERATIONAL", "types": ["hospital", "doctor", "health", "point_of_interest", "establishment"], "icon": "https://maps.gstatic.com/mapfiles/place_api/icons/v1/png_71/hospital-71.png"}, {"rating": 4.5, "user_ratings_total": 11, "name": "Dr Nagpal Dental Centre", "reference": "ChIJ79o5Y2L7DDkRdn-3YUHjzNE", "geometry": {"location": {"lat": 28.6613005, "lng": 77.28725330000002}, "viewport": {"northeast": {"lat": 28.6626414802915, "lng": 77.2885875802915}, "southwest": {"lat": 28.6599435197085, "lng": 77.28588961970848}}}, "opening_hours": {"open_now": true}, "place_id": "ChIJ79o5Y2L7DDkRdn-3YUHjzNE", "plus_code": {"global_code": "7JWVM76P+GW", "compound_code": "M76P+GW New Delhi, Delhi, India"}, "vicinity": "Block B, East Krishna Nagar, Krishna Nagar, New Delhi", "scope": "GOOGLE", "business_status": "OPERATIONAL", "types": ["hospital", "health", "point_of_interest", "establishment"], "icon": "https://maps.gstatic.com/mapfiles/place_api/icons/v1/png_71/hospital-71.png"}, {"rating": 5, "user_ratings_total": 1, "name": "Dental Clinic", "reference": "ChIJi___uGP8DDkRzk6Fq2JhHJQ", "geometry": {"location": {"lat": 28.6780951, "lng": 77.270866}, "viewport": {"northeast": {"lat": 28.67945148029149, "lng": 77.2722179802915}, "southwest": {"lat": 28.67675351970849, "lng": 77.26952001970848}}}, "place_id": "ChIJi___uGP8DDkRzk6Fq2JhHJQ", "plus_code": {"global_code": "7JWVM7HC+68", "compound_code": "M7HC+68 Delhi, India"}, "vicinity": "1040, Main Road, Chauhan Banger, Shahdara, Delhi", "scope": "GOOGLE", "business_status": "OPERATIONAL", "types": ["hospital", "health", "point_of_interest", "establishment"], "icon": "https://maps.gstatic.com/mapfiles/place_api/icons/v1/png_71/hospital-71.png"}, {"rating": 4.3, "user_ratings_total": 57, "name": "Shivam Nursing Home", "reference": "ChIJ-zt2gIr8DDkRyx4ziE2_rkE", "geometry": {"location": {"lat": 28.6734574, "lng": 77.2672467}, "viewport": {"northeast": {"lat": 28.67483448029149, "lng": 77.2686127802915}, "southwest": {"lat": 28.67213651970849, "lng": 77.2659148197085}}}, "place_id": "ChIJ-zt2gIr8DDkRyx4ziE2_rkE", "plus_code": {"global_code": "7JWVM7F8+9V", "compound_code": "M7F8+9V Delhi, India"}, "vicinity": "A-93, New Seelampur, Near Seelampur Gurudwara Delhi, 110053 Opposite Metro station, Seelampur, Shahdara, Delhi", "photos": [{"photo_reference": "ATtYBwLlc4p2cagUEPFreTiisivcCuZmMTSC1QQL59bquObsXGRWCSbVS0To1yHxFR9uFLWzjVBgOT35Ml6Ajzx3xjXA8_TaA2LMR2X2--g8cCrWVvD6psMCjXuDLC9JduXk2W9n-0UNb0_4ptql8oeGijODgvaP6D4vfahzQdrOJqiJooGZ", "width": 3456, "html_attributions": ["<a href=\"https://maps.google.com/maps/contrib/103033821841501059282\">Dr S K Gupta</a>"], "height": 4608}], "scope": "GOOGLE", "business_status": "OPERATIONAL", "types": ["hospital", "health", "point_of_interest", "establishment"], "icon": "https://maps.gstatic.com/mapfiles/place_api/icons/v1/png_71/hospital-71.png"}, {"rating": 4.8, "user_ratings_total": 4, "name": "Focus Health Clinic", "reference": "ChIJc8cnCJH8DDkR_Wt5dJTA1bk", "geometry": {"location": {"lat": 28.66014049999999, "lng": 77.27127399999999}, "viewport": {"northeast": {"lat": 28.6614867302915, "lng": 77.2726033302915}, "southwest": {"lat": 28.6587887697085, "lng": 77.26990536970848}}}, "opening_hours": {"open_now": true}, "place_id": "ChIJc8cnCJH8DDkR_Wt5dJTA1bk", "plus_code": {"global_code": "7JWVM76C+3G", "compound_code": "M76C+3G Delhi, India"}, "vicinity": "Street Number 1, Raghubarpura 1, Seelampur, Shahdara, Delhi", "photos": [{"photo_reference": "ATtYBwLuj1NFY0ZF0Q6TXoM9hMDca3k-E-_vKnGe1LaWKI5RKj7buPj0FXe5M_fulzdE4JqjsZsYIR2he2WOXLtpU3_mjztf4LmkXabwJldCWxM89dUGB2h1vR893HTEod3sw1Epejad5-iDs26pc_VMi6Yzl-w_kO2zdyOgseiQRsp-cec4", "width": 640, "html_attributions": ["<a href=\"https://maps.google.com/maps/contrib/114037875430999054643\">Sck Bhagat</a>"], "height": 640}], "scope": "GOOGLE", "business_status": "OPERATIONAL", "types": ["hospital", "health", "point_of_interest", "establishment"], "icon": "https://maps.gstatic.com/mapfiles/place_api/icons/v1/png_71/hospital-71.png"}, {"rating": 3, "user_ratings_total": 43, "name": "Employees State Insurance Dispensary", "reference": "ChIJHaOR4Yf8DDkRcgA5GQal2PI", "geometry": {"location": {"lat": 28.6736447, "lng": 77.2750567}, "viewport": {"northeast": {"lat": 28.6750045302915, "lng": 77.2764814302915}, "southwest": {"lat": 28.6723065697085, "lng": 77.27378346970849}}}, "opening_hours": {"open_now": true}, "place_id": "ChIJHaOR4Yf8DDkRcgA5GQal2PI", "plus_code": {"global_code": "7JWVM7FG+F2", "compound_code": "M7FG+F2 Delhi, India"}, "vicinity": "New Silampur Phase III, New Seelampur, Seelampur, Shahdara, Delhi", "photos": [{"photo_reference": "ATtYBwKTK-kAT0NJFZ4YRo7eYccmG4zZOmDocMMZuXWWDzuswvorNi05dGq88mrk8fB9nJ4zhl9zJNGCkWCfRn_AWpg6rzP2IaRivo9F2D5pjeW4TkDaKuYhxAq_7YVoQgU_abPBIUSPC4xhHBNYXaWiNbLdehzeSCDwqAoxdTO_POZs_It5", "width": 2048, "html_attributions": ["<a href=\"https://maps.google.com/maps/contrib/116958411161628042148\">NAND KISHOR</a>"], "height": 1152}], "scope": "GOOGLE", "business_status": "OPERATIONAL", "types": ["hospital", "health", "point_of_interest", "establishment"], "icon": "https://maps.gstatic.com/mapfiles/place_api/icons/v1/png_71/hospital-71.png"}, {"name": "Vashli Hospital", "reference": "ChIJodEsU7v9DDkRc7nAVcVKm7w", "geometry": {"location": {"lat": 28.670028, "lng": 77.27998079999999}, "viewport": {"northeast": {"lat": 28.6714214802915, "lng": 77.2813196802915}, "southwest": {"lat": 28.6687235197085, "lng": 77.2786217197085}}}, "place_id": "ChIJodEsU7v9DDkRc7nAVcVKm7w", "plus_code": {"global_code": "7JWVM7CH+2X", "compound_code": "M7CH+2X Delhi, India"}, "vicinity": "Pandit Prehlad Marg, North Kanti Nagar, Block B, Seelampur, Shahdara, Delhi", "scope": "GOOGLE", "business_status": "OPERATIONAL", "types": ["hospital", "health", "point_of_interest", "establishment"], "icon": "https://maps.gstatic.com/mapfiles/place_api/icons/v1/png_71/hospital-71.png"}, {"name": "Nature Healing Centre", "reference": "ChIJzZBHmob8DDkRtmTqOu8_Ef0", "geometry": {"location": {"lat": 28.66994829999999, "lng": 77.2788528}, "viewport": {"northeast": {"lat": 28.6713123302915, "lng": 77.28019863029151}, "southwest": {"lat": 28.6686143697085, "lng": 77.2775006697085}}}, "place_id": "ChIJzZBHmob8DDkRtmTqOu8_Ef0", "vicinity": "7/69, Main Road, Shahdara, Shahdara, Delhi", "scope": "GOOGLE", "business_status": "OPERATIONAL", "types": ["hospital", "health", "point_of_interest", "establishment"], "icon": "https://maps.gstatic.com/mapfiles/place_api/icons/v1/png_71/hospital-71.png"}, {"name": "Manohar Phelwan Mahaveer Gali", "reference": "ChIJF2myuBz9DDkRxgJva51yJ5c", "geometry": {"location": {"lat": 28.6689428, "lng": 77.27972059999999}, "viewport": {"northeast": {"lat": 28.6702917802915, "lng": 77.2810695802915}, "southwest": {"lat": 28.6675938197085, "lng": 77.27837161970848}}}, "place_id": "ChIJF2myuBz9DDkRxgJva51yJ5c", "plus_code": {"global_code": "7JWVM79H+HV", "compound_code": "M79H+HV Delhi, India"}, "vicinity": "Manohar Phelwan Mahaveer Gali Wale, Gali Number 1, Shankar Nagar West, Seelampur, Shahdara, Delhi", "photos": [{"photo_reference": "ATtYBwKXpnS94Gh4nDXq-JxH4XX0NvZPC8SBWyM_I3YLM_TEY8bB4btgMUQkebV9VB0fq6UBYGztFk7fS1OtICun6kiz2kqr7TLhmFj9o4CNzvRFoAbwapIGImZOqZCOQwZvmCSJWRZuFxLrHJQzepwyNyKwY7ICz2C5-dXo_vQPisi9IKfa", "width": 1080, "html_attributions": ["<a href=\"https://maps.google.com/maps/contrib/101472594896440958105\">Divyansh</a>"], "height": 2340}], "scope": "GOOGLE", "business_status": "OPERATIONAL", "types": ["hospital", "health", "point_of_interest", "establishment"], "icon": "https://maps.gstatic.com/mapfiles/place_api/icons/v1/png_71/hospital-71.png"}, {"rating": 5, "user_ratings_total": 1, "name": "Bio-medical path vision lab", "reference": "ChIJWVUMnWL8DDkRY24p4mHfEAc", "geometry": {"location": {"lat": 28.669413, "lng": 77.28157999999999}, "viewport": {"northeast": {"lat": 28.67074983029149, "lng": 77.2828740802915}, "southwest": {"lat": 28.66805186970849, "lng": 77.2801761197085}}}, "opening_hours": {"open_now": true}, "place_id": "ChIJWVUMnWL8DDkRY24p4mHfEAc", "plus_code": {"global_code": "7JWVM79J+QJ", "compound_code": "M79J+QJ Delhi, India"}, "vicinity": "P-174 G.No. 9 Bihari Colony Near Christian Cemetery Shahdara Shahdara", "photos": [{"photo_reference": "ATtYBwLrClmmLSueB6X8WM-tFWUu_e9Fo99uH3wHePZci4f0XAuU-HZVTmTK55l2ccUaJ2cn2_Q-LG-pkPI4taF1GVvJziymUcJIYG6t415KOISvqEmz-15VGI7i6vFDSTK9AoY3h47OKt9cVMAoCwsc-wsIM3v_eYqbLdcSjLwieAdk2YHi", "width": 2448, "html_attributions": ["<a href=\"https://maps.google.com/maps/contrib/109883594916610473862\">Bio-medical path vision lab</a>"], "height": 3264}], "scope": "GOOGLE", "business_status": "OPERATIONAL", "types": ["hospital", "health", "point_of_interest", "establishment"], "icon": "https://maps.gstatic.com/mapfiles/place_api/icons/v1/png_71/generic_business-71.png"}, {"rating": 4.3, "user_ratings_total": 3, "name": "Dr Parvez Mian Office AHKM Trust", "reference": "ChIJt3NjU_z9DDkRJ_pETdyBs3s", "geometry": {"location": {"lat": 28.6695854, "lng": 77.27799949999999}, "viewport": {"northeast": {"lat": 28.6709373302915, "lng": 77.2793627302915}, "southwest": {"lat": 28.6682393697085, "lng": 77.27666476970849}}}, "opening_hours": {"open_now": true}, "place_id": "ChIJt3NjU_z9DDkRJ_pETdyBs3s", "plus_code": {"global_code": "7JWVM79H+R5", "compound_code": "M79H+R5 Delhi, India"}, "vicinity": "C-142, Gali Number 11, Kanti Nagar Extention, Krishna Nagar, Delhi", "photos": [{"photo_reference": "ATtYBwJDYiCq-4NjCc6fKjInO1rDtYX5BsTQauOsSskLeP23BorrggjwwqQQrgFQbtwx8ZdA9xadk7gFf3Zu1xPjlEK7yfUOeIoBORecrgjEuB0fJ65Uc6DuS-6jFxHCYbTgYgYoAzw88YU4ZKQSs_h4Lnlg7Ce2WgTojGyBtX6408yUMMQC", "width": 1080, "html_attributions": ["<a href=\"https://maps.google.com/maps/contrib/111573937358023562268\">Divyansh</a>"], "height": 1920}], "scope": "GOOGLE", "business_status": "OPERATIONAL", "types": ["hospital", "health", "point_of_interest", "establishment"], "icon": "https://maps.gstatic.com/mapfiles/place_api/icons/v1/png_71/hospital-71.png"}, {"rating": 3, "user_ratings_total": 1, "name": "Govt Health Care Centre", "reference": "ChIJXWpnzoX8DDkROhd5_86s82U", "geometry": {"location": {"lat": 28.6683548, "lng": 77.27742529999999}, "viewport": {"northeast": {"lat": 28.6696409802915, "lng": 77.2787702802915}, "southwest": {"lat": 28.6669430197085, "lng": 77.27607231970849}}}, "place_id": "ChIJXWpnzoX8DDkROhd5_86s82U", "plus_code": {"global_code": "7JWVM79G+8X", "compound_code": "M79G+8X Delhi, India"}, "vicinity": "Kanti Nagar East, Seelampur, Shahdara, Delhi", "scope": "GOOGLE", "business_status": "OPERATIONAL", "types": ["hospital", "health", "point_of_interest", "establishment"], "icon": "https://maps.gstatic.com/mapfiles/place_api/icons/v1/png_71/hospital-71.png"}]}