{"status": "OK", "next_page_token": "ATtYBwJJMa1ovZwsNZijyw1WOO8He-OT_4pH9nLVY7LggSDBExofXh4YL5Lnp_l7lnIZXHqHVKcata3KHwCTYsfeSqyWTpWL-8qaPAUZgKKJSnDoIZXmWWRdnm1axG-eNFcJwCJOkM8Gd3Wgv_NuqFcjDPVJeu_d_NrTRY_kTnWjP2yJWUJzmpOC269fGdUJHDk-fFuNTIlIKbLv49vhciOaJGfeepFl2yZIrz1ISC6c8Ql4SJd1pzwCeSTWRRh8V0p-ivBCyty_61L4vzwo9Fei4fYjeh__M6Zyz9e58Hv70zzUSW3tIiicJDF4Fq8dx7z0AJeaeqlYNvJLVWqq2JjUPs96sPoet2Hxp9HRrQYAhJm07Y9OQq5cMbKqmwf63Ua3rv4SBCnBCWLp7zM5BCXkdyJQkts667zSKxfDXARRJq_t2yYV", "html_attributions": [], "results": [{"rating": 4.1, "user_ratings_total": 51, "name": "CM Patel Hospital - Best hospital in Shahdara", "reference": "ChIJbbD0bon7DDkRaFSGPGHdZkY", "geometry": {"location": {"lat": 28.689412, "lng": 77.28912}, "viewport": {"northeast": {"lat": 28.6907071802915, "lng": 77.2904697802915}, "southwest": {"lat": 28.6880092197085, "lng": 77.2877718197085}}}, "opening_hours": {"open_now": true}, "place_id": "ChIJbbD0bon7DDkRaFSGPGHdZkY", "plus_code": {"global_code": "7JWVM7QQ+QJ", "compound_code": "M7QQ+QJ West Jyoti Nagar, Delhi, India"}, "vicinity": "E-7, Main 100 Feet Road, West Jyoti Nagar, Extension", "photos": [{"photo_reference": "ATtYBwLL9zEHMVJlop-gOnOrot0COZVhfvDdSdeMZvBWRlNw4EyorHHFz2dN2DA8ncSjlW_e95GU7P2RGr8NZ3I9lWumfXjQYZhg9GbNwyWmMFaS3FiAi95jSvIgbTyY08O_viZMqbY3d6c9dE4fWLvpJlihCSggDig28vZX1DUWS64WCIdh", "width": 750, "html_attributions": ["<a href=\"https://maps.google.com/maps/contrib/105936982714495010306\">CM Patel Hospital - best hospital in Shahdara</a>"], "height": 525}], "scope": "GOOGLE", "business_status": "OPERATIONAL", "types": ["hospital", "health", "point_of_interest", "establishment"], "icon": "https://maps.gstatic.com/mapfiles/place_api/icons/v1/png_71/hospital-71.png"}, {"rating": 3.7, "user_ratings_total": 11, "name": "MEDICAID DIAGNOSTIC CENTRE", "reference": "ChIJh7EGzXb8DDkRAYafcHqTAhU", "geometry": {"location": {"lat": 28.6904921, "lng": 77.28090279999999}, "viewport": {"northeast": {"lat": 28.6917437802915, "lng": 77.2822130802915}, "southwest": {"lat": 28.6890458197085, "lng": 77.27951511970849}}}, "opening_hours": {"open_now": true}, "place_id": "ChIJh7EGzXb8DDkRAYafcHqTAhU", "plus_code": {"global_code": "7JWVM7RJ+59", "compound_code": "M7RJ+59 Delhi, India"}, "vicinity": "C-5/5E, Block C, Kabir Nagar, Shahdara, Delhi", "photos": [{"photo_reference": "ATtYBwKQFDgElAC119fgoUgA8HNgnInxSbi1TKXbUxG2j7IBHNOfUxmZc3_1PrsU6wJHBFGaamoZyjLKUlH432OeluIrUpSel51N95nNPSA23EGUW1I-wapMONvIl2JpZuZiBFNhXENU_APMmJz-2KiJkL5jpbIE3xWHgsjZvva5b5I8JVdx", "width": 3456, "html_attributions": ["<a href=\"https://maps.google.com/maps/contrib/116805370465442052516\">sagar jha</a>"], "height": 4608}], "scope": "GOOGLE", "business_status": "OPERATIONAL", "types": ["hospital", "health", "point_of_interest", "establishment"], "icon": "https://maps.gstatic.com/mapfiles/place_api/icons/v1/png_71/hospital-71.png"}, {"name": "THYROCARE", "reference": "ChIJW5_pnXb8DDkRlwJXoFcjx9E", "geometry": {"location": {"lat": 28.6925684, "lng": 77.28259969999999}, "viewport": {"northeast": {"lat": 28.6939347802915, "lng": 77.28397858029149}, "southwest": {"lat": 28.6912368197085, "lng": 77.28128061970848}}}, "place_id": "ChIJW5_pnXb8DDkRlwJXoFcjx9E", "plus_code": {"global_code": "7JWVM7VM+22", "compound_code": "M7VM+22 Delhi, India"}, "vicinity": "E-651, Street Number 1, Block C, Kabir Nagar, Babarpur, Delhi", "scope": "GOOGLE", "business_status": "OPERATIONAL", "types": ["hospital", "health", "point_of_interest", "establishment"], "icon": "https://maps.gstatic.com/mapfiles/place_api/icons/v1/png_71/hospital-71.png"}, {"rating": 3.4, "user_ratings_total": 5, "name": "Central Hospital", "reference": "ChIJ0fu_5Gz8DDkRpC-c6xVjgE8", "geometry": {"location": {"lat": 28.695507, "lng": 77.271746}, "viewport": {"northeast": {"lat": 28.6968532802915, "lng": 77.2730937302915}, "southwest": {"lat": 28.6941553197085, "lng": 77.2703957697085}}}, "opening_hours": {"open_now": true}, "place_id": "ChIJ0fu_5Gz8DDkRpC-c6xVjgE8", "plus_code": {"global_code": "7JWVM7WC+6M", "compound_code": "M7WC+6M Delhi, India"}, "vicinity": "C-105, Street No. 14, North Ghonda, Delhi", "photos": [{"photo_reference": "ATtYBwLrh91pG3JmnKcxvk2wL-fV_zdBY9Qa-57Nwkh0pTsOP32sVBVDeTcf7u5ZzPPOtF1vhtrEp5CieNpU6va-5S8uEh5MQKxfY2C9auhs93gXuI2Gas_Jb8GyFQzteUuNZLeiNagAPDimKRGEQyC3YlQOnAHQWgXbc8AVimRmLFoEVhAT", "width": 2048, "html_attributions": ["<a href=\"https://maps.google.com/maps/contrib/114518938080778487837\">Central Hospital</a>"], "height": 1152}], "scope": "GOOGLE", "business_status": "OPERATIONAL", "types": ["hospital", "health", "point_of_interest", "establishment"], "icon": "https://maps.gstatic.com/mapfiles/place_api/icons/v1/png_71/hospital-71.png"}, {"rating": 4.5, "user_ratings_total": 2, "name": "Nida Care Clinic", "reference": "ChIJZckiVm_8DDkR9maevoDUVPg", "geometry": {"location": {"lat": 28.6857747, "lng": 77.2698152}, "viewport": {"northeast": {"lat": 28.68710783029151, "lng": 77.2711573302915}, "southwest": {"lat": 28.68440986970851, "lng": 77.2684593697085}}}, "opening_hours": {"open_now": true}, "place_id": "ChIJZckiVm_8DDkR9maevoDUVPg", "plus_code": {"global_code": "7JWVM7P9+8W", "compound_code": "M7P9+8W Delhi, India"}, "vicinity": "C182, 1F, Chauhan Banger, Shahdara, Delhi", "photos": [{"photo_reference": "ATtYBwIhKIHYkX7K38pI2dRGZ1wt5ya7-lZTieq92qvmsPOMAyLD4jJfqyOGim0UViKySzpfuLkeuZpDXKTVyw42yifciv_hkHS5pn7WZUQ_QsFMwI2zex9jHCm9La5NBWDnKo3VO9bp5xxjAyPNn6YeHJi0Og16s_ugZfv1isOLUD9OtZPN", "width": 2304, "html_attributions": ["<a href=\"https://maps.google.com/maps/contrib/110927338000859012293\">dr.jamaal ahmed</a>"], "height": 4096}], "scope": "GOOGLE", "business_status": "OPERATIONAL", "types": ["hospital", "health", "point_of_interest", "establishment"], "icon": "https://maps.gstatic.com/mapfiles/place_api/icons/v1/png_71/hospital-71.png"}, {"rating": 3.3, "user_ratings_total": 55, "name": "Jyoti Nursing Home", "reference": "ChIJFdhvKYn7DDkRaye4PDvkn4Q", "geometry": {"location": {"lat": 28.6915741, "lng": 77.2922516}, "viewport": {"northeast": {"lat": 28.69300623029149, "lng": 77.2935947302915}, "southwest": {"lat": 28.6903082697085, "lng": 77.2908967697085}}}, "opening_hours": {"open_now": true}, "place_id": "ChIJFdhvKYn7DDkRaye4PDvkn4Q", "plus_code": {"global_code": "7JWVM7RR+JW", "compound_code": "M7RR+JW New Delhi, Delhi, India"}, "vicinity": "B-32, Shahdara Road, West Jyoti Nagar, Durgapuri Extension, Durga Puri, Shahdara, New Delhi", "photos": [{"photo_reference": "ATtYBwKf0fPO6Hu5DL8atwK03aKcw_kLovXDEIfuZOQEwgrkaHrm6bVmMwMCKVJre14eg-HrNEBph3C-dV8naBv13mZbqUtLCbwQTlu9xy6erHDkKN85gL1kzDvsUgGzvJgh5G_vuYQB8aO02sMLrl5PgLO2XgzuwwHVkIghf4cUuFpDi9Vd", "width": 1125, "html_attributions": ["<a href=\"https://maps.google.com/maps/contrib/108259122743472020822\">Amit chaudhary</a>"], "height": 1125}], "scope": "GOOGLE", "business_status": "OPERATIONAL", "types": ["hospital", "health", "point_of_interest", "establishment"], "icon": "https://maps.gstatic.com/mapfiles/place_api/icons/v1/png_71/hospital-71.png"}, {"rating": 4.4, "user_ratings_total": 10, "name": "Raj Medical Center Yamuna Vihar", "reference": "ChIJzfVtvw38DDkRnk6e1A0lebo", "geometry": {"location": {"lat": 28.70181509999999, "lng": 77.2785988}, "viewport": {"northeast": {"lat": 28.70324193029149, "lng": 77.2799567802915}, "southwest": {"lat": 28.70054396970849, "lng": 77.27725881970849}}}, "place_id": "ChIJzfVtvw38DDkRnk6e1A0lebo", "plus_code": {"global_code": "7JWVP72H+PC", "compound_code": "P72H+PC Shahdara, Delhi, India"}, "vicinity": "C3, 51A, Service Lane, Yamuna Vihar, Shahdara, New Delhi", "photos": [{"photo_reference": "ATtYBwIYxc4XmMdCO4fxTl-XILdZHSvwyzr5j_m9etz78V-6fxqo8wG1Hjw6glxHr7wvkK79Uw-YVezp6qy9BCm1bJIaB6-Jjcr-QQKBPocY5QyORd6AiW93AbcczTK2zPvkvG7UuDP6KRSO1B8Y_M-I6YT82KuHadkRllCxrkrvtFD2QVU-", "width": 3456, "html_attributions": ["<a href=\"https://maps.google.com/maps/contrib/104536018825361082809\">Jitender Kumar</a>"], "height": 4608}], "scope": "GOOGLE", "business_status": "OPERATIONAL", "types": ["hospital", "health", "point_of_interest", "establishment"], "icon": "https://maps.gstatic.com/mapfiles/place_api/icons/v1/png_71/hospital-71.png"}, {"name": "ASIAN EYE CLINIC AND HOSPITAL", "reference": "ChIJbQh8ABP8DDkRFkciSCI3pnQ", "geometry": {"location": {"lat": 28.7002107, "lng": 77.27196590000001}, "viewport": {"northeast": {"lat": 28.7015577302915, "lng": 77.2733406302915}, "southwest": {"lat": 28.6988597697085, "lng": 77.2706426697085}}}, "opening_hours": {"open_now": true}, "place_id": "ChIJbQh8ABP8DDkRFkciSCI3pnQ", "plus_code": {"global_code": "7JWVP72C+3Q", "compound_code": "P72C+3Q Delhi, India"}, "vicinity": "CH Mahander Singh Marg, Block B, Yamuna Vihar, Shahdara, Delhi", "scope": "GOOGLE", "business_status": "OPERATIONAL", "types": ["hospital", "health", "point_of_interest", "establishment"], "icon": "https://maps.gstatic.com/mapfiles/place_api/icons/v1/png_71/hospital-71.png"}, {"name": "Delhi Jal Board Dispensary,Gokalpuri", "reference": "ChIJUyJrDQz8DDkRvoYOzh5SwwI", "geometry": {"location": {"lat": 28.7025465, "lng": 77.2801089}, "viewport": {"northeast": {"lat": 28.7038879802915, "lng": 77.2815980302915}, "southwest": {"lat": 28.70119001970851, "lng": 77.2789000697085}}}, "place_id": "ChIJUyJrDQz8DDkRvoYOzh5SwwI", "plus_code": {"global_code": "7JWVP73J+22", "compound_code": "P73J+22 Delhi, India"}, "vicinity": "Gokalpuri Extension, Gokalpuri, Delhi", "scope": "GOOGLE", "business_status": "OPERATIONAL", "types": ["hospital", "health", "point_of_interest", "establishment"], "icon": "https://maps.gstatic.com/mapfiles/place_api/icons/v1/png_71/hospital-71.png"}, {"rating": 5, "user_ratings_total": 1, "name": "Mojpur", "reference": "ChIJtW8VDS39DDkRHnluLw28aEI", "geometry": {"location": {"lat": 28.6909982, "lng": 77.27891129999999}, "viewport": {"northeast": {"lat": 28.6923644302915, "lng": 77.28026813029149}, "southwest": {"lat": 28.6896664697085, "lng": 77.27757016970848}}}, "place_id": "ChIJtW8VDS39DDkRHnluLw28aEI", "plus_code": {"global_code": "7JWVM7RH+9H", "compound_code": "M7RH+9H Delhi, India"}, "vicinity": "Main 100 Feet Road, Block C, Babarpur Village, Shahdara, Delhi", "scope": "GOOGLE", "business_status": "OPERATIONAL", "types": ["hospital", "health", "point_of_interest", "establishment"], "icon": "https://maps.gstatic.com/mapfiles/place_api/icons/v1/png_71/hospital-71.png"}, {"rating": 4.1, "user_ratings_total": 30, "name": "Mamta Nursing Home", "reference": "ChIJD9w9AHH8DDkRan0kmgaG6Uo", "geometry": {"location": {"lat": 28.6894262, "lng": 77.2779145}, "viewport": {"northeast": {"lat": 28.6907653302915, "lng": 77.2792848802915}, "southwest": {"lat": 28.6880673697085, "lng": 77.27658691970849}}}, "opening_hours": {"open_now": true}, "place_id": "ChIJD9w9AHH8DDkRan0kmgaG6Uo", "plus_code": {"global_code": "7JWVM7QH+Q5", "compound_code": "M7QH+Q5 New Delhi, Delhi, India"}, "vicinity": "Jafrabad Main Road, Maujpur, Shahdara, New Delhi", "scope": "GOOGLE", "business_status": "OPERATIONAL", "types": ["hospital", "health", "point_of_interest", "establishment"], "icon": "https://maps.gstatic.com/mapfiles/place_api/icons/v1/png_71/hospital-71.png"}, {"name": "Sharok Heyar Setay", "reference": "ChIJz-UZt3D8DDkR-XT7nHDVeQQ", "geometry": {"location": {"lat": 28.687866, "lng": 77.28016099999999}, "viewport": {"northeast": {"lat": 28.68912048029149, "lng": 77.2814401802915}, "southwest": {"lat": 28.6864225197085, "lng": 77.27874221970848}}}, "opening_hours": {"open_now": false}, "place_id": "ChIJz-UZt3D8DDkR-XT7nHDVeQQ", "plus_code": {"global_code": "7JWVM7QJ+43", "compound_code": "M7QJ+43 New Delhi, Delhi, India"}, "vicinity": "20A, 16, Babarpur Main Road, Babarpur, New Delhi", "scope": "GOOGLE", "business_status": "OPERATIONAL", "types": ["hospital", "health", "point_of_interest", "establishment"], "icon": "https://maps.gstatic.com/mapfiles/place_api/icons/v1/png_71/hospital-71.png"}, {"name": "Verma Care Clinic", "reference": "ChIJO-yMUHD8DDkR7kIyytbPz3g", "geometry": {"location": {"lat": 28.6886488, "lng": 77.27736}, "viewport": {"northeast": {"lat": 28.6899599802915, "lng": 77.27879513029151}, "southwest": {"lat": 28.6872620197085, "lng": 77.27609716970849}}}, "opening_hours": {"open_now": true}, "place_id": "ChIJO-yMUHD8DDkR7kIyytbPz3g", "plus_code": {"global_code": "7JWVM7QG+FW", "compound_code": "M7QG+FW Delhi, India"}, "vicinity": "Asha Ram Tyagi Marg, Maujpur, Shahdara, Delhi", "scope": "GOOGLE", "business_status": "OPERATIONAL", "types": ["hospital", "health", "point_of_interest", "establishment"], "icon": "https://maps.gstatic.com/mapfiles/place_api/icons/v1/png_71/hospital-71.png"}, {"name": "Usskesaath", "reference": "ChIJq6qq6nH8DDkRgIFQQumRwps", "geometry": {"location": {"lat": 28.6906372, "lng": 77.2764369}, "viewport": {"northeast": {"lat": 28.69203663029149, "lng": 77.2778107802915}, "southwest": {"lat": 28.6893386697085, "lng": 77.2751128197085}}}, "place_id": "ChIJq6qq6nH8DDkRgIFQQumRwps", "plus_code": {"global_code": "7JWVM7RG+7H", "compound_code": "M7RG+7H Delhi, India"}, "vicinity": "A-30 / 14A / 3B (Near Seth Bhagwan Das School, Maujpur, Delhi", "scope": "GOOGLE", "business_status": "OPERATIONAL", "types": ["hospital", "health", "point_of_interest", "establishment"], "icon": "https://maps.gstatic.com/mapfiles/place_api/icons/v1/png_71/hospital-71.png"}, {"name": "Mittal gramin swashthay Kendra", "reference": "ChIJq6qq6nH8DDkRFkD-AbVjI8A", "geometry": {"location": {"lat": 28.69063709999999, "lng": 77.2764368}, "viewport": {"northeast": {"lat": 28.6920365802915, "lng": 77.2778107302915}, "southwest": {"lat": 28.6893386197085, "lng": 77.2751127697085}}}, "opening_hours": {"open_now": true}, "place_id": "ChIJq6qq6nH8DDkRFkD-AbVjI8A", "plus_code": {"global_code": "7JWVM7RG+7H", "compound_code": "M7RG+7H Delhi, India"}, "vicinity": "Maujpur, Shahdara, Delhi", "photos": [{"photo_reference": "ATtYBwJOZh3LwzSRnyD78amRRlWsovYBfyTdf7-ddhhO_YgAx1fq6UDNcQ8M09-9FK-P0yq25rIcEk4kdgSYwwSZQWIavUCEqPsQ-2y8jL0Czuo-D5A8kowDwJEYSa-MQsYy92Hss8wmHDxTCsVRjrzSgWP8AV5iqA8rpC3DR-8_UiDjHNlY", "width": 3096, "html_attributions": ["<a href=\"https://maps.google.com/maps/contrib/110450862366505712985\">Rahul Khan Mittal Hospital</a>"], "height": 4128}], "scope": "GOOGLE", "business_status": "OPERATIONAL", "types": ["hospital", "health", "point_of_interest", "establishment"], "icon": "https://maps.gstatic.com/mapfiles/place_api/icons/v1/png_71/hospital-71.png"}, {"rating": 4, "user_ratings_total": 2, "name": "Sarvodya Medicare Centre", "reference": "ChIJpWxIDOX9DDkRs8ZzqSw1CWI", "geometry": {"location": {"lat": 28.6867618, "lng": 77.280033}, "viewport": {"northeast": {"lat": 28.6880988802915, "lng": 77.2814152302915}, "southwest": {"lat": 28.68540091970851, "lng": 77.27871726970848}}}, "opening_hours": {"open_now": true}, "place_id": "ChIJpWxIDOX9DDkRs8ZzqSw1CWI", "plus_code": {"global_code": "7JWVM7PJ+P2", "compound_code": "M7PJ+P2 Delhi, India"}, "vicinity": "H No, 4, Tagore Gali, West Babarpur, Babarpur, Delhi", "scope": "GOOGLE", "business_status": "OPERATIONAL", "types": ["hospital", "health", "point_of_interest", "establishment"], "icon": "https://maps.gstatic.com/mapfiles/place_api/icons/v1/png_71/hospital-71.png"}, {"rating": 5, "user_ratings_total": 3, "name": "Dr.Arya Optical House", "reference": "ChIJcecCx3H8DDkRiWBlFuEStYI", "geometry": {"location": {"lat": 28.6901138, "lng": 77.2762626}, "viewport": {"northeast": {"lat": 28.6915697802915, "lng": 77.2776612802915}, "southwest": {"lat": 28.6888718197085, "lng": 77.27496331970849}}}, "place_id": "ChIJcecCx3H8DDkRiWBlFuEStYI", "plus_code": {"global_code": "7JWVM7RG+2G", "compound_code": "M7RG+2G Delhi, India"}, "vicinity": "193, Maujpur Main Road, Maujpur, Shahdara, Delhi", "scope": "GOOGLE", "business_status": "OPERATIONAL", "types": ["hospital", "health", "point_of_interest", "establishment"], "icon": "https://maps.gstatic.com/mapfiles/place_api/icons/v1/png_71/hospital-71.png"}, {"name": "Dr. Lal Path labs Near bajaj showroom Delhi", "reference": "ChIJrfzCQjT9DDkRBr34RBmCZEg", "geometry": {"location": {"lat": 28.69070259999999, "lng": 77.2838302}, "viewport": {"northeast": {"lat": 28.6920321802915, "lng": 77.28518348029151}, "southwest": {"lat": 28.6893342197085, "lng": 77.28248551970849}}}, "place_id": "ChIJrfzCQjT9DDkRBr34RBmCZEg", "plus_code": {"global_code": "7JWVM7RM+7G", "compound_code": "M7RM+7G Delhi, India"}, "vicinity": "Block A, Kabir Nagar, Shahdara, Delhi", "scope": "GOOGLE", "business_status": "OPERATIONAL", "types": ["hospital", "health", "point_of_interest", "establishment"], "icon": "https://maps.gstatic.com/mapfiles/place_api/icons/v1/png_71/hospital-71.png"}, {"rating": 4, "user_ratings_total": 1, "name": "Griss Medical", "reference": "ChIJN8CGpnf8DDkRlB55rTxZ8jc", "geometry": {"location": {"lat": 28.6889974, "lng": 77.2839465}, "viewport": {"northeast": {"lat": 28.69034643029149, "lng": 77.2852972302915}, "southwest": {"lat": 28.6876484697085, "lng": 77.2825992697085}}}, "opening_hours": {"open_now": true}, "place_id": "ChIJN8CGpnf8DDkRlB55rTxZ8jc", "plus_code": {"global_code": "7JWVM7QM+HH", "compound_code": "M7QM+HH Delhi, India"}, "vicinity": "Chhajjupur Road, Babarpur Village, Babarpur, Delhi", "scope": "GOOGLE", "business_status": "OPERATIONAL", "types": ["hospital", "health", "point_of_interest", "establishment"], "icon": "https://maps.gstatic.com/mapfiles/place_api/icons/v1/png_71/hospital-71.png"}, {"rating": 4, "user_ratings_total": 4, "name": "SANJEEVANI CHEST & MEDICAL CENTRE", "reference": "ChIJHT7_l3L9DDkRHXpkU5rLQXg", "geometry": {"location": {"lat": 28.69367029999999, "lng": 77.280075}, "viewport": {"northeast": {"lat": 28.6949538802915, "lng": 77.2813891302915}, "southwest": {"lat": 28.6922559197085, "lng": 77.27869116970848}}}, "place_id": "ChIJHT7_l3L9DDkRHXpkU5rLQXg", "plus_code": {"global_code": "7JWVM7VJ+F2", "compound_code": "M7VJ+F2 Delhi, India"}, "vicinity": "near METRO STATION, V-447 MAIN YAMUNA VIHAR ROAD ,VIJAY PARK, near METRO STATION, Maujpur, Delhi", "photos": [{"photo_reference": "ATtYBwJh0feNUXr8bkX2Y6lpz76_fazubCeZ7fGZp04pmXjQKoWZvPWC86KO4Y2c-5QkiXbod_mzcWQLJ1_PVWNq_TLjezKV7VERyTLKlXhSyFozieDAhmrvT3eGsLgmS83st6cV5xlyWeFcrkxLnJbwPS9XBJmj2yAZineNb7Dggi5mYJgc", "width": 720, "html_attributions": ["<a href=\"https://maps.google.com/maps/contrib/104075330093377674790\">Medizone Healthcare</a>"], "height": 1560}], "scope": "GOOGLE", "business_status": "OPERATIONAL", "types": ["hospital", "health", "point_of_interest", "establishment"], "icon": "https://maps.gstatic.com/mapfiles/place_api/icons/v1/png_71/hospital-71.png"}]}