{"status": "OK", "html_attributions": [], "results": [{"rating": 5, "user_ratings_total": 23, "name": "Dr.Vikas Mental Health Care", "reference": "ChIJB1E5B5QJDTkR7CWbtzQgwLo", "geometry": {"location": {"lat": 28.6928093, "lng": 76.9285111}, "viewport": {"northeast": {"lat": 28.6940374802915, "lng": 76.92977353029151}, "southwest": {"lat": 28.6913395197085, "lng": 76.92707556970849}}}, "opening_hours": {"open_now": true}, "place_id": "ChIJB1E5B5QJDTkR7CWbtzQgwLo", "plus_code": {"global_code": "7JWRMWVH+4C", "compound_code": "MWVH+4C Bahadurgarh, India"}, "vicinity": "Metro Pillar Number 461, No 855, Delhi - Rohtak Road, MIE Part-A, Bahadurgarh", "scope": "GOOGLE", "business_status": "OPERATIONAL", "types": ["hospital", "health", "point_of_interest", "establishment"], "icon": "https://maps.gstatic.com/mapfiles/place_api/icons/v1/png_71/hospital-71.png"}, {"name": "Dr LALPATH LABS", "reference": "ChIJSdkR9VAPDTkR86c67rlnV10", "geometry": {"location": {"lat": 28.6807974, "lng": 76.93301009999999}, "viewport": {"northeast": {"lat": 28.6821306302915, "lng": 76.9343279802915}, "southwest": {"lat": 28.6794326697085, "lng": 76.93163001970849}}}, "opening_hours": {"open_now": true}, "place_id": "ChIJSdkR9VAPDTkR86c67rlnV10", "plus_code": {"global_code": "7JWRMWJM+86", "compound_code": "MWJM+86 Bahadurgarh, India"}, "vicinity": "Najafgarh Bahadurgarh Road, Friends Colony, Arya Nagar, Bahadurgarh", "scope": "GOOGLE", "business_status": "OPERATIONAL", "types": ["hospital", "health", "point_of_interest", "establishment"], "icon": "https://maps.gstatic.com/mapfiles/place_api/icons/v1/png_71/hospital-71.png"}, {"rating": 5, "user_ratings_total": 5, "name": "Narain Hospital", "reference": "ChIJzTFC3U8JDTkRSUiVfgoQIK4", "geometry": {"location": {"lat": 28.697304, "lng": 76.93037489999999}, "viewport": {"northeast": {"lat": 28.69865898029149, "lng": 76.9317787302915}, "southwest": {"lat": 28.69596101970849, "lng": 76.92908076970849}}}, "opening_hours": {"open_now": true}, "place_id": "ChIJzTFC3U8JDTkRSUiVfgoQIK4", "plus_code": {"global_code": "7JWRMWWJ+W4", "compound_code": "MWWJ+W4 Bahadurgarh, India"}, "vicinity": "Railway Station Road, Bahadurgarh", "scope": "GOOGLE", "business_status": "OPERATIONAL", "types": ["hospital", "health", "point_of_interest", "establishment"], "icon": "https://maps.gstatic.com/mapfiles/place_api/icons/v1/png_71/hospital-71.png"}, {"name": "Dr. Heeranand Clinic", "reference": "ChIJzRZk8U8JDTkRiSaamakvNXU", "geometry": {"location": {"lat": 28.6983678, "lng": 76.9309141}, "viewport": {"northeast": {"lat": 28.6997557802915, "lng": 76.9320948802915}, "southwest": {"lat": 28.6970578197085, "lng": 76.9293969197085}}}, "place_id": "ChIJzRZk8U8JDTkRiSaamakvNXU", "plus_code": {"global_code": "7JWRMWXJ+89", "compound_code": "MWXJ+89 Bahadurgarh, India"}, "vicinity": "Railway Station Road, Purani Mandi, Bahadurgarh", "scope": "GOOGLE", "business_status": "OPERATIONAL", "types": ["hospital", "health", "point_of_interest", "establishment"], "icon": "https://maps.gstatic.com/mapfiles/place_api/icons/v1/png_71/hospital-71.png"}, {"rating": 5, "user_ratings_total": 2, "name": "Eyemax Eye And Dental Care", "reference": "ChIJnUFyVCgJDTkR6O-r0BPjk8w", "geometry": {"location": {"lat": 28.69349699999999, "lng": 76.92685689999999}, "viewport": {"northeast": {"lat": 28.6948026802915, "lng": 76.9281759802915}, "southwest": {"lat": 28.6921047197085, "lng": 76.92547801970849}}}, "opening_hours": {"open_now": true}, "place_id": "ChIJnUFyVCgJDTkR6O-r0BPjk8w", "plus_code": {"global_code": "7JWRMWVG+9P", "compound_code": "MWVG+9P Bahadurgarh, India"}, "vicinity": "Main, Delhi - Rohtak Road, Nehru Park, Bahadurgarh", "photos": [{"photo_reference": "ATtYBwJrXjlKSkgeJV0s5auPSP7diQs_s9pJgsieyMrL4-1zxpSOkRdGbqO2ruz67qYYNu7VG-v4TZtr_lDaXKApWyIDOjhHezWkKZKWok2ORAXtwQ4q7iubq2y5aJy1CZMRdDGaQjgJG_-vYIqfO49Jztg82XNXHSjYmuQv7loJDqyep5Jw", "width": 1080, "html_attributions": ["<a href=\"https://maps.google.com/maps/contrib/116660991053122740929\">Deepak Sindhu</a>"], "height": 1920}], "scope": "GOOGLE", "business_status": "OPERATIONAL", "types": ["hospital", "health", "point_of_interest", "establishment"], "icon": "https://maps.gstatic.com/mapfiles/place_api/icons/v1/png_71/hospital-71.png"}, {"rating": 4.3, "user_ratings_total": 24, "name": "Shivam RR Hospitals | Best & Top Hospital in Bahadurgarh", "reference": "ChIJXx67jmEJDTkRKdIu8kfRgNE", "geometry": {"location": {"lat": 28.7023917, "lng": 76.9368641}, "viewport": {"northeast": {"lat": 28.7037585802915, "lng": 76.9381548802915}, "southwest": {"lat": 28.7010606197085, "lng": 76.9354569197085}}}, "opening_hours": {"open_now": true}, "place_id": "ChIJXx67jmEJDTkRKdIu8kfRgNE", "plus_code": {"global_code": "7JWRPW2P+XP", "compound_code": "PW2P+XP Bahadurgarh, India"}, "vicinity": "Nahra Nahri Road, Line Par, Netaji Nagar, Bahadurgarh", "photos": [{"photo_reference": "ATtYBwJDedRrVVasTXin9EkIymFqPbMmV-H8DfChn45bxDer94yxR0jvhTqBJsIBBDAoekSJCqBDDZXEXUTbGUtzHTQhSXxjToZOCQUjz-_dH_4hQSuMBReRGX0oBO_5cGvOoU-Z_-x4ARWVw9NVKzz5hUMdnuq-64NVVJ7vs-LjvKnL5UTL", "width": 1238, "html_attributions": ["<a href=\"https://maps.google.com/maps/contrib/100120020422020114364\">Shivam RR Hospitals in Bahadurgarh</a>"], "height": 776}], "scope": "GOOGLE", "business_status": "OPERATIONAL", "types": ["hospital", "health", "point_of_interest", "establishment"], "icon": "https://maps.gstatic.com/mapfiles/place_api/icons/v1/png_71/hospital-71.png"}, {"name": "Pet clinic", "reference": "ChIJa0X2TxIJDTkRYX8dEA2se2k", "geometry": {"location": {"lat": 28.689272, "lng": 76.9467305}, "viewport": {"northeast": {"lat": 28.6906209802915, "lng": 76.94807948029151}, "southwest": {"lat": 28.6879230197085, "lng": 76.9453815197085}}}, "place_id": "ChIJa0X2TxIJDTkRYX8dEA2se2k", "plus_code": {"global_code": "7JWRMWQW+PM", "compound_code": "MWQW+PM Bahadurgarh, India"}, "vicinity": "Rohtak Bypass, MIE Part-A, Bahadurgarh", "scope": "GOOGLE", "business_status": "OPERATIONAL", "types": ["hospital", "health", "point_of_interest", "establishment"], "icon": "https://maps.gstatic.com/mapfiles/place_api/icons/v1/png_71/hospital-71.png"}]}