{"status": "OK", "html_attributions": [], "results": [{"name": "Medinice Centre", "reference": "ChIJBzNgaP51AjoRu0rBCj_1Dd0", "geometry": {"location": {"lat": 22.6073352, "lng": 88.4033282}, "viewport": {"northeast": {"lat": 22.6087333302915, "lng": 88.4047352802915}, "southwest": {"lat": 22.6060353697085, "lng": 88.40203731970848}}}, "place_id": "ChIJBzNgaP51AjoRu0rBCj_1Dd0", "plus_code": {"global_code": "7MJCJC43+W8", "compound_code": "JC43+W8 Kolkata, West Bengal, India"}, "vicinity": "160, Lake Town, Block A, Lake Town, Kolkata", "scope": "GOOGLE", "business_status": "OPERATIONAL", "types": ["hospital", "health", "point_of_interest", "establishment"], "icon": "https://maps.gstatic.com/mapfiles/place_api/icons/v1/png_71/hospital-71.png"}, {"rating": 5, "user_ratings_total": 2, "name": "Dr chandan ray clinic", "reference": "ChIJUyzhqgl1AjoRZtm3KVgOrow", "geometry": {"location": {"lat": 22.5980754, "lng": 88.4089351}, "viewport": {"northeast": {"lat": 22.5994264302915, "lng": 88.4102875802915}, "southwest": {"lat": 22.59672846970849, "lng": 88.40758961970849}}}, "place_id": "ChIJUyzhqgl1AjoRZtm3KVgOrow", "plus_code": {"global_code": "7MJCHCX5+6H", "compound_code": "HCX5+6H Kolkata, West Bengal, India"}, "vicinity": "AE 42, Bidhannagar, Kolkata", "scope": "GOOGLE", "business_status": "OPERATIONAL", "types": ["hospital", "health", "point_of_interest", "establishment"], "icon": "https://maps.gstatic.com/mapfiles/place_api/icons/v1/png_71/hospital-71.png"}, {"name": "Ninaroy", "reference": "ChIJZVtr3hF2AjoReurLRgATe2s", "geometry": {"location": {"lat": 22.5955638, "lng": 88.3916582}, "viewport": {"northeast": {"lat": 22.5969325802915, "lng": 88.3930249802915}, "southwest": {"lat": 22.5942346197085, "lng": 88.3903270197085}}}, "opening_hours": {"open_now": false}, "place_id": "ChIJZVtr3hF2AjoReurLRgATe2s", "plus_code": {"global_code": "7MJCH9WR+6M", "compound_code": "H9WR+6M Kolkata, West Bengal, India"}, "vicinity": "55/1, Bidhannagar Road, Ultadanga, Kolkata", "scope": "GOOGLE", "business_status": "OPERATIONAL", "types": ["hospital", "health", "point_of_interest", "establishment"], "icon": "https://maps.gstatic.com/mapfiles/place_api/icons/v1/png_71/hospital-71.png"}, {"rating": 5, "user_ratings_total": 1, "name": "Speed Age Hospital", "reference": "ChIJ54E9gAB2AjoRtuWIGeEUZI0", "geometry": {"location": {"lat": 22.6088758, "lng": 88.40155659999999}, "viewport": {"northeast": {"lat": 22.6102603802915, "lng": 88.40288508029151}, "southwest": {"lat": 22.6075624197085, "lng": 88.40018711970849}}}, "opening_hours": {"open_now": true}, "place_id": "ChIJ54E9gAB2AjoRtuWIGeEUZI0", "plus_code": {"global_code": "7MJCJC52+HJ", "compound_code": "JC52+HJ Kolkata, West Bengal, India"}, "vicinity": "Lake Town JS Road, Block A, Lake Town, Kolkata", "photos": [{"photo_reference": "ATtYBwK_EKuZVgVptay8ZR-inNv5JeYxoiGCZmSQAb_tOddUhc2gyzuredcaTNprpvlywxKNp6_07nAV33oZknWPzv4WnlSWnFBz5k4j13xeT37x_Bw52N_hBhydWmkgPf_4fuAq4yOnmYSYi0QWbZ48lsnU6P9xGOIdLPrB7-KyI7RupNA", "width": 1440, "html_attributions": ["<a href=\"https://maps.google.com/maps/contrib/107697401103670413973\">D C Das</a>"], "height": 2560}], "scope": "GOOGLE", "business_status": "OPERATIONAL", "types": ["hospital", "health", "point_of_interest", "establishment"], "icon": "https://maps.gstatic.com/mapfiles/place_api/icons/v1/png_71/hospital-71.png"}, {"rating": 5, "user_ratings_total": 3, "name": "Speed Age Hospital", "reference": "ChIJAQAAAP11AjoRDpgtGTVEDr4", "geometry": {"location": {"lat": 22.609151, "lng": 88.4017166}, "viewport": {"northeast": {"lat": 22.61069498029151, "lng": 88.40301773029151}, "southwest": {"lat": 22.6079970197085, "lng": 88.40031976970849}}}, "opening_hours": {"open_now": true}, "place_id": "ChIJAQAAAP11AjoRDpgtGTVEDr4", "vicinity": "43, Khudiram Bose Road, Block E, Lake Town, Kolkata", "scope": "GOOGLE", "business_status": "OPERATIONAL", "types": ["hospital", "health", "point_of_interest", "establishment"], "icon": "https://maps.gstatic.com/mapfiles/place_api/icons/v1/png_71/hospital-71.png"}, {"name": "Sandor", "reference": "ChIJC6DiRA93AjoRnMKerNBjfNA", "geometry": {"location": {"lat": 22.6093989, "lng": 88.40060729999999}, "viewport": {"northeast": {"lat": 22.6107233802915, "lng": 88.4019631802915}, "southwest": {"lat": 22.6080254197085, "lng": 88.39926521970848}}}, "place_id": "ChIJC6DiRA93AjoRnMKerNBjfNA", "plus_code": {"global_code": "7MJCJC52+Q6", "compound_code": "JC52+Q6 Kolkata, West Bengal, India"}, "vicinity": "P-126, Jessore Road, Kalindi Housing Estate, Kolkata", "photos": [{"photo_reference": "ATtYBwI3tBbPpiMzCNklK13WXKS8vHF39o1m64_X1254mfrrwmbOrtUdboI_FoK1duDW8w6HS35W5vuzxgXPOZ6W0Jnq_VJQh5dsBI5Tl24wpGCR-X1EMYF5uastjxG2UQzRAZaKcZRTsAlkqNkdfpUD7ftQ5z9evmKadMyiNQTFt8RE92XF", "width": 1040, "html_attributions": ["<a href=\"https://maps.google.com/maps/contrib/100597639774074271443\">Sandor</a>"], "height": 585}], "scope": "GOOGLE", "business_status": "OPERATIONAL", "types": ["hospital", "health", "point_of_interest", "store", "establishment"], "icon": "https://maps.gstatic.com/mapfiles/place_api/icons/v1/png_71/generic_business-71.png"}, {"rating": 4, "user_ratings_total": 12, "name": "PAUL MEDICO", "reference": "ChIJnYbTsP91AjoRjo-0sfLS0f4", "geometry": {"location": {"lat": 22.6093517, "lng": 88.401697}, "viewport": {"northeast": {"lat": 22.61068888029151, "lng": 88.40295588029151}, "southwest": {"lat": 22.6079909197085, "lng": 88.4002579197085}}}, "opening_hours": {"open_now": true}, "place_id": "ChIJnYbTsP91AjoRjo-0sfLS0f4", "plus_code": {"global_code": "7MJCJC52+PM", "compound_code": "JC52+PM Kolkata, West Bengal, India"}, "vicinity": "beside INDIAN OVERSEAS BANK, P 849 BLOCK A LAKE TOWN OPPOSITE LAKE TOWN PETROL PUMP, beside INDIAN OVERSEAS BANK, Kolkata", "photos": [{"photo_reference": "ATtYBwL1Jq9kghTiWXeNWIjHmVduniG2q_ceAcnRi7s4MDXbQg0wxZXn1_Eu1XqPE82CtNR31opURPMdRgKXR1i6G0rJA5Q6KLGi7AceuzH0FfhFP5RjjfwcGpCISXfk4myQQTJdB9b158df39u5XatYm5djkoQ1U7jFQhslH_BUk6v5KI-r", "width": 1280, "html_attributions": ["<a href=\"https://maps.google.com/maps/contrib/118286958834277627002\">PAUL MEDICO</a>"], "height": 960}], "scope": "GOOGLE", "business_status": "OPERATIONAL", "types": ["drugstore", "pharmacy", "book_store", "hospital", "doctor", "health", "point_of_interest", "store", "establishment"], "icon": "https://maps.gstatic.com/mapfiles/place_api/icons/v1/png_71/generic_business-71.png"}, {"name": "Rakshit Dr Bela", "reference": "ChIJGQs9UcF1AjoRB6YNxmJFI0U", "geometry": {"location": {"lat": 22.5911435, "lng": 88.40397229999999}, "viewport": {"northeast": {"lat": 22.5924551802915, "lng": 88.40534708029149}, "southwest": {"lat": 22.5897572197085, "lng": 88.40264911970849}}}, "place_id": "ChIJGQs9UcF1AjoRB6YNxmJFI0U", "vicinity": "Bc73, Salt Lake, Sector I, Salt Lake City, Salt Lake City, Kolkata", "scope": "GOOGLE", "business_status": "OPERATIONAL", "types": ["hospital", "health", "point_of_interest", "establishment"], "icon": "https://maps.gstatic.com/mapfiles/place_api/icons/v1/png_71/hospital-71.png"}, {"rating": 1, "user_ratings_total": 1, "name": "B C Roy Memorial Hospital", "reference": "ChIJGQs9UcF1AjoRXu43h_Sn054", "geometry": {"location": {"lat": 22.5911208, "lng": 88.40402910000002}, "viewport": {"northeast": {"lat": 22.5924616302915, "lng": 88.40538373029149}, "southwest": {"lat": 22.5897636697085, "lng": 88.40268576970848}}}, "opening_hours": {"open_now": true}, "place_id": "ChIJGQs9UcF1AjoRXu43h_Sn054", "vicinity": "218 Sector I, Salt Lake, Kolkata", "scope": "GOOGLE", "business_status": "OPERATIONAL", "types": ["hospital", "health", "point_of_interest", "establishment"], "icon": "https://maps.gstatic.com/mapfiles/place_api/icons/v1/png_71/hospital-71.png"}, {"rating": 5, "user_ratings_total": 24, "name": "Neurotherapy Nirogalaya", "reference": "ChIJKf7-wxN1AjoRin0PTDsPwGw", "geometry": {"location": {"lat": 22.6040365, "lng": 88.4098454}, "viewport": {"northeast": {"lat": 22.6053534802915, "lng": 88.41120088029149}, "southwest": {"lat": 22.6026555197085, "lng": 88.40850291970848}}}, "opening_hours": {"open_now": false}, "place_id": "ChIJKf7-wxN1AjoRin0PTDsPwGw", "plus_code": {"global_code": "7MJCJC35+JW", "compound_code": "JC35+JW Kolkata, West Bengal, India"}, "vicinity": "75, Block C, Bangur Avenue, Kolkata", "photos": [{"photo_reference": "ATtYBwIVWmq7EVd1LR-vn9Of5Z1FnzDPUDwxutuS8Xumo1apE44pFEOCaTS9uoX0bY84lIm-IkMPdhpCneK-ddjWxdR7qsLr8l5NG2td5U2qhsziqqFV0Ktag92nk_YCTrDhiqfS8pbyJU9uI9lacvSKRdG3Gxtm-8ZPkYUgkN2mlzNqelTG", "width": 4608, "html_attributions": ["<a href=\"https://maps.google.com/maps/contrib/113512596717616799838\">Neurotherapy Nirogalaya</a>"], "height": 2304}], "scope": "GOOGLE", "business_status": "OPERATIONAL", "types": ["hospital", "doctor", "health", "point_of_interest", "establishment"], "icon": "https://maps.gstatic.com/mapfiles/place_api/icons/v1/png_71/generic_business-71.png"}, {"rating": 2.9, "user_ratings_total": 18, "name": "Apollo Gleneagles Hospital", "reference": "ChIJfV2nrBF2AjoRMHiisrEf4Tw", "geometry": {"location": {"lat": 22.5968313, "lng": 88.3897554}, "viewport": {"northeast": {"lat": 22.5981967302915, "lng": 88.3911114302915}, "southwest": {"lat": 22.5954987697085, "lng": 88.3884134697085}}}, "opening_hours": {"open_now": true}, "place_id": "ChIJfV2nrBF2AjoRMHiisrEf4Tw", "plus_code": {"global_code": "7MJCH9WQ+PW", "compound_code": "H9WQ+PW Kolkata, West Bengal, India"}, "vicinity": "58, Canal Circular Road, Kadapara, Phool Bagan, Kankurgachi, Kolkata", "photos": [{"photo_reference": "ATtYBwK7H8Wa4iskq0sCBIqXfsWaMtrqcS-ecNB9_TxaKylseL0PpafnyJ_fU2vwAkHHwCDk8i0QOVM9T6eNHlE_pgE0-O3pF66oqs4Xw0KwHOeZu3yRRgmdFKfR_4MYpaAux8zYlxGog-eRnjRZ5OHr-nO3zMpHm1zDSge4a8F9Vxr0UyA2", "width": 4000, "html_attributions": ["<a href=\"https://maps.google.com/maps/contrib/112401097831981653456\">Bappa Singha</a>"], "height": 3000}], "scope": "GOOGLE", "business_status": "OPERATIONAL", "types": ["hospital", "health", "point_of_interest", "establishment"], "icon": "https://maps.gstatic.com/mapfiles/place_api/icons/v1/png_71/hospital-71.png"}, {"name": "Sagarika Clinic", "reference": "ChIJ_____xp2AjoRcomDjSlHv24", "geometry": {"location": {"lat": 22.6028921, "lng": 88.38947689999999}, "viewport": {"northeast": {"lat": 22.6043104302915, "lng": 88.3907750802915}, "southwest": {"lat": 22.6016124697085, "lng": 88.3880771197085}}}, "place_id": "ChIJ_____xp2AjoRcomDjSlHv24", "vicinity": "29, Kundu La, Belgachia, Belgachia, Kolkata", "scope": "GOOGLE", "business_status": "OPERATIONAL", "types": ["hospital", "health", "point_of_interest", "establishment"], "icon": "https://maps.gstatic.com/mapfiles/place_api/icons/v1/png_71/hospital-71.png"}, {"rating": 1, "user_ratings_total": 1, "name": "Gautam Das", "reference": "ChIJf415rA12AjoRaC38hdBiA-4", "geometry": {"location": {"lat": 22.5914156, "lng": 88.394144}, "viewport": {"northeast": {"lat": 22.5927645802915, "lng": 88.39549298029151}, "southwest": {"lat": 22.59006661970849, "lng": 88.39279501970849}}}, "place_id": "ChIJf415rA12AjoRaC38hdBiA-4", "plus_code": {"global_code": "7MJCH9RV+HM", "compound_code": "H9RV+HM Ghose Bagan, Kolkata, West Bengal, India"}, "vicinity": "Kazi Nazrul Islam Avenue, Sreekrishana Colony, BRS 3, Ghose Bagan", "scope": "GOOGLE", "business_status": "OPERATIONAL", "types": ["hospital", "health", "point_of_interest", "establishment"], "icon": "https://maps.gstatic.com/mapfiles/place_api/icons/v1/png_71/hospital-71.png"}, {"name": "APOLLO DRUG HOUSE", "reference": "ChIJRRO00kh3AjoRrRQvLnItrVQ", "geometry": {"location": {"lat": 22.5899521, "lng": 88.397175}, "viewport": {"northeast": {"lat": 22.5913271302915, "lng": 88.3985048302915}, "southwest": {"lat": 22.5886291697085, "lng": 88.39580686970848}}}, "place_id": "ChIJRRO00kh3AjoRrRQvLnItrVQ", "plus_code": {"global_code": "7MJCH9QW+XV", "compound_code": "H9QW+XV Kolkata, West Bengal, India"}, "vicinity": "174, 1st Avenue, Mukundapur, Kolkata", "scope": "GOOGLE", "business_status": "OPERATIONAL", "types": ["hospital", "health", "point_of_interest", "establishment"], "icon": "https://maps.gstatic.com/mapfiles/place_api/icons/v1/png_71/hospital-71.png"}, {"rating": 1, "user_ratings_total": 1, "name": "Dr. Swapan Kumar De - Cardiologist", "reference": "ChIJt2KdH2R3AjoRBtJYyTA0p50", "geometry": {"location": {"lat": 22.5972236, "lng": 88.3891093}, "viewport": {"northeast": {"lat": 22.59857433029151, "lng": 88.39046118029151}, "southwest": {"lat": 22.5958763697085, "lng": 88.3877632197085}}}, "opening_hours": {"open_now": false}, "place_id": "ChIJt2KdH2R3AjoRBtJYyTA0p50", "plus_code": {"global_code": "7MJCH9WQ+VJ", "compound_code": "H9WQ+VJ Kolkata, West Bengal, India"}, "vicinity": "58, Canal Circular Road, Kolkata", "scope": "GOOGLE", "business_status": "OPERATIONAL", "types": ["hospital", "doctor", "health", "point_of_interest", "establishment"], "icon": "https://maps.gstatic.com/mapfiles/place_api/icons/v1/png_71/generic_business-71.png"}, {"rating": 5, "user_ratings_total": 1, "name": "Dr. Prashant Baid, Minimally Invasive Spine Surgeon", "reference": "ChIJPQYM8mJ3AjoRglo8BaVtYcI", "geometry": {"location": {"lat": 22.5972236, "lng": 88.3891093}, "viewport": {"northeast": {"lat": 22.59857433029151, "lng": 88.39046118029151}, "southwest": {"lat": 22.5958763697085, "lng": 88.3877632197085}}}, "opening_hours": {"open_now": false}, "place_id": "ChIJPQYM8mJ3AjoRglo8BaVtYcI", "plus_code": {"global_code": "7MJCH9WQ+VJ", "compound_code": "H9WQ+VJ Kolkata, West Bengal, India"}, "vicinity": "Apollo Gleneagles Hospitals, 58, Canal Circular Road, Kolkata", "photos": [{"photo_reference": "ATtYBwI3u2SdNwUXJHeD_sWPG5ZV9RePVo92PLaI1H527RKiGKkbyFeq_ocfVaTU5p853fsNxSKJTxXK1GS0hBEMyZ2ByQeIrC0zOXJe9goYZuPaCsIc8YGKiBoNk6NsKoY3_esX51b-IuISTXMSfzBDlmpXjKUn5OFog_dwFDuuCphOC-XQ", "width": 469, "html_attributions": ["<a href=\"https://maps.google.com/maps/contrib/100127660747067405623\">Dr. Prashant Baid, Minimally Invasive Spine Surgeon</a>"], "height": 469}], "scope": "GOOGLE", "business_status": "OPERATIONAL", "types": ["hospital", "doctor", "health", "point_of_interest", "establishment"], "icon": "https://maps.gstatic.com/mapfiles/place_api/icons/v1/png_71/generic_business-71.png"}, {"rating": 5, "user_ratings_total": 2, "name": "Bangur Doctor's Chamber", "reference": "ChIJAQAAcPp1AjoRnJG132ur0E4", "geometry": {"location": {"lat": 22.6038472, "lng": 88.4106973}, "viewport": {"northeast": {"lat": 22.6051324302915, "lng": 88.4120590802915}, "southwest": {"lat": 22.6024344697085, "lng": 88.40936111970848}}}, "opening_hours": {"open_now": true}, "place_id": "ChIJAQAAcPp1AjoRnJG132ur0E4", "plus_code": {"global_code": "7MJCJC36+G7", "compound_code": "JC36+G7 Kolkata, West Bengal, India"}, "vicinity": "Block C, 110/6/1, Bangur Avenue, Kolkata", "photos": [{"photo_reference": "ATtYBwLqVIEgGtZYs9JSp8O1zimY1uk-bFRfU-Xy1K82rHQ8_LwIf_KEQPybaxfi8g5GJS1XpvF7gtKbf8R1wuBVSuj37tNm6iPbXENUBJBddVI0_qkYlegKoGVHB8X1ZDgXF2tYdKzoAyVeSXyiLQ6VIRg_eeddoCIiWin6nmCdBHjkQHK7", "width": 3264, "html_attributions": ["<a href=\"https://maps.google.com/maps/contrib/101060228350183568726\">Bangur Doctor&#39;s Chamber</a>"], "height": 1836}], "scope": "GOOGLE", "business_status": "OPERATIONAL", "types": ["hospital", "health", "point_of_interest", "establishment"], "icon": "https://maps.gstatic.com/mapfiles/place_api/icons/v1/png_71/hospital-71.png"}, {"name": "Nagerbazar", "reference": "ChIJTclx3NV1AjoR7msKiAoJBIY", "geometry": {"location": {"lat": 22.6101002, "lng": 88.4038617}, "viewport": {"northeast": {"lat": 22.6114799302915, "lng": 88.40520343029151}, "southwest": {"lat": 22.6087819697085, "lng": 88.40250546970849}}}, "place_id": "ChIJTclx3NV1AjoR7msKiAoJBIY", "plus_code": {"global_code": "7MJCJC63+2G", "compound_code": "JC63+2G Kolkata, West Bengal, India"}, "vicinity": "594, Jessore Road, Naskar Bagan, Lake Town, Kolkata", "scope": "GOOGLE", "business_status": "OPERATIONAL", "types": ["hospital", "health", "point_of_interest", "establishment"], "icon": "https://maps.gstatic.com/mapfiles/place_api/icons/v1/png_71/hospital-71.png"}, {"name": "seba medical hall", "reference": "ChIJVVVHiQ12AjoRn1nHTK1nf8M", "geometry": {"location": {"lat": 22.592027, "lng": 88.392149}, "viewport": {"northeast": {"lat": 22.5933695302915, "lng": 88.3934951302915}, "southwest": {"lat": 22.5906715697085, "lng": 88.39079716970849}}}, "opening_hours": {"open_now": true}, "place_id": "ChIJVVVHiQ12AjoRn1nHTK1nf8M", "plus_code": {"global_code": "7MJCH9RR+RV", "compound_code": "H9RR+RV Kolkata, West Bengal, India"}, "vicinity": "p-166/1,c.l.t.schemeno7,bidhannagar, Kolkata", "scope": "GOOGLE", "business_status": "OPERATIONAL", "types": ["hospital", "health", "point_of_interest", "establishment"], "icon": "https://maps.gstatic.com/mapfiles/place_api/icons/v1/png_71/hospital-71.png"}, {"name": "Dr. Sudarsan Chakrabarti Memorial Center", "reference": "ChIJrzrlnw12AjoRBMwNLOGmBF0", "geometry": {"location": {"lat": 22.5910501, "lng": 88.393075}, "viewport": {"northeast": {"lat": 22.5923861802915, "lng": 88.39439288029149}, "southwest": {"lat": 22.5896882197085, "lng": 88.39169491970848}}}, "place_id": "ChIJrzrlnw12AjoRBMwNLOGmBF0", "plus_code": {"global_code": "7MJCH9RV+C6", "compound_code": "H9RV+C6 Kolkata, West Bengal, India"}, "vicinity": "P-198,C.I.T. Scheme : VII-M, Ultadanga Main Road, Kolkata", "scope": "GOOGLE", "business_status": "OPERATIONAL", "types": ["hospital", "health", "point_of_interest", "establishment"], "icon": "https://maps.gstatic.com/mapfiles/place_api/icons/v1/png_71/hospital-71.png"}]}