{"status": "OK", "html_attributions": [], "results": [{"rating": 4.7, "user_ratings_total": 7, "name": "Rebecca Belilious Charitable Dispensary", "reference": "ChIJ6UYWuPN3AjoRGlIr9CUkyzU", "geometry": {"location": {"lat": 22.5917812, "lng": 88.3305608}, "viewport": {"northeast": {"lat": 22.5930660302915, "lng": 88.3318754302915}, "southwest": {"lat": 22.5903680697085, "lng": 88.3291774697085}}}, "opening_hours": {"open_now": false}, "place_id": "ChIJ6UYWuPN3AjoRGlIr9CUkyzU", "plus_code": {"global_code": "7MJCH8RJ+P6", "compound_code": "H8RJ+P6 Howrah, West Bengal, India"}, "vicinity": "234, Belilious Road, Tikiapara, Howrah", "photos": [{"photo_reference": "ATtYBwLP32n4sQ8VKILLs7VWDIytsZ4iO81GXen52wLjVDnQ74NdMmfj7eYeu-mMf2ly7olYPTzo8ruUDuq31PJ4Fhs_HGsxRl8FYKzhaY1ESOAP_O8bXTleixIqRUejjlURxRXbcfxk35pGGsRNot48aE0rAKA7x3XEpZy48DF0bW01QH6h", "width": 1920, "html_attributions": ["<a href=\"https://maps.google.com/maps/contrib/116120326212925583678\">Varun Jaiswal</a>"], "height": 1080}], "scope": "GOOGLE", "business_status": "OPERATIONAL", "types": ["hospital", "health", "point_of_interest", "establishment"], "icon": "https://maps.gstatic.com/mapfiles/place_api/icons/v1/png_71/hospital-71.png"}, {"name": "Health Care", "reference": "ChIJqV9hsex3AjoRnbH0hIjZufM", "geometry": {"location": {"lat": 22.5880933, "lng": 88.33778509999999}, "viewport": {"northeast": {"lat": 22.5894676302915, "lng": 88.33905848029151}, "southwest": {"lat": 22.5867696697085, "lng": 88.33636051970849}}}, "place_id": "ChIJqV9hsex3AjoRnbH0hIjZufM", "plus_code": {"global_code": "7MJCH8QQ+64", "compound_code": "H8QQ+64 Howrah, West Bengal, India"}, "vicinity": "Gulmohar Railway Quarters, Mali Panchghara, Howrah", "scope": "GOOGLE", "business_status": "OPERATIONAL", "types": ["hospital", "health", "point_of_interest", "establishment"], "icon": "https://maps.gstatic.com/mapfiles/place_api/icons/v1/png_71/hospital-71.png"}, {"rating": 5, "user_ratings_total": 1, "name": "Treatwell Dental Care", "reference": "ChIJW1v4S-p3AjoRacIfk5LubZA", "geometry": {"location": {"lat": 22.5876737, "lng": 88.3405004}, "viewport": {"northeast": {"lat": 22.5890360802915, "lng": 88.3418555802915}, "southwest": {"lat": 22.58633811970849, "lng": 88.33915761970849}}}, "opening_hours": {"open_now": true}, "place_id": "ChIJW1v4S-p3AjoRacIfk5LubZA", "plus_code": {"global_code": "7MJCH8QR+36", "compound_code": "H8QR+36 Howrah, West Bengal, India"}, "vicinity": "Dobson Road, Gulmohar Railway Quarters, Mali Panchghara, Howrah", "photos": [{"photo_reference": "ATtYBwJuQnJHuBCdGAjleL19BqJw_JSY_oucDV5Fih1DysYrNTwA_mqr3180EmQ9RIS93Ah1Kid495TS1hRmWdc6WjQ7UgBbthY6BMBb5CcJIoXo0fqzrnDsFHewFaxwjIsyBDN2pQQEyjbtwPXq4hU6gW3ptW6YEdu1XKGxAmqD3O7t9QPX", "width": 4608, "html_attributions": ["<a href=\"https://maps.google.com/maps/contrib/118250349245467968449\">Supradip Saha</a>"], "height": 3456}], "scope": "GOOGLE", "business_status": "OPERATIONAL", "types": ["hospital", "health", "point_of_interest", "establishment"], "icon": "https://maps.gstatic.com/mapfiles/place_api/icons/v1/png_71/hospital-71.png"}]}