{"status": "OK", "html_attributions": [], "results": [{"rating": 3.9, "user_ratings_total": 7, "permanently_closed": true, "name": "Ramjas Primary School", "reference": "ChIJ76n8KET9DDkR754lCn-R6eg", "geometry": {"location": {"lat": 28.6377773, "lng": 77.2112726}, "viewport": {"northeast": {"lat": 28.6391523302915, "lng": 77.2126417802915}, "southwest": {"lat": 28.6364543697085, "lng": 77.20994381970849}}}, "place_id": "ChIJ76n8KET9DDkR754lCn-R6eg", "plus_code": {"global_code": "7JWVJ6Q6+4G", "compound_code": "J6Q6+4G New Delhi, Delhi, India"}, "vicinity": "71, Panchkuian Marg, Paharganj, New Delhi", "scope": "GOOGLE", "business_status": "CLOSED_TEMPORARILY", "types": ["primary_school", "school", "point_of_interest", "establishment"], "icon": "https://maps.gstatic.com/mapfiles/place_api/icons/v1/png_71/school-71.png"}, {"rating": 4.6, "user_ratings_total": 5, "permanently_closed": true, "name": "Kamlesh Balika Vidyalayaprimary school", "reference": "ChIJIcY43y79DDkR-EJzypHZNjE", "geometry": {"location": {"lat": 28.6335355, "lng": 77.2333195}, "viewport": {"northeast": {"lat": 28.6347800802915, "lng": 77.23458638029149}, "southwest": {"lat": 28.6320821197085, "lng": 77.23188841970848}}}, "place_id": "ChIJIcY43y79DDkR-EJzypHZNjE", "plus_code": {"global_code": "7JWVJ6MM+C8", "compound_code": "J6MM+C8 New Delhi, Delhi, India"}, "vicinity": "Kotla Marg, Mata Sundri Women's College, Mandi House, New Delhi", "photos": [{"photo_reference": "ATtYBwLKpKdErzAsTAyOcRedjKBwbPOTUayqlq3uJdbHk3XNzJK5z92_g1QVlCtbBDEXc_Jg29OBYPNmE2ywqzP1Suw4MSL-5alhAnchBpw6TNUmGkxFRn-JLiYw955MKT_3GyXYB6Q-fIWEMjKDjtMFPHoaj1Cf2sYuQX-ZnupfR7PsB5ty", "width": 1920, "html_attributions": ["<a href=\"https://maps.google.com/maps/contrib/111694459803278120039\">Praveen Dimri</a>"], "height": 1080}], "scope": "GOOGLE", "business_status": "CLOSED_TEMPORARILY", "types": ["primary_school", "school", "point_of_interest", "establishment"], "icon": "https://maps.gstatic.com/mapfiles/place_api/icons/v1/png_71/school-71.png"}, {"rating": 4.8, "user_ratings_total": 5, "name": "Navyug Primary School , Pataudi House", "reference": "ChIJ____88viDDkR6gw38t3xIfA", "geometry": {"location": {"lat": 28.6182176, "lng": 77.22393699999999}, "viewport": {"northeast": {"lat": 28.6197458802915, "lng": 77.2249665802915}, "southwest": {"lat": 28.61704791970849, "lng": 77.22226861970849}}}, "place_id": "ChIJ____88viDDkR6gw38t3xIfA", "plus_code": {"global_code": "7JWVJ69F+7H", "compound_code": "J69F+7H New Delhi, Delhi, India"}, "vicinity": "Pataudi House, New Delhi", "photos": [{"photo_reference": "ATtYBwIQ70-33tn_I0ueJTGCmD8pfaTqAhnzXtdD4FmvdHsLZDf3y94C5EMKJ3RXEUJD2pVv_0VNmCrlyGV_xWMFYuVDSDuVdZk2Hl2DiT0xdMZJifu6-l2YEV-kuYiQab9uM8bCAXin52GlbCxrNswscGJ6gqW_OAD0FNwQcnRxK113X_ev", "width": 1080, "html_attributions": ["<a href=\"https://maps.google.com/maps/contrib/106806949888356529243\">Ashok kumar Bharti</a>"], "height": 1440}], "scope": "GOOGLE", "business_status": "OPERATIONAL", "types": ["primary_school", "school", "point_of_interest", "establishment"], "icon": "https://maps.gstatic.com/mapfiles/place_api/icons/v1/png_71/school-71.png"}, {"rating": 5, "user_ratings_total": 2, "permanently_closed": true, "name": "Bulbuli Khana I", "reference": "ChIJVVVVVUH9DDkRmD3xPKwcFMY", "geometry": {"location": {"lat": 28.6400331, "lng": 77.21177329999999}, "viewport": {"northeast": {"lat": 28.6414309302915, "lng": 77.21316313029149}, "southwest": {"lat": 28.6387329697085, "lng": 77.21046516970848}}}, "place_id": "ChIJVVVVVUH9DDkRmD3xPKwcFMY", "plus_code": {"global_code": "7JWVJ6R6+2P", "compound_code": "J6R6+2P Paharganj, New Delhi, Delhi, India"}, "vicinity": "Bharat Nagar, Paharganj", "scope": "GOOGLE", "business_status": "CLOSED_TEMPORARILY", "types": ["primary_school", "school", "point_of_interest", "establishment"], "icon": "https://maps.gstatic.com/mapfiles/place_api/icons/v1/png_71/school-71.png"}, {"rating": 3.7, "user_ratings_total": 3, "permanently_closed": true, "name": "R.M. Arya Girls' Primary School", "reference": "ChIJPZTdqVr9DDkRU591DjrKfOU", "geometry": {"location": {"lat": 28.6347549, "lng": 77.2068558}, "viewport": {"northeast": {"lat": 28.6360719802915, "lng": 77.20826083029151}, "southwest": {"lat": 28.63337401970849, "lng": 77.2055628697085}}}, "place_id": "ChIJPZTdqVr9DDkRU591DjrKfOU", "plus_code": {"global_code": "7JWVJ6M4+WP", "compound_code": "J6M4+WP New Delhi, Delhi, India"}, "vicinity": "Gole Market , Doctor's Lane, New Delhi", "scope": "GOOGLE", "business_status": "CLOSED_TEMPORARILY", "types": ["primary_school", "school", "point_of_interest", "establishment"], "icon": "https://maps.gstatic.com/mapfiles/place_api/icons/v1/png_71/school-71.png"}, {"permanently_closed": true, "name": "Nagar Nigam Primary School", "reference": "ChIJh_WHHCX9DDkRfzTRNZFr4_M", "geometry": {"location": {"lat": 28.638506, "lng": 77.2307483}, "viewport": {"northeast": {"lat": 28.6398427302915, "lng": 77.23229698029151}, "southwest": {"lat": 28.63714476970849, "lng": 77.2295990197085}}}, "place_id": "ChIJh_WHHCX9DDkRfzTRNZFr4_M", "plus_code": {"global_code": "7JWVJ6QJ+C7", "compound_code": "J6QJ+C7 New Delhi, Delhi, India"}, "vicinity": "Maharaja Ranjeet Singh Marg, Gandhi Market Area, New Delhi", "scope": "GOOGLE", "business_status": "CLOSED_TEMPORARILY", "types": ["primary_school", "school", "point_of_interest", "establishment"], "icon": "https://maps.gstatic.com/mapfiles/place_api/icons/v1/png_71/school-71.png"}]}