{"status": "OK", "html_attributions": [], "results": [{"rating": 2.1, "user_ratings_total": 7, "permanently_closed": true, "name": "Sunrise Public School", "reference": "ChIJBT9ou6XmDDkRQLtdGjEvQiI", "geometry": {"location": {"lat": 28.5316159, "lng": 77.2998248}, "viewport": {"northeast": {"lat": 28.5329644302915, "lng": 77.3011733802915}, "southwest": {"lat": 28.5302664697085, "lng": 77.2984754197085}}}, "place_id": "ChIJBT9ou6XmDDkRQLtdGjEvQiI", "plus_code": {"global_code": "7JWVG7JX+JW", "compound_code": "G7JX+JW New Delhi, Delhi, India"}, "vicinity": "Madanpur Khadar Village, Sarita Vihar, New Delhi", "photos": [{"photo_reference": "ATtYBwJ2EVOB48Ac9hWUtJA_NGaON7IyC_a23YgDdO9KnW6dKROCtJJ04fkYftbYwl7VxsHyH0Mu4IfYdshBPdqtCN90_Waz5WCefmgfJeizr8s-Mu-Bme_SZma9-od0YxSiW2jrDEo4JYYwo_yAv-hIlGBUwzPEaJjQq58ssrwzE3cEgcZn", "width": 576, "html_attributions": ["<a href=\"https://maps.google.com/maps/contrib/108784762696897695439\">Mahendra Singh</a>"], "height": 576}], "scope": "GOOGLE", "business_status": "CLOSED_TEMPORARILY", "types": ["primary_school", "school", "point_of_interest", "establishment"], "icon": "https://maps.gstatic.com/mapfiles/place_api/icons/v1/png_71/school-71.png"}, {"rating": 3.7, "user_ratings_total": 3, "permanently_closed": true, "name": "Best Primary School", "reference": "ChIJTZE_laXmDDkRr97WerIRCZ0", "geometry": {"location": {"lat": 28.5321084, "lng": 77.2993205}, "viewport": {"northeast": {"lat": 28.5334611802915, "lng": 77.30067943029151}, "southwest": {"lat": 28.5307632197085, "lng": 77.29798146970849}}}, "place_id": "ChIJTZE_laXmDDkRr97WerIRCZ0", "plus_code": {"global_code": "7JWVG7JX+RP", "compound_code": "G7JX+RP New Delhi, Delhi, India"}, "vicinity": "Madanpur Khadar Village, Sarita Vihar, New Delhi", "scope": "GOOGLE", "business_status": "CLOSED_TEMPORARILY", "types": ["primary_school", "school", "point_of_interest", "establishment"], "icon": "https://maps.gstatic.com/mapfiles/place_api/icons/v1/png_71/school-71.png"}, {"rating": 4.7, "user_ratings_total": 20, "name": "New National Public School", "reference": "ChIJSYe4TR3kDDkR_7XWk7cT2rc", "geometry": {"location": {"lat": 28.5342872, "lng": 77.30248519999999}, "viewport": {"northeast": {"lat": 28.5356371802915, "lng": 77.3037875802915}, "southwest": {"lat": 28.5329392197085, "lng": 77.30108961970849}}}, "opening_hours": {"open_now": true}, "place_id": "ChIJSYe4TR3kDDkR_7XWk7cT2rc", "plus_code": {"global_code": "7JWVG8M2+PX", "compound_code": "G8M2+PX New Delhi, Delhi, India"}, "vicinity": "171-A, Madanpur Khadar, New Delhi", "photos": [{"photo_reference": "ATtYBwIh4qWL1mYUtMRH3ybiNJshvEyz167tOrjOpj3OGedyDiC1UvCpAcO4malqLp6rwGHrJjcq3jM4hubjjbDzn5b_DiB_Royz5xZJQ1HmauOA5KiOZ1wbMDDCmUelHBDRhKr078qd3HhD6MgDwJoKd9gYnEVlD68JD-GMozTzI_B-eiti", "width": 2048, "html_attributions": ["<a href=\"https://maps.google.com/maps/contrib/107656210348966186598\">New National Public School</a>"], "height": 1152}], "scope": "GOOGLE", "business_status": "OPERATIONAL", "types": ["primary_school", "school", "point_of_interest", "establishment"], "icon": "https://maps.gstatic.com/mapfiles/place_api/icons/v1/png_71/school-71.png"}, {"permanently_closed": true, "name": "Best Primary School", "reference": "ChIJ9YCWTavmDDkR5WEkCEJudnk", "geometry": {"location": {"lat": 28.53323, "lng": 77.286734}, "viewport": {"northeast": {"lat": 28.5345824302915, "lng": 77.2880913802915}, "southwest": {"lat": 28.53188446970849, "lng": 77.2853934197085}}}, "place_id": "ChIJ9YCWTavmDDkR5WEkCEJudnk", "plus_code": {"global_code": "7JWVG7MP+7M", "compound_code": "G7MP+7M Madanpur Khadar, New Delhi, Delhi, India"}, "vicinity": "303/B 1st Floor Mansukh Chauhan Marg, Madanpur Khadar, Sarita Vihar", "photos": [{"photo_reference": "ATtYBwJgx5nCmHbXSQqKuE4KKMMDiNQtvwipzZfANAeCJEjLKwAuzGgtLJdZsRlb5NZ4TcOjU3gaNw62ZBAMCk5y8hS_3ofjDciCPGwVS1lQ5wLlulypdDojv7wkvHSAzUnRIFYujQcqk-JkSsni-g-O_NgO9rQSOG4aJB21k7RWqAKpMOrC", "width": 2048, "html_attributions": ["<a href=\"https://maps.google.com/maps/contrib/100417887344549198859\">Best Primary School</a>"], "height": 1152}], "scope": "GOOGLE", "business_status": "CLOSED_TEMPORARILY", "types": ["primary_school", "school", "point_of_interest", "establishment"], "icon": "https://maps.gstatic.com/mapfiles/place_api/icons/v1/png_71/school-71.png"}]}