{"status": "OK", "html_attributions": [], "results": [{"rating": 3.9, "user_ratings_total": 16, "name": "KK Nagar Police Station", "reference": "ChIJ7zZDadxmUjoRx93JxJAMp-Y", "geometry": {"location": {"lat": 13.041651, "lng": 80.20536609999999}, "viewport": {"northeast": {"lat": 13.0430038802915, "lng": 80.2066890302915}, "southwest": {"lat": 13.0403059197085, "lng": 80.2039910697085}}}, "opening_hours": {"open_now": true}, "place_id": "ChIJ7zZDadxmUjoRx93JxJAMp-Y", "plus_code": {"global_code": "7M5226R4+M4", "compound_code": "26R4+M4 Chennai, Tamil Nadu, India"}, "vicinity": "85, PT Rajan Road, Sector 2, K. K. Nagar, Chennai", "photos": [{"photo_reference": "ATtYBwLwLfLaYL4ur81p_Mf21_eRZxt-Q8bVv5mWPulrcJxiGObTtYS1QVLtsSBASQvQ_J4r3yR66qIQJgjgwcLx92UKauH2xykwLJ_bdKpClSqlrbce-67jDO35mAycP1VCLhH5Fsq8q-uTbKdf83UhIXqcCBv8UYCtYdXgpGte5ZvhxdUq", "width": 1536, "html_attributions": ["<a href=\"https://maps.google.com/maps/contrib/118070305515646382567\">Kannan Esakki</a>"], "height": 2048}], "scope": "GOOGLE", "business_status": "OPERATIONAL", "types": ["police", "point_of_interest", "establishment"], "icon": "https://maps.gstatic.com/mapfiles/place_api/icons/v1/png_71/police-71.png"}, {"name": "Police Chauki", "reference": "ChIJoRVzq89mUjoRRgiySkteytE", "geometry": {"location": {"lat": 13.0476781, "lng": 80.1960062}, "viewport": {"northeast": {"lat": 13.0490149302915, "lng": 80.1972774302915}, "southwest": {"lat": 13.0463169697085, "lng": 80.1945794697085}}}, "place_id": "ChIJoRVzq89mUjoRRgiySkteytE", "plus_code": {"global_code": "7M5225XW+3C", "compound_code": "25XW+3C Chennai, Tamil Nadu, India"}, "vicinity": "Reddy Street, AVM Nagar, Vadapalani, Chennai", "scope": "GOOGLE", "business_status": "OPERATIONAL", "types": ["police", "point_of_interest", "establishment"], "icon": "https://maps.gstatic.com/mapfiles/place_api/icons/v1/png_71/police-71.png"}, {"name": "Police Station", "reference": "ChIJU4xQWChnUjoRO2A9ZyaN0Ts", "geometry": {"location": {"lat": 13.031072, "lng": 80.1967165}, "viewport": {"northeast": {"lat": 13.0324056802915, "lng": 80.19806598029152}, "southwest": {"lat": 13.0297077197085, "lng": 80.1953680197085}}}, "place_id": "ChIJU4xQWChnUjoRO2A9ZyaN0Ts", "plus_code": {"global_code": "7M5225JW+CM", "compound_code": "25JW+CM Chennai, Tamil Nadu, India"}, "vicinity": "Venkatraman Street, Sanjaicolony, MGR Nagar, Nesapakkam, Chennai", "scope": "GOOGLE", "business_status": "OPERATIONAL", "types": ["police", "point_of_interest", "establishment"], "icon": "https://maps.gstatic.com/mapfiles/place_api/icons/v1/png_71/police-71.png"}, {"name": "Police Help Centre", "reference": "ChIJEZlGCs1mUjoRuewvnY-R-js", "geometry": {"location": {"lat": 13.046591, "lng": 80.1901809}, "viewport": {"northeast": {"lat": 13.0479176302915, "lng": 80.1915311802915}, "southwest": {"lat": 13.0452196697085, "lng": 80.1888332197085}}}, "place_id": "ChIJEZlGCs1mUjoRuewvnY-R-js", "plus_code": {"global_code": "7M5225WR+J3", "compound_code": "25WR+J3 Chennai, Tamil Nadu, India"}, "vicinity": "91-94, State Highway 113, Pakkiri Garden, Sankareswarar Nagar, Valasaravakkam, Chennai", "photos": [{"photo_reference": "ATtYBwJXHCRigXD_cq3qKlsbNR7j0o6M4vkQdjvXQgh5yu2dW2BLc9diNaXX8WwV5flmMT3W20EI75N3Nx0gKjfU3UjF9gRDz1wbDhgYwwkS4QgpFiL-_QyaOPrPw518JdxYqH8tvgaKonR7LPmCYyXHd9eFWZN7uuIEp3rkd0mAHcOGlWZA", "width": 1080, "html_attributions": ["<a href=\"https://maps.google.com/maps/contrib/106164401918154447102\">Vigneshwaran T</a>"], "height": 1920}], "scope": "GOOGLE", "business_status": "OPERATIONAL", "types": ["police", "point_of_interest", "establishment"], "icon": "https://maps.gstatic.com/mapfiles/place_api/icons/v1/png_71/police-71.png"}, {"name": "Amman Kovil Police Assistance Booth ,R-7 KK Nagar Police Station", "reference": "ChIJ78eX7tBmUjoRiVATm5fezU0", "geometry": {"location": {"lat": 13.0413545, "lng": 80.19686999999999}, "viewport": {"northeast": {"lat": 13.0427026302915, "lng": 80.1982258802915}, "southwest": {"lat": 13.0400046697085, "lng": 80.19552791970848}}}, "place_id": "ChIJ78eX7tBmUjoRiVATm5fezU0", "plus_code": {"global_code": "7M5225RW+GP", "compound_code": "25RW+GP Chennai, Tamil Nadu, India"}, "vicinity": "B-Sector, K. K. Nagar, Chennai", "photos": [{"photo_reference": "ATtYBwKmpPOyvDhDUmsLYsWYNq4CTb2CEeetFMRoC6J7O2LKSLVjct7yX4tP-xF26X3Vra4m8SYR_vVWGJBmqVQpjxfiFgq6Fjzl-3aJbvp23vShjuubNDz6CzXL4IthSv8X_YxaDqF-IzFxuwe8EBH03nKCT9bgA6yWLDngTQni0CI1Hcy2", "width": 2922, "html_attributions": ["<a href=\"https://maps.google.com/maps/contrib/110594088837528328731\">Hemanth Kumar</a>"], "height": 3236}], "scope": "GOOGLE", "business_status": "OPERATIONAL", "types": ["police", "point_of_interest", "establishment"], "icon": "https://maps.gstatic.com/mapfiles/place_api/icons/v1/png_71/police-71.png"}, {"name": "Poilce Chauki", "reference": "ChIJzwgUkdpmUjoREl1ufhF4WhY", "geometry": {"location": {"lat": 13.0433814, "lng": 80.1996632}, "viewport": {"northeast": {"lat": 13.0447224802915, "lng": 80.2010600302915}, "southwest": {"lat": 13.0420245197085, "lng": 80.1983620697085}}}, "place_id": "ChIJzwgUkdpmUjoREl1ufhF4WhY", "plus_code": {"global_code": "7M5225VX+9V", "compound_code": "25VX+9V Chennai, Tamil Nadu, India"}, "vicinity": "Alagirisamy Salai, Santosh Colony, Sector 9, K. K. Nagar, Chennai", "scope": "GOOGLE", "business_status": "OPERATIONAL", "types": ["police", "point_of_interest", "establishment"], "icon": "https://maps.gstatic.com/mapfiles/place_api/icons/v1/png_71/police-71.png"}, {"rating": 4.2, "user_ratings_total": 5, "name": "R-7 Police At Door Step", "reference": "ChIJyceXddBmUjoRiq0rcFL49l0", "geometry": {"location": {"lat": 13.0435671, "lng": 80.19858020000001}, "viewport": {"northeast": {"lat": 13.0449570302915, "lng": 80.1999344302915}, "southwest": {"lat": 13.0422590697085, "lng": 80.1972364697085}}}, "opening_hours": {"open_now": true}, "place_id": "ChIJyceXddBmUjoRiq0rcFL49l0", "plus_code": {"global_code": "7M5225VX+CC", "compound_code": "25VX+CC Chennai, Tamil Nadu, India"}, "vicinity": "No.3/49, Ramapuran, Valluvar Salai, Sector 9, K. K. Nagar, Chennai", "photos": [{"photo_reference": "ATtYBwLJo5dIjB1gyqgqkE1TgCW0FZLSdEjTyl8hMXKOcgh1eh_M0RYza1TtJvlc_OJbJhyRB4zda-Ouf7nS6DJo0TcQu9PNKRDdn8gdMPYQYs_diYHRiSvDzzqGcXu0acpkp-CiQTCuh76KxV4Cv9N4SSXQWz7OvR_1EB8MJpUbqoD7DPJZ", "width": 443, "html_attributions": ["<a href=\"https://maps.google.com/maps/contrib/100473310232536200426\">Vignesh Dhanasekaran</a>"], "height": 332}], "scope": "GOOGLE", "business_status": "OPERATIONAL", "types": ["police", "point_of_interest", "establishment"], "icon": "https://maps.gstatic.com/mapfiles/place_api/icons/v1/png_71/police-71.png"}, {"name": "R10 Police Booth", "reference": "ChIJz61DVthmUjoRIki2uNoOphM", "geometry": {"location": {"lat": 13.036346, "lng": 80.20133659999999}, "viewport": {"northeast": {"lat": 13.0376975302915, "lng": 80.20266998029152}, "southwest": {"lat": 13.0349995697085, "lng": 80.1999720197085}}}, "place_id": "ChIJz61DVthmUjoRIki2uNoOphM", "plus_code": {"global_code": "7M5226P2+GG", "compound_code": "26P2+GG Chennai, Tamil Nadu, India"}, "vicinity": "84, 100 Feet Road, MGR Nagar, Nesapakkam, Chennai", "photos": [{"photo_reference": "ATtYBwKKym_nqkr7h5aRGYVIYGejFsuLSPOdqzxSHr1N92R5uCK-pReA2jnm-275IziKJE34OObSw-cU7L4L_jMyWw3YBipEHGfLGagi6cKHLHXik6ieTIHZaYu7qwjEdd8EEe3EMI16nu9CBRqp3VTvs1vH-VbgecNUxtB_qXoN_z22hOlH", "width": 4032, "html_attributions": ["<a href=\"https://maps.google.com/maps/contrib/109409225999814829110\">poke mon</a>"], "height": 3024}], "scope": "GOOGLE", "business_status": "OPERATIONAL", "types": ["police", "point_of_interest", "establishment"], "icon": "https://maps.gstatic.com/mapfiles/place_api/icons/v1/png_71/police-71.png"}, {"name": "Police Booth", "reference": "ChIJ60TVhc9mUjoRF9Dm_IID748", "geometry": {"location": {"lat": 13.0475395, "lng": 80.1983131}, "viewport": {"northeast": {"lat": 13.0488522802915, "lng": 80.1996619302915}, "southwest": {"lat": 13.0461543197085, "lng": 80.19696396970849}}}, "place_id": "ChIJ60TVhc9mUjoRF9Dm_IID748", "plus_code": {"global_code": "7M5225XX+28", "compound_code": "25XX+28 Chennai, Tamil Nadu, India"}, "vicinity": "126-134, Arcot Road, AVM Nagar, Saligramam, Chennai", "photos": [{"photo_reference": "ATtYBwIIOgAiSJiR7D3BjcTRV1qs_UWIXQ-oWMCRSZ1VxfpiNNrk3GRY6wLghUdzRZi0t_RHfEnLdwNdz12cU3PRm2nf9fc50wLb9vTTNFeujj8IL8jMVfucMWZkc1JNHCV5epGloprJWitqNLiea--QiWARKLV-n72uiqk_68Tj2sCmmHdP", "width": 3120, "html_attributions": ["<a href=\"https://maps.google.com/maps/contrib/118070305515646382567\">Kannan Esakki</a>"], "height": 4160}], "scope": "GOOGLE", "business_status": "OPERATIONAL", "types": ["police", "point_of_interest", "establishment"], "icon": "https://maps.gstatic.com/mapfiles/place_api/icons/v1/png_71/police-71.png"}, {"rating": 4, "user_ratings_total": 10, "name": "R10 MGR Nagar Police Station", "reference": "ChIJr9EG_iZnUjoRvNky-_dHDqE", "geometry": {"location": {"lat": 13.0311075, "lng": 80.2017321}, "viewport": {"northeast": {"lat": 13.0324640302915, "lng": 80.2030326302915}, "southwest": {"lat": 13.0297660697085, "lng": 80.2003346697085}}}, "opening_hours": {"open_now": true}, "place_id": "ChIJr9EG_iZnUjoRvNky-_dHDqE", "plus_code": {"global_code": "7M5226J2+CM", "compound_code": "26J2+CM Chennai, Tamil Nadu, India"}, "vicinity": "Guru Siva Street, Sapthagiri Colony, West Jafferkhanpet, Chennai", "photos": [{"photo_reference": "ATtYBwKP2K_Amya6Kts-hLKfssf6dgm31b-bWX5WoYd7TjTRXOAlgSynoDir0NJY-nQ66-E817fbOiFId9fR1d02X-6dQ_Ad9kOecbdeFYW20VPwj-_wet16Wj6Z4yp0QiS5iCAKgwpJ1vffFoBTvCmbc0mCpm2nxgpvhP1jZ7WpKAef_yc9", "width": 2340, "html_attributions": ["<a href=\"https://maps.google.com/maps/contrib/106563793236625205707\">Senthil Kumar</a>"], "height": 4160}], "scope": "GOOGLE", "business_status": "OPERATIONAL", "types": ["police", "point_of_interest", "establishment"], "icon": "https://maps.gstatic.com/mapfiles/place_api/icons/v1/png_71/police-71.png"}, {"rating": 3, "user_ratings_total": 4, "name": "R 5 Virugambakkam Police Booth", "reference": "ChIJwe9EgMRmUjoRK0oeua7A3wU", "geometry": {"location": {"lat": 13.0481786, "lng": 80.20412069999999}, "viewport": {"northeast": {"lat": 13.0494720802915, "lng": 80.20548683029149}, "southwest": {"lat": 13.0467741197085, "lng": 80.20278886970848}}}, "opening_hours": {"open_now": true}, "place_id": "ChIJwe9EgMRmUjoRK0oeua7A3wU", "plus_code": {"global_code": "7M5226X3+7J", "compound_code": "26X3+7J Chennai, Tamil Nadu, India"}, "vicinity": "Arcot Road, Saligramam, Chennai", "photos": [{"photo_reference": "ATtYBwIovdXh3ovJiL3bmqDCbjecfABjRR803I9H74k5qLLMsBPZoio8ze7Z-VBv4TI29d25N2Wa6UIppXZJvG4RHEvnB1bRq0bhklfUo4usyfpeJrsCV1AiYFK9757LXfnoWpxc-2smiJuOtUY6Dip07gDqC1h1NPnK0-GDGLJmh45HjDil", "width": 1536, "html_attributions": ["<a href=\"https://maps.google.com/maps/contrib/118070305515646382567\">Kannan Esakki</a>"], "height": 2048}], "scope": "GOOGLE", "business_status": "OPERATIONAL", "types": ["police", "point_of_interest", "establishment"], "icon": "https://maps.gstatic.com/mapfiles/place_api/icons/v1/png_71/police-71.png"}, {"rating": 4, "user_ratings_total": 19, "name": "R-5 Virugambakkam Police Station", "reference": "ChIJCYW7jcVmUjoRSVA8Bsvq-_0", "geometry": {"location": {"lat": 13.0496544, "lng": 80.1993286}, "viewport": {"northeast": {"lat": 13.0510000302915, "lng": 80.20056673029151}, "southwest": {"lat": 13.0483020697085, "lng": 80.19786876970849}}}, "opening_hours": {"open_now": false}, "place_id": "ChIJCYW7jcVmUjoRSVA8Bsvq-_0", "plus_code": {"global_code": "7M5225XX+VP", "compound_code": "25XX+VP Chennai, Tamil Nadu, India"}, "vicinity": "Abbusali Street, Saligramam, Chennai", "photos": [{"photo_reference": "ATtYBwJ8EaYYOws6MBktMm78haeFPh5AIivPM7MGa-IiuhiYfZMXcpFsPi9tV2E3kWH21i8VczdO21js3H9e36aXb9-Y3hGcApyMaPOGpHzZNzBDNFhj8SCaV-hzynw8g2V604_HJLU0jQDDWt96nYVNCqLwgVNZAO71cWFJKz_7ivzyzu4", "width": 4160, "html_attributions": ["<a href=\"https://maps.google.com/maps/contrib/102651528048557633874\">suresh kumar</a>"], "height": 2340}], "scope": "GOOGLE", "business_status": "OPERATIONAL", "types": ["police", "point_of_interest", "establishment"], "icon": "https://maps.gstatic.com/mapfiles/place_api/icons/v1/png_71/police-71.png"}, {"rating": 5, "user_ratings_total": 1, "name": "Traffic Police Booth", "reference": "ChIJJ44jCeBmUjoRSReSQdxyNto", "geometry": {"location": {"lat": 13.035208, "lng": 80.2101024}, "viewport": {"northeast": {"lat": 13.0365352802915, "lng": 80.2114307302915}, "southwest": {"lat": 13.0338373197085, "lng": 80.20873276970849}}}, "place_id": "ChIJJ44jCeBmUjoRSReSQdxyNto", "plus_code": {"global_code": "7M5226P6+32", "compound_code": "26P6+32 Chennai, Tamil Nadu, India"}, "vicinity": "Zaffarkhanpet, Ashok Nagar, Chennai", "photos": [{"photo_reference": "ATtYBwLJaLKIXtbPUU-JH-XcVKRxjcNxIO25CtmF4HZFPYnhtfKpctrYl5HgyT2ZxeAzhABr5hTC5LOal6bh3cIhHrEMFx2ZJ8OBgxsaP_vBupTXeufgxVSuObJI5JHYGzNixc-4OJIjBeEf6UpjPseKKraLxjhjvYCq606V-fNzCDBEif0E", "width": 2048, "html_attributions": ["<a href=\"https://maps.google.com/maps/contrib/118070305515646382567\">Kannan Esakki</a>"], "height": 1536}], "scope": "GOOGLE", "business_status": "OPERATIONAL", "types": ["police", "point_of_interest", "establishment"], "icon": "https://maps.gstatic.com/mapfiles/place_api/icons/v1/png_71/police-71.png"}, {"name": "Police Help Center R-8 Vadapalani Police Station", "reference": "ChIJ8z4grcNmUjoRj90mWu930xg", "geometry": {"location": {"lat": 13.0489455, "lng": 80.2069501}, "viewport": {"northeast": {"lat": 13.0503016802915, "lng": 80.20829628029149}, "southwest": {"lat": 13.0476037197085, "lng": 80.20559831970849}}}, "place_id": "ChIJ8z4grcNmUjoRj90mWu930xg", "plus_code": {"global_code": "7M5226X4+HQ", "compound_code": "26X4+HQ Chennai, Tamil Nadu, India"}, "vicinity": "Arcot Road, Vadapalani, Chennai", "photos": [{"photo_reference": "ATtYBwJ0lX6IfPJEYA39hQh_MCV6eCL9qu1G1J8_oXMntgG16orEfBAWc-PkBzfC1mVB3rgGfch6YiL53OOTWkv81sUMKZhDsYjPy41n9gFLzOTQlA1CBjverhvVYpWoD0E5Z5tPBq7uxc5VbewZzEymeC-R69QCnjpYfGlhMlD9Suc8dj1A", "width": 1536, "html_attributions": ["<a href=\"https://maps.google.com/maps/contrib/118070305515646382567\">Kannan Esakki</a>"], "height": 2048}], "scope": "GOOGLE", "business_status": "OPERATIONAL", "types": ["police", "point_of_interest", "establishment"], "icon": "https://maps.gstatic.com/mapfiles/place_api/icons/v1/png_71/police-71.png"}]}