{"status": "OK", "html_attributions": [], "results": [{"name": "Police Outpost", "reference": "ChIJJZowhwZkUjoRACp6MqvOTUg", "geometry": {"location": {"lat": 13.0876139, "lng": 80.19269589999999}, "viewport": {"northeast": {"lat": 13.0888767302915, "lng": 80.1940356302915}, "southwest": {"lat": 13.0861787697085, "lng": 80.19133766970847}}}, "place_id": "ChIJJZowhwZkUjoRACp6MqvOTUg", "plus_code": {"global_code": "7M5235QV+23", "compound_code": "35QV+23 Chennai, Tamil Nadu, India"}, "vicinity": "Ambattur Estate Road, Anna Nagar West, Anna Nagar West Extension, Chennai", "scope": "GOOGLE", "business_status": "OPERATIONAL", "types": ["police", "point_of_interest", "establishment"], "icon": "https://maps.gstatic.com/mapfiles/place_api/icons/v1/png_71/police-71.png"}, {"rating": 3.8, "user_ratings_total": 10, "name": "Police Station", "reference": "ChIJTXKerbxmUjoRWQUxBHzfHp0", "geometry": {"location": {"lat": 13.0685635, "lng": 80.20462359999999}, "viewport": {"northeast": {"lat": 13.0699565802915, "lng": 80.20605933029151}, "southwest": {"lat": 13.0672586197085, "lng": 80.2033613697085}}}, "place_id": "ChIJTXKerbxmUjoRWQUxBHzfHp0", "plus_code": {"global_code": "7M523693+CR", "compound_code": "3693+CR Chennai, Tamil Nadu, India"}, "vicinity": "Koyambedu, Chennai", "photos": [{"photo_reference": "ATtYBwJxOqcbnkjhmoZtiaDGw5L37Kle5sqxylNNca9SVx86sF_hXHdyycaFrT92-zpn_FeeG4ZjciXjOAS7cCdI3CR5l7Qcl9BdjGbdYgZptiuBKv7TYABPO4ANtuuVEuJQ8DVRF-6QBlADCs8qivZHcbF41HU9bGev5aVW5AN7ctwySBkD", "width": 1536, "html_attributions": ["<a href=\"https://maps.google.com/maps/contrib/118070305515646382567\">Kannan Esakki</a>"], "height": 2048}], "scope": "GOOGLE", "business_status": "OPERATIONAL", "types": ["police", "point_of_interest", "establishment"], "icon": "https://maps.gstatic.com/mapfiles/place_api/icons/v1/png_71/police-71.png"}, {"rating": 2, "user_ratings_total": 1, "name": "Police Booth", "reference": "ChIJifCW5hxkUjoReVsNs-ELC1c", "geometry": {"location": {"lat": 13.0827013, "lng": 80.20032669999999}, "viewport": {"northeast": {"lat": 13.0840506802915, "lng": 80.2016356302915}, "southwest": {"lat": 13.0813527197085, "lng": 80.19893766970849}}}, "place_id": "ChIJifCW5hxkUjoReVsNs-ELC1c", "plus_code": {"global_code": "7M5236M2+34", "compound_code": "36M2+34 Chennai, Tamil Nadu, India"}, "vicinity": "13th Main Road, Shakti Colony, Block Z, Anna Nagar, Chennai", "photos": [{"photo_reference": "ATtYBwI6ByUrH23ZLf6U8mcA23DRysfRiuyH6QpqgwN2eDjGDMEiQOYFUaAjcDH8975UZYUNmrGuIoyD8sIAVb80Ej5ElTQgYYWd7JN-hSpESW2veCD_nm3tVZ1Q8xzSBgdeEq7Iq03q3s05Bj2xMfNpFcPcexo3-VV5g118g7Eg1Ngobbg7", "width": 3120, "html_attributions": ["<a href=\"https://maps.google.com/maps/contrib/118070305515646382567\">Kannan Esakki</a>"], "height": 4160}], "scope": "GOOGLE", "business_status": "OPERATIONAL", "types": ["police", "point_of_interest", "establishment"], "icon": "https://maps.gstatic.com/mapfiles/place_api/icons/v1/png_71/police-71.png"}, {"name": "Great Southern Trunk Road", "reference": "ChIJSfCeL6ZmUjoRg9LlNaGmtq0", "geometry": {"location": {"lat": 13.0759502, "lng": 80.19920119999999}, "viewport": {"northeast": {"lat": 13.0773022302915, "lng": 80.2005702302915}, "southwest": {"lat": 13.0746042697085, "lng": 80.1978722697085}}}, "place_id": "ChIJSfCeL6ZmUjoRg9LlNaGmtq0", "plus_code": {"global_code": "7M5235GX+9M", "compound_code": "35GX+9M Chennai, Tamil Nadu, India"}, "vicinity": "32, Great Southern 600107, Trunk Road, Virrugambakkam, Koyambedu, Chennai", "scope": "GOOGLE", "business_status": "OPERATIONAL", "types": ["police", "point_of_interest", "establishment"], "icon": "https://maps.gstatic.com/mapfiles/place_api/icons/v1/png_71/police-71.png"}, {"rating": 5, "user_ratings_total": 1, "name": "Arumbakkam Police Booth", "reference": "ChIJ0SS80KZmUjoRoyqI-RJBgNg", "geometry": {"location": {"lat": 13.0763262, "lng": 80.20360149999999}, "viewport": {"northeast": {"lat": 13.0777448802915, "lng": 80.20493238029151}, "southwest": {"lat": 13.0750469197085, "lng": 80.20223441970849}}}, "opening_hours": {"open_now": true}, "place_id": "ChIJ0SS80KZmUjoRoyqI-RJBgNg", "plus_code": {"global_code": "7M5236G3+GC", "compound_code": "36G3+GC Chennai, Tamil Nadu, India"}, "vicinity": "MMDA Main Road, K-8, Poonamallee High Road, Arumbakkam, Chennai", "photos": [{"photo_reference": "ATtYBwL6UZEE43A58BoGo49TBsB8yhmeBuZxLkcqiSiHCrsmt8a7eRJhj5vJDhknf5ZNMayyDIO_bvzsRTm3L1N6R56nPUO8hjeRByRiu_5QrajGDQGHjjsjhIu83xbb53Z58JuYyKWpAFclafBoiAI0ZnmqKuuO8mlc-pe6dCb5jQZMs57T", "width": 1536, "html_attributions": ["<a href=\"https://maps.google.com/maps/contrib/118070305515646382567\">Kannan Esakki</a>"], "height": 2048}], "scope": "GOOGLE", "business_status": "OPERATIONAL", "types": ["police", "point_of_interest", "establishment"], "icon": "https://maps.gstatic.com/mapfiles/place_api/icons/v1/png_71/police-71.png"}, {"rating": 4.5, "user_ratings_total": 96, "name": "We Shine Academy", "reference": "ChIJz0RSEFVlUjoRY6bBgyDxBzE", "geometry": {"location": {"lat": 13.0792876, "lng": 80.2075431}, "viewport": {"northeast": {"lat": 13.0805829302915, "lng": 80.2088916802915}, "southwest": {"lat": 13.0778849697085, "lng": 80.2061937197085}}}, "opening_hours": {"open_now": true}, "place_id": "ChIJz0RSEFVlUjoRY6bBgyDxBzE", "plus_code": {"global_code": "7M5236H5+P2", "compound_code": "36H5+P2 Chennai, Tamil Nadu, India"}, "vicinity": "Anna Arch Road, Anna Nagar 10th main road Ak Block, Annanagar East , Near Amma Unavagam Contact 7448889852, 7448442266, Chennai", "photos": [{"photo_reference": "ATtYBwLKhH35Cy_sJLeqg-UZSet3YJTSqtD0PpH5-3x_xRZQHh3OZmyHgAqztSAExq7KGZ2qoywljWjdqGWnGEC41mTnyO-XsUBzFfXlmcYH9IOcDPvAPKEP5qv7oY-yJo7raCIxqeP5iJLXQdya5lCalIqAZ5zBqcb2o_2GNhzEhqre3cNN", "width": 2268, "html_attributions": ["<a href=\"https://maps.google.com/maps/contrib/102257845627695827383\">Dr Rishi Muni Dwivedi</a>"], "height": 2527}], "scope": "GOOGLE", "business_status": "OPERATIONAL", "types": ["police", "school", "health", "point_of_interest", "establishment"], "icon": "https://maps.gstatic.com/mapfiles/place_api/icons/v1/png_71/school-71.png"}, {"permanently_closed": true, "name": "J.RAJENDRAN", "reference": "ChIJcbIi7hpkUjoRzs981kfYddg", "geometry": {"location": {"lat": 13.089014, "lng": 80.2007143}, "viewport": {"northeast": {"lat": 13.0903314802915, "lng": 80.2020625802915}, "southwest": {"lat": 13.0876335197085, "lng": 80.19936461970849}}}, "place_id": "ChIJcbIi7hpkUjoRzs981kfYddg", "vicinity": "AP 568, 'H' Block, 19th Street, 16th Main Road, Anna Nagar West, Chennai", "scope": "GOOGLE", "business_status": "CLOSED_TEMPORARILY", "types": ["police", "point_of_interest", "establishment"], "icon": "https://maps.gstatic.com/mapfiles/place_api/icons/v1/png_71/school-71.png"}, {"rating": 3.9, "user_ratings_total": 37, "name": "K11 CMBT Police Booth", "reference": "ChIJuZuye6VmUjoRPlAftm8gYmA", "geometry": {"location": {"lat": 13.0705288, "lng": 80.1992236}, "viewport": {"northeast": {"lat": 13.0718776302915, "lng": 80.2005672302915}, "southwest": {"lat": 13.0691796697085, "lng": 80.19786926970849}}}, "place_id": "ChIJuZuye6VmUjoRPlAftm8gYmA", "plus_code": {"global_code": "7M5235CX+6M", "compound_code": "35CX+6M Chennai, Tamil Nadu, India"}, "vicinity": "Bus Terminus, Koyambedu Market East Road, Virrugambakkam, Koyambedu, Chennai", "photos": [{"photo_reference": "ATtYBwIXJV__aGCvQ1UgS5ppzk1pnDEtOqteLhR4vJ_SDPXNZASDnFpteqtSzFm8bJfw3yeuPpD01suHGWrUavxtKa8uMvAnngf1cjTisKkujtTMWv1Gt_pE53reKUcaumAjf8aEv_SNOSCnYtXd3Ui6cMUvUTHfNErHCOeXqYIfkozsyMrl", "width": 390, "html_attributions": ["<a href=\"https://maps.google.com/maps/contrib/108511632045116451314\">veera raghavan</a>"], "height": 478}], "scope": "GOOGLE", "business_status": "OPERATIONAL", "types": ["police", "point_of_interest", "establishment"], "icon": "https://maps.gstatic.com/mapfiles/place_api/icons/v1/png_71/police-71.png"}, {"rating": 3, "user_ratings_total": 1, "name": "K-10 Koyambedu Police Check Post", "reference": "ChIJNVWG8atmUjoRLVpFDAWodl4", "geometry": {"location": {"lat": 13.0740351, "lng": 80.1920507}, "viewport": {"northeast": {"lat": 13.0754251802915, "lng": 80.19340013029151}, "southwest": {"lat": 13.0727272197085, "lng": 80.1907021697085}}}, "place_id": "ChIJNVWG8atmUjoRLVpFDAWodl4", "plus_code": {"global_code": "7M5235FR+JR", "compound_code": "35FR+JR Chennai, Tamil Nadu, India"}, "vicinity": "Poonamallee High Road, Sathya Sai Nagar, Koyambedu, Chennai", "scope": "GOOGLE", "business_status": "OPERATIONAL", "types": ["police", "point_of_interest", "establishment"], "icon": "https://maps.gstatic.com/mapfiles/place_api/icons/v1/png_71/police-71.png"}, {"rating": 3.2, "user_ratings_total": 24, "name": "K-10 Police Station, Koyambedu", "reference": "ChIJp9B3FqVmUjoRdxI7dnyUR6c", "geometry": {"location": {"lat": 13.0696777, "lng": 80.200332}, "viewport": {"northeast": {"lat": 13.0710442302915, "lng": 80.2016994302915}, "southwest": {"lat": 13.0683462697085, "lng": 80.19900146970849}}}, "opening_hours": {"open_now": true}, "place_id": "ChIJp9B3FqVmUjoRdxI7dnyUR6c", "plus_code": {"global_code": "7M523692+V4", "compound_code": "3692+V4 Chennai, Tamil Nadu, India"}, "vicinity": "Koyembedu Market E Road, Kaliamman Koil Street, Chennai", "photos": [{"photo_reference": "ATtYBwLs3S6qkfPuw8JnGhSsYLT-GL9R7tgdnpfVdfC_oe7TqUkUahDSdrhI7B-dHvEY86t8W6i8UJD0rvWr322hjtTHarUkTOc99lbGHL33iLFgURFofKPGIBX1BQvDzOZVT07yQHV1cyVQi6H2PYSsvh7Y7iIIW1C4Y7C1PH-AjUy6ohPh", "width": 4160, "html_attributions": ["<a href=\"https://maps.google.com/maps/contrib/108013914158612247718\">\u0ba4\u0bae\u0bbf\u0bb4\u0bcd</a>"], "height": 3120}], "scope": "GOOGLE", "business_status": "OPERATIONAL", "types": ["police", "point_of_interest", "establishment"], "icon": "https://maps.gstatic.com/mapfiles/place_api/icons/v1/png_71/police-71.png"}, {"rating": 3.7, "user_ratings_total": 3, "name": "K-8 Arumbakkam Police Booth", "reference": "ChIJ8XjtcJ9mUjoRpLRAFwKE2jQ", "geometry": {"location": {"lat": 13.0765344, "lng": 80.2106167}, "viewport": {"northeast": {"lat": 13.0778857302915, "lng": 80.21194473029149}, "southwest": {"lat": 13.0751877697085, "lng": 80.20924676970849}}}, "place_id": "ChIJ8XjtcJ9mUjoRpLRAFwKE2jQ", "plus_code": {"global_code": "7M5236G6+J6", "compound_code": "36G6+J6 Chennai, Tamil Nadu, India"}, "vicinity": "K8, Near Water Tank, MMDA Colony, Arumbakkam, Chennai", "photos": [{"photo_reference": "ATtYBwJb-dsiZ-91VjaxvmXXa2UehyrXgE82HJ_ibU86zgd7vta1lxEXjQ06MvGr4KpVXRqrr6_pSuMozcPjOmiMvzTGOHsimg2ZYlOt30E65OSrPlVjRrPhyWSb76zyjW45fZwLTQ_vgWCnxltF1ulsFdpFHJnKZ82gn41jZHOFYROErc2z", "width": 3096, "html_attributions": ["<a href=\"https://maps.google.com/maps/contrib/115495803180427375201\">KRISHNA R</a>"], "height": 4128}], "scope": "GOOGLE", "business_status": "OPERATIONAL", "types": ["police", "point_of_interest", "establishment"], "icon": "https://maps.gstatic.com/mapfiles/place_api/icons/v1/png_71/police-71.png"}]}