{"status": "OK", "html_attributions": [], "results": [{"rating": 3.8, "user_ratings_total": 6, "name": "Govt Primary School,Jubilee Hills-Masthan Nagar", "reference": "ChIJ92GUp0-RyzsRwMecV2ElqGo", "geometry": {"location": {"lat": 17.432415, "lng": 78.398251}, "viewport": {"northeast": {"lat": 17.4337256802915, "lng": 78.39958468029151}, "southwest": {"lat": 17.4310277197085, "lng": 78.39688671970849}}}, "opening_hours": {"open_now": false}, "place_id": "ChIJ92GUp0-RyzsRwMecV2ElqGo", "plus_code": {"global_code": "7J9WC9JX+X8", "compound_code": "C9JX+X8 Hyderabad, Telangana, India"}, "vicinity": "2-95-C-517, Masthan Nagar, CBI Colony, Jubilee Hills, Hyderabad", "photos": [{"photo_reference": "ATtYBwL_vEJMe9yVcX7zM1Lxa_iZyrNm6mZprZmJ_2G5n2eYSMqoG7YLQRr2sF0uJ_bV8voiwNOW-uNMYqcZefhTs2MXF8c_RCoHJHTpe5IJ1-T85XNpQ92F2EjGsqkojdeGIjNvl2Pfpbgxpy5wZC0cqF2rIk7At2XQ3wJGvTnWleN-vYN3", "width": 3456, "html_attributions": ["<a href=\"https://maps.google.com/maps/contrib/104489865660240689657\">Anshul Singhal</a>"], "height": 5184}], "scope": "GOOGLE", "business_status": "OPERATIONAL", "types": ["school", "point_of_interest", "establishment"], "icon": "https://maps.gstatic.com/mapfiles/place_api/icons/v1/png_71/school-71.png"}, {"rating": 4.4, "user_ratings_total": 18, "permanently_closed": true, "name": "Walden's Path School", "reference": "ChIJf7VpYzeRyzsRJnTzgql6k3U", "geometry": {"location": {"lat": 17.4302131, "lng": 78.3951366}, "viewport": {"northeast": {"lat": 17.4317263302915, "lng": 78.39649898029151}, "southwest": {"lat": 17.4290283697085, "lng": 78.3938010197085}}}, "place_id": "ChIJf7VpYzeRyzsRJnTzgql6k3U", "plus_code": {"global_code": "7J9WC9JW+33", "compound_code": "C9JW+33 Hyderabad, Telangana, India"}, "vicinity": "Plot No, 909, Road Number 46, Jubilee Hills, Hyderabad", "photos": [{"photo_reference": "ATtYBwLUeUYdnxH5Lpxwmn7cW01Y6tAYmXYVR1-4KsJNaWFPjqr-D2pQKdcV1g-vceJXzZDXdloMKi0hia1a6Ooc1ZasYfWX71raJgxSArQF2FmDW8w__xrq5PdZk0Yi5ekHr0Pv63Q7V_BlpwRcAfQXrnyys9WMqh2HRFyu2ttWVjz0QO3V", "width": 3008, "html_attributions": ["<a href=\"https://maps.google.com/maps/contrib/100695968680646357170\">Waldens Path</a>"], "height": 2008}], "scope": "GOOGLE", "business_status": "CLOSED_TEMPORARILY", "types": ["school", "point_of_interest", "establishment"], "icon": "https://maps.gstatic.com/mapfiles/place_api/icons/v1/png_71/school-71.png"}, {"rating": 5, "user_ratings_total": 1, "name": "MyVClasses", "reference": "ChIJeaWuJGaRyzsRhgPuWqdA3MA", "geometry": {"location": {"lat": 17.449938, "lng": 78.39491199999999}, "viewport": {"northeast": {"lat": 17.4512233302915, "lng": 78.39626553029149}, "southwest": {"lat": 17.4485253697085, "lng": 78.39356756970848}}}, "opening_hours": {"open_now": false}, "place_id": "ChIJeaWuJGaRyzsRhgPuWqdA3MA", "plus_code": {"global_code": "7J9WC9XV+XX", "compound_code": "C9XV+XX Madhapur, Telangana, India"}, "vicinity": "#203, Plot No:1043, Road No : 52A, KTR Colony, Ayyappa Society, Madhapur", "photos": [{"photo_reference": "ATtYBwJAL3LHfk95Rf00z0eTyQgR5-Rxqua0iufiRZhJ4KZ_IlkZ70JfG4eeWx86AHTnqUBXrVNbhmue8fNoIH6ja4MGx6wpsQ8e3FralZ2es6QeVCsQVUaz4WKvsBrtfbcr-ZPOAOtW45z7LQyV74VnhKA1TQtHz7PffGJxB7832IDX4MBi", "width": 1200, "html_attributions": ["<a href=\"https://maps.google.com/maps/contrib/117484699562171146251\">MyVClasses</a>"], "height": 600}], "scope": "GOOGLE", "business_status": "OPERATIONAL", "types": ["secondary_school", "school", "point_of_interest", "establishment"], "icon": "https://maps.gstatic.com/mapfiles/place_api/icons/v1/png_71/school-71.png"}, {"rating": 5, "user_ratings_total": 1, "name": "SIP - Madhapur", "reference": "ChIJ6_imwgebyzsRYpaKfgW1ntc", "geometry": {"location": {"lat": 17.4472311, "lng": 78.3805148}, "viewport": {"northeast": {"lat": 17.4485684802915, "lng": 78.3818608302915}, "southwest": {"lat": 17.4458705197085, "lng": 78.37916286970848}}}, "place_id": "ChIJ6_imwgebyzsRYpaKfgW1ntc", "plus_code": {"global_code": "7J9WC9WJ+V6", "compound_code": "C9WJ+V6 Hyderabad, Telangana, India"}, "vicinity": "Patrika Nagar Road Number 3, HUDA Techno Enclave, HITEC City, Hyderabad", "scope": "GOOGLE", "business_status": "OPERATIONAL", "types": ["school", "primary_school", "point_of_interest", "establishment"], "icon": "https://maps.gstatic.com/mapfiles/place_api/icons/v1/png_71/school-71.png"}, {"name": "The Loharu Montessori Children's House", "reference": "ChIJX4eYE0-RyzsRceT3AZ_H2LU", "geometry": {"location": {"lat": 17.4328926, "lng": 78.3993754}, "viewport": {"northeast": {"lat": 17.4343006802915, "lng": 78.40066058029151}, "southwest": {"lat": 17.4316027197085, "lng": 78.39796261970851}}}, "place_id": "ChIJX4eYE0-RyzsRceT3AZ_H2LU", "plus_code": {"global_code": "7J9WC9MX+5Q", "compound_code": "C9MX+5Q Hyderabad, Telangana, India"}, "vicinity": "869, CBI Colony, Jubilee Hills, Hyderabad", "scope": "GOOGLE", "business_status": "OPERATIONAL", "types": ["school", "point_of_interest", "establishment"], "icon": "https://maps.gstatic.com/mapfiles/place_api/icons/v1/png_71/school-71.png"}, {"rating": 4.8, "user_ratings_total": 98, "permanently_closed": true, "name": "KLAY Preschool and DayCare - Mindspace, Hitech City", "reference": "ChIJT95Tr-CTyzsRRxdsqRjHiBA", "geometry": {"location": {"lat": 17.444619, "lng": 78.379237}, "viewport": {"northeast": {"lat": 17.4460872302915, "lng": 78.38059103029151}, "southwest": {"lat": 17.4433892697085, "lng": 78.37789306970849}}}, "place_id": "ChIJT95Tr-CTyzsRRxdsqRjHiBA", "plus_code": {"global_code": "7J9WC9VH+RM", "compound_code": "C9VH+RM Hyderabad, Telangana, India"}, "vicinity": "Ground floor, 2B Maximus Towers Raheja Mindspace, HITEC City, Hyderabad", "photos": [{"photo_reference": "ATtYBwICapZ3uJsgJLwfXP0GyXcTuFNau8YjiFn4F6rUtT5Hbl5OYYZ4Axzf6-W4RME44oJ-GElAzW5e4_j_ULjQVv3xY2jOVc1OjvSAyRgZSznLQxAQ_xGRrCoPFOVRPh-q1p0blerWM8q3ttBXs-smCRgJl3M9tccRVNq2XzOkoo2wDnqf", "width": 4160, "html_attributions": ["<a href=\"https://maps.google.com/maps/contrib/115606480580848900200\">Rakesh Rajalwal</a>"], "height": 3120}], "scope": "GOOGLE", "business_status": "CLOSED_TEMPORARILY", "types": ["school", "point_of_interest", "establishment"], "icon": "https://maps.gstatic.com/mapfiles/place_api/icons/v1/png_71/school-71.png"}, {"rating": 5, "user_ratings_total": 2, "name": "Sri Chaitanya Medical College Baskara Bhavan", "reference": "ChIJZSZsVmGRyzsRU1zaYdZIH4E", "geometry": {"location": {"lat": 17.4513527, "lng": 78.3894964}, "viewport": {"northeast": {"lat": 17.4526982802915, "lng": 78.3908163302915}, "southwest": {"lat": 17.4500003197085, "lng": 78.3881183697085}}}, "place_id": "ChIJZSZsVmGRyzsRU1zaYdZIH4E", "plus_code": {"global_code": "7J9WF92Q+GQ", "compound_code": "F92Q+GQ Madhapur, Telangana, India"}, "vicinity": "500081, VIP Hills, Silicon Valley, Madhapur", "scope": "GOOGLE", "business_status": "OPERATIONAL", "types": ["school", "point_of_interest", "establishment"], "icon": "https://maps.gstatic.com/mapfiles/place_api/icons/v1/png_71/school-71.png"}, {"permanently_closed": true, "name": "Glendale Edufun", "reference": "ChIJYzT4HmSRyzsRAnj-XEXOsAU", "geometry": {"location": {"lat": 17.4516507, "lng": 78.3910439}, "viewport": {"northeast": {"lat": 17.4529962302915, "lng": 78.3923587302915}, "southwest": {"lat": 17.4502982697085, "lng": 78.3896607697085}}}, "place_id": "ChIJYzT4HmSRyzsRAnj-XEXOsAU", "plus_code": {"global_code": "7J9WF92R+MC", "compound_code": "F92R+MC Hyderabad, Telangana, India"}, "vicinity": "Plot No.329, Near Ayappa Housing Society,(YSR Statue) Opposite Avi's Barbeque, M, Hyderabad", "photos": [{"photo_reference": "ATtYBwKq1Lw70Lpkq-JhiEKaDP_M6LY8-cNNBqcbU9pOBpYnj2envtpOqVlP66P5HAvjUr6_DOE6XxRHAjkLIRq13xhFfgJ_MWu3hTdkcVsKI_28TukzDFAfcqby2kFPL8HiasKoXOiSgy2-G5PDoEvR6iRZREFumHLQQ9P6_eAsK5hy_rs-", "width": 1340, "html_attributions": ["<a href=\"https://maps.google.com/maps/contrib/106132505468611392354\">Glendale Edufun</a>"], "height": 964}], "scope": "GOOGLE", "business_status": "CLOSED_TEMPORARILY", "types": ["school", "point_of_interest", "establishment"], "icon": "https://maps.gstatic.com/mapfiles/place_api/icons/v1/png_71/school-71.png"}, {"rating": 4.9, "user_ratings_total": 17, "permanently_closed": true, "name": "Esperanza Preschool & 24x7 Childcare", "reference": "ChIJx2SO_t2TyzsR2SBOaWD_YOI", "geometry": {"location": {"lat": 17.445509, "lng": 78.37905599999999}, "viewport": {"northeast": {"lat": 17.4468045302915, "lng": 78.3803812302915}, "southwest": {"lat": 17.4441065697085, "lng": 78.37768326970848}}}, "place_id": "ChIJx2SO_t2TyzsR2SBOaWD_YOI", "plus_code": {"global_code": "7J9WC9WH+6J", "compound_code": "C9WH+6J Hyderabad, Telangana, India"}, "vicinity": "MSR Arcade, Hi-Tech City Patrika Nagar, Madhapur, Hyderabad", "photos": [{"photo_reference": "ATtYBwL7zoQ5sJHS2hoqahXfMA91ZYCkH80iOEuyyqVPTis7C22OQpkjqUhYYS8TYy-6Ut0W3IU0uQ-3zdvQoaMVCk_rvpnyp8h884WH5hUcH3fPpDys2B3bNSjaOoLaUG10u4PlsO-xW4XQFStuvCt_wej0QF9ifFu6S_MPXE2q2mjcEETT", "width": 1920, "html_attributions": ["<a href=\"https://maps.google.com/maps/contrib/110052733790540827435\">gangadhar panday</a>"], "height": 1080}], "scope": "GOOGLE", "business_status": "CLOSED_TEMPORARILY", "types": ["school", "point_of_interest", "establishment"], "icon": "https://maps.gstatic.com/mapfiles/place_api/icons/v1/png_71/school-71.png"}, {"rating": 3.8, "user_ratings_total": 100, "name": "CGR International School", "reference": "ChIJnbynPWaRyzsRfSKOu9l0pLw", "geometry": {"location": {"lat": 17.443326, "lng": 78.39092169999999}, "viewport": {"northeast": {"lat": 17.4446749802915, "lng": 78.3922706802915}, "southwest": {"lat": 17.4419770197085, "lng": 78.3895727197085}}}, "opening_hours": {"open_now": false}, "place_id": "ChIJnbynPWaRyzsRfSKOu9l0pLw", "plus_code": {"global_code": "7J9WC9VR+89", "compound_code": "C9VR+89 Hyderabad, Telangana, India"}, "vicinity": "Plot no 99 &100 Ayyappa Society, 60 ft, Madhapur Road, Hyderabad", "photos": [{"photo_reference": "ATtYBwLhSherzbdeB8DIWBAL0ymGnbIRy7KIVGc__Dai4NL4n_pd87tFUQHQDHh8IRHT4zRYRp2u2SdqXwUvr0JHmYx-pNPQUT2Vc-adH15-knJ-RlDFvUzEQHjBsvdNXbzWz507G4BwwiSs_N3ARUDnQIghSby4dzhWffuaIJw_-1uTqsEG", "width": 6720, "html_attributions": ["<a href=\"https://maps.google.com/maps/contrib/115589668375747077372\">CGR International School</a>"], "height": 4480}], "scope": "GOOGLE", "business_status": "OPERATIONAL", "types": ["school", "point_of_interest", "establishment"], "icon": "https://maps.gstatic.com/mapfiles/place_api/icons/v1/png_71/school-71.png"}, {"rating": 4.7, "user_ratings_total": 30, "name": "Medintu - Online Doctor Video Consultation App, Blood test at home", "reference": "ChIJiw-iG2eRyzsRnlYvKV6Lgso", "geometry": {"location": {"lat": 17.4525742, "lng": 78.3897507}, "viewport": {"northeast": {"lat": 17.45391918029151, "lng": 78.3911371302915}, "southwest": {"lat": 17.4512212197085, "lng": 78.38843916970849}}}, "opening_hours": {"open_now": true}, "place_id": "ChIJiw-iG2eRyzsRnlYvKV6Lgso", "plus_code": {"global_code": "7J9WF93Q+2W", "compound_code": "F93Q+2W Madhapur, Telangana, India"}, "vicinity": "Plot 470 & 471, Northeast Avenue Building 1st-floor, Ayyappa Society Main Road, Madhapur", "photos": [{"photo_reference": "ATtYBwKb2-KLaOYUclM8EfdS7uUxKDJ15RWxoEmeYdU5RFHBLLk48KjBgXN1tleWPdx__f4_BKhPmmJeIxMO7-qwuz70tRSEhHNKMZer8Qp1iQN8JYFUJ-53ATXVmvDRPJmIfsX08NPGnFa6KjHfNoePYq4HUEufc77Va1ZkO5yNdtiXNcH0", "width": 1080, "html_attributions": ["<a href=\"https://maps.google.com/maps/contrib/116415203580564959175\">Medintu - Online Doctor Video Consultation App, Blood test at home</a>"], "height": 608}], "scope": "GOOGLE", "business_status": "OPERATIONAL", "types": ["physiotherapist", "doctor", "dentist", "school", "health", "point_of_interest", "establishment"], "icon": "https://maps.gstatic.com/mapfiles/place_api/icons/v1/png_71/generic_business-71.png"}, {"rating": 4.9, "user_ratings_total": 7, "name": "EuroKids Preschool Madhapur, Best Kindergarten in Hyderabad", "reference": "ChIJuaIVeQ-ayzsRJZCpFyq2DNk", "geometry": {"location": {"lat": 17.4470101, "lng": 78.3869835}, "viewport": {"northeast": {"lat": 17.4483535302915, "lng": 78.38837303029152}, "southwest": {"lat": 17.4456555697085, "lng": 78.3856750697085}}}, "place_id": "ChIJuaIVeQ-ayzsRJZCpFyq2DNk", "plus_code": {"global_code": "7J9WC9WP+RQ", "compound_code": "C9WP+RQ Madhapur, Telangana, India"}, "vicinity": "H No 1-98/5/13/1 Arunodhaya Colony Hitech City, Madhapur", "photos": [{"photo_reference": "ATtYBwL9JqI0zYD-d2Y3SGkFPnCbA-akyA84N3VfUhF2VRyWs0PmR1dNr0IEAEx3Uo5ZF1Btbli7pQLTd68HRHYggAPFxpqBK8nOQppS6J6Rc7kOnrdRJzasUafl1qwvqA_XBAbSqMZHhCgIRRa_ietGrL2HWe2StaHDoz7IluVeGvnP75aF", "width": 5184, "html_attributions": ["<a href=\"https://maps.google.com/maps/contrib/111210469135548680513\">EuroKids Preschool Madhapur, Best Kindergarten in Hyderabad</a>"], "height": 3456}], "scope": "GOOGLE", "business_status": "OPERATIONAL", "types": ["school", "point_of_interest", "establishment"], "icon": "https://maps.gstatic.com/mapfiles/place_api/icons/v1/png_71/school-71.png"}, {"rating": 4, "user_ratings_total": 18, "name": "Zphs School Madhapur Mandal", "reference": "ChIJ52yA3l6RyzsRIqNMtyk9p1k", "geometry": {"location": {"lat": 17.44094849999999, "lng": 78.38694559999999}, "viewport": {"northeast": {"lat": 17.4423230302915, "lng": 78.38829633029151}, "southwest": {"lat": 17.4396250697085, "lng": 78.3855983697085}}}, "place_id": "ChIJ52yA3l6RyzsRIqNMtyk9p1k", "plus_code": {"global_code": "7J9WC9RP+9Q", "compound_code": "C9RP+9Q Gafoornagar, Telangana, India"}, "vicinity": "Vittal Rao Nagar, HITEC City, Gafoornagar", "photos": [{"photo_reference": "ATtYBwLyQOBqWh9wuWNaH3PL4rDYMgcfYNsOSm0-VohuG8Z1r7K4a7RTXCMU305L2ITqNFOmMfDqFM6rhI6F6UH8pr8APL1hdkg7G3sP2b241TUcA5clbkNF8c23R-SfxpwIAcFTbyDOqS9k9O7dDObAaHW2L7SZz7yhiUMA4fqx1nRZSXvC", "width": 4032, "html_attributions": ["<a href=\"https://maps.google.com/maps/contrib/113289990856487295239\">Raghavendra Kvm</a>"], "height": 3024}], "scope": "GOOGLE", "business_status": "OPERATIONAL", "types": ["school", "point_of_interest", "establishment"], "icon": "https://maps.gstatic.com/mapfiles/place_api/icons/v1/png_71/school-71.png"}, {"rating": 4.4, "user_ratings_total": 135, "name": "Bhavan's Atmakuri Rama Rao School", "reference": "ChIJiYDQlE-RyzsRczQyU2lNQH0", "geometry": {"location": {"lat": 17.4331374, "lng": 78.39714359999999}, "viewport": {"northeast": {"lat": 17.4343815802915, "lng": 78.3984974802915}, "southwest": {"lat": 17.4316836197085, "lng": 78.39579951970849}}}, "place_id": "ChIJiYDQlE-RyzsRczQyU2lNQH0", "plus_code": {"global_code": "7J9WC9MW+7V", "compound_code": "C9MW+7V Hyderabad, Telangana, India"}, "vicinity": "Survey No.62, Guttala Begumpet, Road No. 45 (End), Jubilee Hills, Hyderabad", "photos": [{"photo_reference": "ATtYBwK81EjGdskNoJ7FYH9PdNCPh758gqF4zqJd-hXqYrqhoMYwZZHO2ilKxMez2-RBkdLI1D0hvEJmKPt0dJTflNPKi7PTWt2n2rCoapn3wVPm1wbezecJ75_krg16brkkqa9ahGBmVfBCb_kzf6YteNq7uJvbXWpXrq41uiljt7WHrpSl", "width": 2048, "html_attributions": ["<a href=\"https://maps.google.com/maps/contrib/113612474124314376154\">Rambabu Kaipa</a>"], "height": 1152}], "scope": "GOOGLE", "business_status": "OPERATIONAL", "types": ["school", "point_of_interest", "establishment"], "icon": "https://maps.gstatic.com/mapfiles/place_api/icons/v1/png_71/school-71.png"}, {"name": "Sri Chaithanya Bharathi Campus", "reference": "ChIJlTNIFFyRyzsRVBSUwfYUE9Y", "geometry": {"location": {"lat": 17.4408121, "lng": 78.391232}, "viewport": {"northeast": {"lat": 17.4422533302915, "lng": 78.39259823029151}, "southwest": {"lat": 17.4395553697085, "lng": 78.3899002697085}}}, "place_id": "ChIJlTNIFFyRyzsRVBSUwfYUE9Y", "plus_code": {"global_code": "7J9WC9RR+8F", "compound_code": "C9RR+8F Madhapur, Telangana, India"}, "vicinity": "2-52/1/3, Hitech City Road, Phase 2, Kavuri Hills, Madhapur", "scope": "GOOGLE", "business_status": "OPERATIONAL", "types": ["school", "point_of_interest", "establishment"], "icon": "https://maps.gstatic.com/mapfiles/place_api/icons/v1/png_71/school-71.png"}, {"rating": 5, "user_ratings_total": 2, "name": "Ace Tennis Academy", "reference": "ChIJDzBIFFyRyzsRKXA2Y-WQq4I", "geometry": {"location": {"lat": 17.4411482, "lng": 78.3910691}, "viewport": {"northeast": {"lat": 17.4425332802915, "lng": 78.3924281302915}, "southwest": {"lat": 17.4398353197085, "lng": 78.38973016970849}}}, "place_id": "ChIJDzBIFFyRyzsRKXA2Y-WQq4I", "plus_code": {"global_code": "7J9WC9RR+FC", "compound_code": "C9RR+FC Madhapur, Telangana, India"}, "vicinity": "Sri Sai Nagar, Madhapur", "scope": "GOOGLE", "business_status": "OPERATIONAL", "types": ["school", "health", "point_of_interest", "establishment"], "icon": "https://maps.gstatic.com/mapfiles/place_api/icons/v1/png_71/school-71.png"}, {"rating": 5, "user_ratings_total": 2, "name": "Ramakrishna School", "reference": "ChIJTR6YDVyRyzsRrsbe68wTmNY", "geometry": {"location": {"lat": 17.4411482, "lng": 78.3910691}, "viewport": {"northeast": {"lat": 17.4425332802915, "lng": 78.3924281302915}, "southwest": {"lat": 17.4398353197085, "lng": 78.38973016970849}}}, "place_id": "ChIJTR6YDVyRyzsRrsbe68wTmNY", "vicinity": "1-98/A, Near Hitech Theater, Madhapur, Madhapur, Hyderabad", "scope": "GOOGLE", "business_status": "OPERATIONAL", "types": ["school", "point_of_interest", "establishment"], "icon": "https://maps.gstatic.com/mapfiles/place_api/icons/v1/png_71/school-71.png"}, {"rating": 4, "user_ratings_total": 8, "name": "Sharada School", "reference": "ChIJn-ipP1yRyzsRMoGYtjhfWwE", "geometry": {"location": {"lat": 17.4416499, "lng": 78.39170279999999}, "viewport": {"northeast": {"lat": 17.4430040302915, "lng": 78.3929931302915}, "southwest": {"lat": 17.44030606970849, "lng": 78.39029516970848}}}, "opening_hours": {"open_now": false}, "place_id": "ChIJn-ipP1yRyzsRMoGYtjhfWwE", "plus_code": {"global_code": "7J9WC9RR+MM", "compound_code": "C9RR+MM Madhapur, Telangana, India"}, "vicinity": "Ayyappa Society Road, Megha Hills, Sri Sai Nagar, Madhapur", "photos": [{"photo_reference": "ATtYBwLSESScma6_Nm1VyjtxWySjxBMFW-QR_EpDF5fv7gnoq_d6XWb2mP3tvgMoh-xvt_HONu3AQ7pf6Jt13vjHqZNTYuyyhC4t2lLWM7W12HXkTqqZaql-6r4klrV7VuvD5FKHAVZ2_qBqE-W0Kd5n3Iv70KDfr0Rh-r2uycQbY1NKE2To", "width": 1920, "html_attributions": ["<a href=\"https://maps.google.com/maps/contrib/108482149007458718833\">AJ &#39;s</a>"], "height": 1080}], "scope": "GOOGLE", "business_status": "OPERATIONAL", "types": ["school", "point_of_interest", "establishment"], "icon": "https://maps.gstatic.com/mapfiles/place_api/icons/v1/png_71/school-71.png"}, {"name": "Buzz Globe", "reference": "ChIJkUNOe1yRyzsRtCHRDP-gMDQ", "geometry": {"location": {"lat": 17.4406846, "lng": 78.39234739999999}, "viewport": {"northeast": {"lat": 17.4421180802915, "lng": 78.3937151802915}, "southwest": {"lat": 17.4394201197085, "lng": 78.39101721970847}}}, "opening_hours": {"open_now": false}, "place_id": "ChIJkUNOe1yRyzsRtCHRDP-gMDQ", "plus_code": {"global_code": "7J9WC9RR+7W", "compound_code": "C9RR+7W Madhapur, Telangana, India"}, "vicinity": "#202 Balaji residency 2-52/, 1/3, Hitech City Road, Phase 2, Kavuri Hills, Madhapur", "scope": "GOOGLE", "business_status": "OPERATIONAL", "types": ["school", "point_of_interest", "establishment"], "icon": "https://maps.gstatic.com/mapfiles/place_api/icons/v1/png_71/school-71.png"}, {"permanently_closed": true, "name": "Education Times", "reference": "ChIJJxRdRlyRyzsRcFIerp7GZEs", "geometry": {"location": {"lat": 17.4419826, "lng": 78.3915925}, "viewport": {"northeast": {"lat": 17.4433321302915, "lng": 78.39293043029151}, "southwest": {"lat": 17.4406341697085, "lng": 78.3902324697085}}}, "place_id": "ChIJJxRdRlyRyzsRcFIerp7GZEs", "plus_code": {"global_code": "7J9WC9RR+QJ", "compound_code": "C9RR+QJ Madhapur, Telangana, India"}, "vicinity": "Ayyappa Society Main Road, Megha Hills, Sri Sai Nagar, Madhapur", "scope": "GOOGLE", "business_status": "CLOSED_TEMPORARILY", "types": ["school", "point_of_interest", "establishment"], "icon": "https://maps.gstatic.com/mapfiles/place_api/icons/v1/png_71/school-71.png"}]}