{"status": "OK", "next_page_token": "ATtYBwJKeKcv-51U4W5pFYCm5VDlLV7sSf2hn-RoL74kBB3wCrST1-u3IvhwzHvT9wAKm3iTi5_Mq4XGATlUDIcOb6UxXvJuasfn-1J_HaxNCR942N3-qhmmym40iYyhtAv_mSFZWqhd0opXFTtQ648i3LvTRxb9NgoBOHqHn0qLa-ZFO7yjWHo3KXXCp7bBEuVFI3nXw5VYgCkna9Fxgi4AjNuoJ-v75UuQwU2Fon4VRN-dEb7DSw5OpHMkg7njzRV011bpH5tbn8T54iWWvCnzmXPm3LVnCrvsNrvflJ_rAa43ty1GgHx--6ME6zDdG1Igw1wiG4hOi6UHo9HYtXvyJdTW8GrDmqb0klV3OyWVPBkraYIOSSuPSRgh92_XlhscrgkOqPLoYZOOOEuSM0dsjI2W09FDhOmvIgukPlV67XqlQ0AoY10", "html_attributions": [], "results": [{"rating": 3.3, "user_ratings_total": 7, "name": "TIME KIDS Pre school Franchise Office", "reference": "ChIJ-UhvmjeXyzsRUYxOg1qYfi8", "geometry": {"location": {"lat": 17.455944, "lng": 78.506682}, "viewport": {"northeast": {"lat": 17.4572985302915, "lng": 78.5080054802915}, "southwest": {"lat": 17.4546005697085, "lng": 78.5053075197085}}}, "opening_hours": {"open_now": false}, "place_id": "ChIJ-UhvmjeXyzsRUYxOg1qYfi8", "plus_code": {"global_code": "7J9WFG44+9M", "compound_code": "FG44+9M Secunderabad, Telangana, India"}, "vicinity": "Plot No.19, Colony, Lalitha Nagar, West Marredpally, Secunderabad", "photos": [{"photo_reference": "ATtYBwJeDO7Ar38HB2KEyTB2AOnnp2mOH4TE3sWCC0Mtm0u4zAieuvJKl6OwrcCy5-D7az8UNBJAqBdHytKngDTIW4_PbRr6J-UadSq3jh2QSXYFLFjCbnjhBmxTFjazEs04Bm6DfUPef0g8KDHLirCR1YHhbb8JkQddZWHVGsR9VJtvSPIz", "width": 1500, "html_attributions": ["<a href=\"https://maps.google.com/maps/contrib/117235169536691005702\">TIME KIDS Pre school Franchise Office</a>"], "height": 600}], "scope": "GOOGLE", "business_status": "OPERATIONAL", "types": ["school", "point_of_interest", "establishment"], "icon": "https://maps.gstatic.com/mapfiles/place_api/icons/v1/png_71/school-71.png"}, {"rating": 4.7, "user_ratings_total": 33, "name": "PlaySchool Near Me - Strawberry Fields West Marredpally", "reference": "ChIJpRRtx0aayzsR2nP12fNAHio", "geometry": {"location": {"lat": 17.456654, "lng": 78.504544}, "viewport": {"northeast": {"lat": 17.4580210802915, "lng": 78.5058352802915}, "southwest": {"lat": 17.4553231197085, "lng": 78.5031373197085}}}, "opening_hours": {"open_now": false}, "place_id": "ChIJpRRtx0aayzsR2nP12fNAHio", "plus_code": {"global_code": "7J9WFG43+MR", "compound_code": "FG43+MR Secunderabad, Telangana, India"}, "vicinity": "Ishaq Colony, Karkhana, Secunderabad", "photos": [{"photo_reference": "ATtYBwIqdOnQV4yBiTFvZAd2dZ-e2ScZySvHQlFKzE159gls4qUU83TM0ydOrtwiDTQRrbebLEjTnqqJCo61-2WDFRb2NcI8ZyViWhnRiFlhgmKemAokX9DAvv9hXtjohX7vC50Hg_lQ1nEtyJ-pLr7bfBblliz1zJUDMMwKXzhOymxtmcLI", "width": 1280, "html_attributions": ["<a href=\"https://maps.google.com/maps/contrib/114885853985365612610\">saisujay vishwanatha</a>"], "height": 720}], "scope": "GOOGLE", "business_status": "OPERATIONAL", "types": ["primary_school", "school", "point_of_interest", "establishment"], "icon": "https://maps.gstatic.com/mapfiles/place_api/icons/v1/png_71/school-71.png"}, {"rating": 4, "user_ratings_total": 5, "name": "Kaushalya Global The Complete School", "reference": "ChIJXwG520eayzsRCO5BaHWztTo", "geometry": {"location": {"lat": 17.4543429, "lng": 78.5088399}, "viewport": {"northeast": {"lat": 17.45571453029151, "lng": 78.5101540302915}, "southwest": {"lat": 17.4530165697085, "lng": 78.5074560697085}}}, "opening_hours": {"open_now": false}, "place_id": "ChIJXwG520eayzsRCO5BaHWztTo", "plus_code": {"global_code": "7J9WFG35+PG", "compound_code": "FG35+PG Secunderabad, Telangana, India"}, "vicinity": "Sanjeevaiah Nagar, West Marredpally, Secunderabad", "scope": "GOOGLE", "business_status": "OPERATIONAL", "types": ["school", "point_of_interest", "establishment"], "icon": "https://maps.gstatic.com/mapfiles/place_api/icons/v1/png_71/school-71.png"}, {"name": "ROOTS TO WINGS MARREDPALLI", "reference": "ChIJDZn5-kaayzsRo4pBPkifYSQ", "geometry": {"location": {"lat": 17.4559345, "lng": 78.5059812}, "viewport": {"northeast": {"lat": 17.4573698802915, "lng": 78.5072918802915}, "southwest": {"lat": 17.4546719197085, "lng": 78.5045939197085}}}, "opening_hours": {"open_now": false}, "place_id": "ChIJDZn5-kaayzsRo4pBPkifYSQ", "plus_code": {"global_code": "7J9WFG44+99", "compound_code": "FG44+99 Secunderabad, Telangana, India"}, "vicinity": "Plot No.8, Lalitha Nagar, Opp AOC Gate, W Marredpalli, Secunderabad", "scope": "GOOGLE", "business_status": "OPERATIONAL", "types": ["school", "point_of_interest", "establishment"], "icon": "https://maps.gstatic.com/mapfiles/place_api/icons/v1/png_71/school-71.png"}, {"permanently_closed": true, "name": "T.I.M.E.Kids Adm.Office", "reference": "ChIJO-yQVkaayzsR7Ax7t5dbqKY", "geometry": {"location": {"lat": 17.455823, "lng": 78.50668399999999}, "viewport": {"northeast": {"lat": 17.4571813802915, "lng": 78.50798953029151}, "southwest": {"lat": 17.4544834197085, "lng": 78.50529156970849}}}, "place_id": "ChIJO-yQVkaayzsR7Ax7t5dbqKY", "plus_code": {"global_code": "7J9WFG44+8M", "compound_code": "FG44+8M Secunderabad, Telangana, India"}, "vicinity": "43, R K Nagar, West Marredpally, Secunderabad", "scope": "GOOGLE", "business_status": "CLOSED_TEMPORARILY", "types": ["school", "point_of_interest", "establishment"], "icon": "https://maps.gstatic.com/mapfiles/place_api/icons/v1/png_71/school-71.png"}, {"name": "Dayalbagh Educational Institute Distance Secunderabad", "reference": "ChIJjW5EtkeayzsR7bpbRfeHn5g", "geometry": {"location": {"lat": 17.4549464, "lng": 78.507775}, "viewport": {"northeast": {"lat": 17.4563143802915, "lng": 78.5091310302915}, "southwest": {"lat": 17.4536164197085, "lng": 78.50643306970849}}}, "place_id": "ChIJjW5EtkeayzsR7bpbRfeHn5g", "plus_code": {"global_code": "7J9WFG35+X4", "compound_code": "FG35+X4 Secunderabad, Telangana, India"}, "vicinity": "3-37-4, Lalitha Nagar, West Marredpally, Secunderabad", "scope": "GOOGLE", "business_status": "OPERATIONAL", "types": ["school", "point_of_interest", "establishment"], "icon": "https://maps.gstatic.com/mapfiles/place_api/icons/v1/png_71/school-71.png"}, {"rating": 3.7, "user_ratings_total": 11, "name": "Sri Aurobindo Montessori School", "reference": "ChIJMQ7VdEeayzsRRwMu3t-ez8Q", "geometry": {"location": {"lat": 17.453818, "lng": 78.506254}, "viewport": {"northeast": {"lat": 17.4551572802915, "lng": 78.50765758029151}, "southwest": {"lat": 17.4524593197085, "lng": 78.50495961970849}}}, "opening_hours": {"open_now": false}, "place_id": "ChIJMQ7VdEeayzsRRwMu3t-ez8Q", "plus_code": {"global_code": "7J9WFG34+GG", "compound_code": "FG34+GG Secunderabad, Telangana, India"}, "vicinity": "62,Krishnapuri Colony, West Marredpally Road, Krishnapuri Colony, West Marredpally, Secunderabad", "photos": [{"photo_reference": "ATtYBwInAU9PP-xBDPzCwE9B_arr661eOg67E-UbPe05EUx_m7nyctCq7_pCNk-6rDIIwe45ieMserMs_b_nfmOtkE11lG3w6Tsp4AzkTqmcmfywsbioYrlN_hraxTbtoj6TYnFeD_IT63e1L5NiJBZkhd_mqmKdgpiKOhzbw0cXzHIPN50", "width": 1635, "html_attributions": ["<a href=\"https://maps.google.com/maps/contrib/109982458862028005865\">Pradeep D</a>"], "height": 765}], "scope": "GOOGLE", "business_status": "OPERATIONAL", "types": ["school", "point_of_interest", "establishment"], "icon": "https://maps.gstatic.com/mapfiles/place_api/icons/v1/png_71/school-71.png"}, {"rating": 4.9, "user_ratings_total": 44, "name": "Clara Pre School", "reference": "ChIJt-KFIESayzsRyjt85M1e-E0", "geometry": {"location": {"lat": 17.4581191, "lng": 78.5041667}, "viewport": {"northeast": {"lat": 17.4594871302915, "lng": 78.50547328029151}, "southwest": {"lat": 17.4567891697085, "lng": 78.5027753197085}}}, "place_id": "ChIJt-KFIESayzsRyjt85M1e-E0", "plus_code": {"global_code": "7J9WFG53+6M", "compound_code": "FG53+6M Secunderabad, Telangana, India"}, "vicinity": "y phase, 1, Priya Colon Plot No. 15, S.C.B. No. 5-10-039, Priya Colony, Gruhalakshmi Colony, Karkhana, Secunderabad", "photos": [{"photo_reference": "ATtYBwKnD3l13HceD96jMiZT_danSeYgkrRsOWuVKbqjiKVhuW3jbRziI5yuGbo_jMhmfP0NUpRTWbWzrZy0Z7Tfw6pnaNsH8z96MhbC99e9JAsycfEK8VPaFVSAm91vJJPAeA8syrj57Yy2Ag27KtqxFGFOE5lU_GFZUHvmgywm-zJZxCI-", "width": 4288, "html_attributions": ["<a href=\"https://maps.google.com/maps/contrib/104109419875269670784\">Shuja Ahmed</a>"], "height": 2848}], "scope": "GOOGLE", "business_status": "OPERATIONAL", "types": ["school", "point_of_interest", "establishment"], "icon": "https://maps.gstatic.com/mapfiles/place_api/icons/v1/png_71/school-71.png"}, {"rating": 4.9, "user_ratings_total": 22, "name": "Iris Florets West Marredpally", "reference": "ChIJi-tPkTiayzsRtVoUvSg-j5c", "geometry": {"location": {"lat": 17.454287, "lng": 78.5064481}, "viewport": {"northeast": {"lat": 17.4556392302915, "lng": 78.5077812802915}, "southwest": {"lat": 17.4529412697085, "lng": 78.50508331970849}}}, "place_id": "ChIJi-tPkTiayzsRtVoUvSg-j5c", "plus_code": {"global_code": "7J9WFG34+PH", "compound_code": "FG34+PH Hyderabad, Telangana, India"}, "vicinity": "Plot No 26, Police Station Road, West Marredpally, Hyderabad", "photos": [{"photo_reference": "ATtYBwIIB-AaZH8xrSe67iiiUv30JtXCkZDYZX-q5Q3rx4Nou9gK68CnzBcFp3oIaBjz0vB9_Jzk8at1zk2NM_a4Y6v40SA6_riKSVhqeFvG2QxiY6-yjk7oi_Mg2_1B4_mroid0aQWhFk1s1_RLIzQ_y2ojVa3b3OQv_6ofrDM8KbCJ8fJV", "width": 4128, "html_attributions": ["<a href=\"https://maps.google.com/maps/contrib/105406833986156766678\">shivam Arish Kumar</a>"], "height": 2322}], "scope": "GOOGLE", "business_status": "OPERATIONAL", "types": ["school", "point_of_interest", "establishment"], "icon": "https://maps.gstatic.com/mapfiles/place_api/icons/v1/png_71/school-71.png"}, {"rating": 5, "user_ratings_total": 60, "permanently_closed": true, "name": "EuroKids Preschool at Krishnapuri Colony, Best Kindergarten in Telangana", "reference": "ChIJOQ4zY0eayzsR9TAhLD8KvXI", "geometry": {"location": {"lat": 17.4545258, "lng": 78.5059848}, "viewport": {"northeast": {"lat": 17.4558426802915, "lng": 78.5073029802915}, "southwest": {"lat": 17.4531447197085, "lng": 78.50460501970849}}}, "place_id": "ChIJOQ4zY0eayzsR9TAhLD8KvXI", "plus_code": {"global_code": "7J9WFG34+R9", "compound_code": "FG34+R9 Secunderabad, Telangana, India"}, "vicinity": "Plot No, near Andhra Bank, 25A, Krishnapuri Colony, West Marredpally, Secunderabad", "photos": [{"photo_reference": "ATtYBwIlK4gFeOLNFkLx2KeqtSYc-pFGzeLUtR9BAwYuoR42lACjRfRBdlU9zAKhKklWSytdzp7f-5apFuuZ5dOOkp1Niat-7AzzJJhdg6GjEVqskVsA5hz15_gNeC2ZFewoW7xKelbH3DHCGxpbC930l37czzZq0vE5W8KUEkxDlbqzPVqD", "width": 766, "html_attributions": ["<a href=\"https://maps.google.com/maps/contrib/102004809606560961407\">EuroKids Preschool at Krishnapuri Colony, Best Kindergarten in Telangana</a>"], "height": 429}], "scope": "GOOGLE", "business_status": "CLOSED_TEMPORARILY", "types": ["school", "point_of_interest", "establishment"], "icon": "https://maps.gstatic.com/mapfiles/place_api/icons/v1/png_71/school-71.png"}, {"rating": 4.9, "user_ratings_total": 8, "name": "FirstCry Intellitots (Formerly Oi Playschool) - West Marredpally", "reference": "ChIJHcMWmjaayzsR6fLycWKUdsg", "geometry": {"location": {"lat": 17.454501, "lng": 78.505653}, "viewport": {"northeast": {"lat": 17.4558976302915, "lng": 78.5070342802915}, "southwest": {"lat": 17.4531996697085, "lng": 78.50433631970849}}}, "opening_hours": {"open_now": false}, "place_id": "ChIJHcMWmjaayzsR6fLycWKUdsg", "plus_code": {"global_code": "7J9WFG34+R7", "compound_code": "FG34+R7 Secunderabad, Telangana, India"}, "vicinity": "#39, Krishnapuri Colony, West Marredpally, Secunderabad", "photos": [{"photo_reference": "ATtYBwJSN0nlwhF8tjh84-_4lVRKfX1yMnWVhP6bg3HGD0uP4RGU608_tqf-zztPV78XSlaZdfAIdIceOyqseDfOvxEZOfkRM3GSm7YAYMh8FmLvHoXBzcUNUjNNO6WDN6-vSboUkl8CIkJlXvqj-h8DDll0qVhyKbBp2Z7azCoTPSAqKFbQ", "width": 5472, "html_attributions": ["<a href=\"https://maps.google.com/maps/contrib/114290391945672178697\">FirstCry Intellitots (Formerly Oi Playschool) - West Marredpally</a>"], "height": 3648}], "scope": "GOOGLE", "business_status": "OPERATIONAL", "types": ["school", "point_of_interest", "establishment"], "icon": "https://maps.gstatic.com/mapfiles/place_api/icons/v1/png_71/school-71.png"}, {"rating": 3.6, "user_ratings_total": 9, "name": "Bhashyam Public School", "reference": "ChIJRRQglUOayzsR6p9JiyLboHg", "geometry": {"location": {"lat": 17.45961, "lng": 78.502359}, "viewport": {"northeast": {"lat": 17.4609289802915, "lng": 78.50368523029151}, "southwest": {"lat": 17.4582310197085, "lng": 78.5009872697085}}}, "opening_hours": {"open_now": false}, "place_id": "ChIJRRQglUOayzsR6p9JiyLboHg", "plus_code": {"global_code": "7J9WFG52+RW", "compound_code": "FG52+RW Secunderabad, Telangana, India"}, "vicinity": "Plot No. 12, Padmaja Housing Society, Near Dayakamal Towers, Karkhana, Secunderabad", "photos": [{"photo_reference": "ATtYBwKOBEcJQboGqPSztLPwxtU7pgSeCPZwtknHfaPFFL0ydEuLTqWQXfymWQ2L8G_2VRgkfFZsVSFyKKG3MpYWgN0B26O4rRUvBx7WiMYj8E2OXp6JbGJp7UrYJa57WOYuEFCgkn1dkIZSYdlG05WE5kpmK4T9fSeIUtgZV6Q9G1N9amMn", "width": 1152, "html_attributions": ["<a href=\"https://maps.google.com/maps/contrib/117195312054335916740\">Bhashyam Public School</a>"], "height": 2048}], "scope": "GOOGLE", "business_status": "OPERATIONAL", "types": ["school", "point_of_interest", "establishment"], "icon": "https://maps.gstatic.com/mapfiles/place_api/icons/v1/png_71/school-71.png"}, {"rating": 5, "user_ratings_total": 1, "name": "Xaviers Institute For Excellence", "reference": "ChIJJWux6kOayzsR88jiOnlzs-8", "geometry": {"location": {"lat": 17.459489, "lng": 78.5022463}, "viewport": {"northeast": {"lat": 17.4608732302915, "lng": 78.5036220302915}, "southwest": {"lat": 17.4581752697085, "lng": 78.50092406970849}}}, "place_id": "ChIJJWux6kOayzsR88jiOnlzs-8", "plus_code": {"global_code": "7J9WFG52+QV", "compound_code": "FG52+QV Secunderabad, Telangana, India"}, "vicinity": "4, Kakaguda, Karkhana, Secunderabad", "scope": "GOOGLE", "business_status": "OPERATIONAL", "types": ["school", "point_of_interest", "establishment"], "icon": "https://maps.gstatic.com/mapfiles/place_api/icons/v1/png_71/school-71.png"}, {"rating": 2.3, "user_ratings_total": 8, "name": "Bhashyam High School", "reference": "ChIJJfy_akOayzsRS_-oX4eifAk", "geometry": {"location": {"lat": 17.4596157, "lng": 78.5018819}, "viewport": {"northeast": {"lat": 17.4610149802915, "lng": 78.5031495302915}, "southwest": {"lat": 17.4583170197085, "lng": 78.50045156970849}}}, "opening_hours": {"open_now": false}, "place_id": "ChIJJfy_akOayzsRS_-oX4eifAk", "plus_code": {"global_code": "7J9WFG52+RQ", "compound_code": "FG52+RQ Secunderabad, Telangana, India"}, "vicinity": "Vasavi Nagar, Karkhana, Secunderabad", "scope": "GOOGLE", "business_status": "OPERATIONAL", "types": ["secondary_school", "school", "point_of_interest", "establishment"], "icon": "https://maps.gstatic.com/mapfiles/place_api/icons/v1/png_71/school-71.png"}, {"rating": 3, "user_ratings_total": 4, "name": "The Jain International School", "reference": "ChIJwVxbrFyayzsRIgzNv3SCv8w", "geometry": {"location": {"lat": 17.464161, "lng": 78.50313799999999}, "viewport": {"northeast": {"lat": 17.4654826802915, "lng": 78.5044577302915}, "southwest": {"lat": 17.4627847197085, "lng": 78.5017597697085}}}, "opening_hours": {"open_now": false}, "place_id": "ChIJwVxbrFyayzsRIgzNv3SCv8w", "plus_code": {"global_code": "7J9WFG73+M7", "compound_code": "FG73+M7 Secunderabad, Telangana, India"}, "vicinity": "Main Road, Rajiv Gandhi Rahadari Road, New Vasavi Nagar, Karkhana, Secunderabad", "scope": "GOOGLE", "business_status": "OPERATIONAL", "types": ["school", "point_of_interest", "establishment"], "icon": "https://maps.gstatic.com/mapfiles/place_api/icons/v1/png_71/school-71.png"}, {"rating": 5, "user_ratings_total": 4, "name": "Christo Kids", "reference": "ChIJ_x7RdVqayzsROWuXTYEX8oc", "geometry": {"location": {"lat": 17.468322, "lng": 78.509143}, "viewport": {"northeast": {"lat": 17.4697066302915, "lng": 78.5105696302915}, "southwest": {"lat": 17.46700866970849, "lng": 78.50787166970849}}}, "opening_hours": {"open_now": false}, "place_id": "ChIJ_x7RdVqayzsROWuXTYEX8oc", "plus_code": {"global_code": "7J9WFG95+8M", "compound_code": "FG95+8M Hyderabad, Telangana, India"}, "vicinity": "Plot No-21, Secunderabad, 21, Trimulgherry, Hyderabad", "scope": "GOOGLE", "business_status": "OPERATIONAL", "types": ["school", "point_of_interest", "establishment"], "icon": "https://maps.gstatic.com/mapfiles/place_api/icons/v1/png_71/school-71.png"}, {"rating": 3.7, "user_ratings_total": 3, "name": "Xaviers Aviation Academy", "reference": "ChIJPd7lIkOayzsRUiMiir8xwIw", "geometry": {"location": {"lat": 17.46252639999999, "lng": 78.5013677}, "viewport": {"northeast": {"lat": 17.4638866302915, "lng": 78.5026999802915}, "southwest": {"lat": 17.46118866970849, "lng": 78.50000201970849}}}, "place_id": "ChIJPd7lIkOayzsRUiMiir8xwIw", "plus_code": {"global_code": "7J9WFG72+2G", "compound_code": "FG72+2G Secunderabad, Telangana, India"}, "vicinity": "38, Wellington Road, Vasavi Nagar, Karkhana, Secunderabad", "scope": "GOOGLE", "business_status": "OPERATIONAL", "types": ["school", "point_of_interest", "establishment"], "icon": "https://maps.gstatic.com/mapfiles/place_api/icons/v1/png_71/school-71.png"}, {"rating": 4, "user_ratings_total": 20, "name": "Gandhian School", "reference": "ChIJTX93W0CayzsRh6orQXjzYnc", "geometry": {"location": {"lat": 17.4547971, "lng": 78.5023771}, "viewport": {"northeast": {"lat": 17.4561225302915, "lng": 78.5037128802915}, "southwest": {"lat": 17.4534245697085, "lng": 78.5010149197085}}}, "opening_hours": {"open_now": true}, "place_id": "ChIJTX93W0CayzsRh6orQXjzYnc", "plus_code": {"global_code": "7J9WFG32+WX", "compound_code": "FG32+WX Secunderabad, Telangana, India"}, "vicinity": "Vasavi Colony 'B', Willington Road ,Picket, Secnderabad", "photos": [{"photo_reference": "ATtYBwI5Yl3Yjp7SVvhmtT3ToAXwTzM2CI1-9WUp0E5cEE6kDeSiUp2IMFHGaq6e-q2LYcDUcmUOTnOM2C9lfH43ZEgw5AzftdAbwRdC8460iwiVlOzOHs-6ud1c8ZSHbHHIdjG61AM45iWNSwL3x2pnTMjzfAETqhO5lCfJyyaFJi3qZFCH", "width": 3648, "html_attributions": ["<a href=\"https://maps.google.com/maps/contrib/115539922070356335092\">Gandhian School</a>"], "height": 2736}], "scope": "GOOGLE", "business_status": "OPERATIONAL", "types": ["school", "point_of_interest", "establishment"], "icon": "https://maps.gstatic.com/mapfiles/place_api/icons/v1/png_71/school-71.png"}, {"rating": 4, "user_ratings_total": 2, "permanently_closed": true, "name": "T.I.M.E. Kids Preschools", "reference": "ChIJsSrNmjiayzsRQkundZe9-CM", "geometry": {"location": {"lat": 17.451836, "lng": 78.505737}, "viewport": {"northeast": {"lat": 17.4531973302915, "lng": 78.5070561802915}, "southwest": {"lat": 17.4504993697085, "lng": 78.5043582197085}}}, "place_id": "ChIJsSrNmjiayzsRQkundZe9-CM", "plus_code": {"global_code": "7J9WFG24+P7", "compound_code": "FG24+P7 Secunderabad, Telangana, India"}, "vicinity": "H.no.2-9-138, Plot no.13, Simhapuri Colony, Marredpally,, Secunderabad", "photos": [{"photo_reference": "ATtYBwLmXyB1kYgrnUETWdlYnIbK74ROw0aoQiuvMRepXs3ayoRCX-AFRefvnAJXiu8jiMPcr1roITGs9iUADYdCBEbwbo590bbCu5Er0lSATkWwkONwTRsHZKeFHreGr9Aeo8RXfYuBucIFsd-4vHHxJqF2NF5vpONDYeN2Rf-lbmjfc1DO", "width": 604, "html_attributions": ["<a href=\"https://maps.google.com/maps/contrib/113490545672483659135\">T.I.M.E. Kids Preschools</a>"], "height": 604}], "scope": "GOOGLE", "business_status": "CLOSED_TEMPORARILY", "types": ["school", "point_of_interest", "establishment"], "icon": "https://maps.gstatic.com/mapfiles/place_api/icons/v1/png_71/school-71.png"}, {"name": "Govt. Girls Primary School Kharkana", "reference": "ChIJ47-E_EKayzsRVjjo2PRbAew", "geometry": {"location": {"lat": 17.4614542, "lng": 78.5004381}, "viewport": {"northeast": {"lat": 17.4628021302915, "lng": 78.5017943302915}, "southwest": {"lat": 17.4601041697085, "lng": 78.4990963697085}}}, "place_id": "ChIJ47-E_EKayzsRVjjo2PRbAew", "plus_code": {"global_code": "7J9WFG62+H5", "compound_code": "FG62+H5 Hyderabad, Telangana, India"}, "vicinity": "Karkhana, Hyderabad", "scope": "GOOGLE", "business_status": "OPERATIONAL", "types": ["primary_school", "school", "point_of_interest", "establishment"], "icon": "https://maps.gstatic.com/mapfiles/place_api/icons/v1/png_71/school-71.png"}]}