{"status": "OK", "next_page_token": "ATtYBwLxl8ft9UbnkL6uE45tYAKVeCryKOgr0NCpzQLCdBd1xQrbVihCgYqglNEatDvWTuR0DFCEM-SGI8GDbrSQQVHh1APrSQKn_3mbf1eTmQy2jw2VSBs5Lvich05jT_EHZTWbadIwMD6421A_57hkYqMNtFEvsPLA6LFylWThZltM9h_E1HshatQyQ368tVrU_DRdV5RN99ZQ-bqudreoyyXxMzrNi3Mx6gLrj1SQH6o3mYIbELLUqOasvFiF-qlaUBMsQHgUGWSGaWnbHFsIoyatb2neu7FUSBWHWywF2r3bwk00rQkqSxUDy4cQ7XTTOzrC928O0jIMecxBjxVQ5Rk-iAQwW62I4OXydeM3z54yG4MLkU0IWP_bbF78Un8Q7eF7plN7AnK9PSVwZf18iKoO1AMad_Ih4TWKzu6pvq6aPywGC1TZvirDYOiyqoidsxGUxlSVWXKNvQ7TPKpqra1kkcAO-KgsyIh1nqtkDH4-8FaP0oqY6ZBm3YYhREWAS4fNhfwbdG-LlVrT85SBR7ISWW9SXbyDg3JGFkfAOg3zWYyNiKcPBXIRtPiZRObXWcCiVGM5lCayLYZBFPslpP4b-M-HVpeKuM0EMpOfSDqnnhaIyCLWyIJHJ5tozMtNXVw9LiX1", "html_attributions": [], "results": [{"rating": 4, "user_ratings_total": 11, "name": "Sri Sai Vidyarthi High School", "reference": "ChIJD6YsLDOayzsRI6Ic4kF6bIs", "geometry": {"location": {"lat": 17.4450674, "lng": 78.5203167}, "viewport": {"northeast": {"lat": 17.4464061802915, "lng": 78.52166228029151}, "southwest": {"lat": 17.44370821970849, "lng": 78.51896431970849}}}, "place_id": "ChIJD6YsLDOayzsRI6Ic4kF6bIs", "plus_code": {"global_code": "7J9WCGWC+24", "compound_code": "CGWC+24 Secunderabad, Telangana, India"}, "vicinity": "Venkat Nagar, Tukaram Gate, Secunderabad", "photos": [{"photo_reference": "ATtYBwKPvpiG2xgSIhAG_tJSGMAmwpKThToDtlwdgMBCR1-cqHbBNkBB6chcEOW3Ie71FNwbTaL0Orbowgn6wXoVrLd44Al4Zw-lwvC9O285BttDtl84EwRQoWUL1VnwOISKkdXQvXHepS1KPokSYtJ0QsV2k2ihkE7-3L12xEjaG_vlo4hV", "width": 1280, "html_attributions": ["<a href=\"https://maps.google.com/maps/contrib/110035137289778316881\">Bhaskar Rao Yadavalli</a>"], "height": 960}], "scope": "GOOGLE", "business_status": "OPERATIONAL", "types": ["school", "point_of_interest", "establishment"], "icon": "https://maps.gstatic.com/mapfiles/place_api/icons/v1/png_71/school-71.png"}, {"rating": 4, "user_ratings_total": 9, "name": "Sri Chaitanya School", "reference": "ChIJkcVsh2KZyzsRw1-MURIauYQ", "geometry": {"location": {"lat": 17.4300168, "lng": 78.5336477}, "viewport": {"northeast": {"lat": 17.4312062302915, "lng": 78.5351820802915}, "southwest": {"lat": 17.4285082697085, "lng": 78.5324841197085}}}, "place_id": "ChIJkcVsh2KZyzsRw1-MURIauYQ", "plus_code": {"global_code": "7J9WCGJM+2F", "compound_code": "CGJM+2F Secunderabad, Telangana, India"}, "vicinity": "behind Big Bazar, Street No:3,Near Narsee Monjee Business School, behind Big Bazar, Tarnaka Main Road, Tarnaka, Secunderabad", "photos": [{"photo_reference": "ATtYBwIs46DBPIjmJQ8Hx33PoLhz6izYBfKT7W6JsGiuufGFBGHGvD5ZIwjfTBGQhUQGz8ruyV2lxoD3o1XEIBM6FX0VbXIb3sSCkuYK92uocF61yXk5kg7kGiybE6je68EzfYH3z8lLJC6xYx97mnOi4YjvDxMdV7u8AyNn9lRBjnNLaOnw", "width": 2448, "html_attributions": ["<a href=\"https://maps.google.com/maps/contrib/102785810943230007678\">Annamreddy Ammaji</a>"], "height": 3264}], "scope": "GOOGLE", "business_status": "OPERATIONAL", "types": ["school", "point_of_interest", "establishment"], "icon": "https://maps.gstatic.com/mapfiles/place_api/icons/v1/png_71/school-71.png"}, {"name": "SRI VAISHNAVI OLYMPIAD SCHOOL (Lalapet)", "reference": "ChIJr-Od9N6byzsRyqvAQLil3Yc", "geometry": {"location": {"lat": 17.435392, "lng": 78.540179}, "viewport": {"northeast": {"lat": 17.4368106302915, "lng": 78.5415361302915}, "southwest": {"lat": 17.4341126697085, "lng": 78.5388381697085}}}, "opening_hours": {"open_now": false}, "place_id": "ChIJr-Od9N6byzsRyqvAQLil3Yc", "plus_code": {"global_code": "7J9WCGPR+53", "compound_code": "CGPR+53 Secunderabad, Telangana, India"}, "vicinity": "Plot No. 3 & 4, Near Shanthi Nagar Bus Stop, North Lalaguda, Secunderabad", "scope": "GOOGLE", "business_status": "OPERATIONAL", "types": ["school", "point_of_interest", "establishment"], "icon": "https://maps.gstatic.com/mapfiles/place_api/icons/v1/png_71/school-71.png"}, {"rating": 4, "user_ratings_total": 224, "name": "IRISET Hostel 4", "reference": "ChIJTRyvH36ZyzsRbpj9a8Z5jMo", "geometry": {"location": {"lat": 17.4300451, "lng": 78.52510749999999}, "viewport": {"northeast": {"lat": 17.4313140302915, "lng": 78.5264229302915}, "southwest": {"lat": 17.4286160697085, "lng": 78.5237249697085}}}, "place_id": "ChIJTRyvH36ZyzsRbpj9a8Z5jMo", "plus_code": {"global_code": "7J9WCGJG+22", "compound_code": "CGJG+22 Secunderabad, Telangana, India"}, "vicinity": "Tarnaka Main Road, IRISET, Mettuguda, Secunderabad", "photos": [{"photo_reference": "ATtYBwLih0GAkJ0Px4CsQtXqmlBqTXwybYacuNv4owHN6h9sdQ3naYUj-OkMF4ofPd-1g2g0AdWnTX9nRvSz6gT-qA_pkPAGhi0uVo7B6IDdSoHWHjrj6bOm_ylog8T20MIiNwVZpRsNy9zGdXSJZbuRTXrtQ-tmt3nz5AlypClqZschoKM5", "width": 3456, "html_attributions": ["<a href=\"https://maps.google.com/maps/contrib/117607815401795402637\">GAURAV RAJ</a>"], "height": 4608}], "scope": "GOOGLE", "business_status": "OPERATIONAL", "types": ["school", "point_of_interest", "establishment"], "icon": "https://maps.gstatic.com/mapfiles/place_api/icons/v1/png_71/school-71.png"}, {"rating": 3.5, "user_ratings_total": 4, "name": "Kakatiya Techno School", "reference": "ChIJnZZfjcabyzsR_F4rn6sJ0pQ", "geometry": {"location": {"lat": 17.4498551, "lng": 78.53534130000001}, "viewport": {"northeast": {"lat": 17.4513417802915, "lng": 78.5367097302915}, "southwest": {"lat": 17.4486438197085, "lng": 78.53401176970848}}}, "place_id": "ChIJnZZfjcabyzsR_F4rn6sJ0pQ", "plus_code": {"global_code": "7J9WCGXP+W4", "compound_code": "CGXP+W4 Secunderabad, Telangana, India"}, "vicinity": "25, Malkajgiri Road, Sanjay Nagar, Sanjeev Nagar, Malkajgiri, Secunderabad", "scope": "GOOGLE", "business_status": "OPERATIONAL", "types": ["school", "point_of_interest", "establishment"], "icon": "https://maps.gstatic.com/mapfiles/place_api/icons/v1/png_71/school-71.png"}, {"name": "J S M School Of Nursing", "reference": "ChIJAQAAkB6RyzsRwgMU5badvmU", "geometry": {"location": {"lat": 17.4509769, "lng": 78.5341359}, "viewport": {"northeast": {"lat": 17.4522423802915, "lng": 78.53555913029149}, "southwest": {"lat": 17.4495444197085, "lng": 78.53286116970848}}}, "place_id": "ChIJAQAAkB6RyzsRwgMU5badvmU", "plus_code": {"global_code": "7J9WFG2M+9M", "compound_code": "FG2M+9M Malkajgiri, Secunderabad, Telangana, India"}, "vicinity": "Govt Hospital,, Malkajgiri", "scope": "GOOGLE", "business_status": "OPERATIONAL", "types": ["university", "school", "point_of_interest", "establishment"], "icon": "https://maps.gstatic.com/mapfiles/place_api/icons/v1/png_71/school-71.png"}, {"name": "Government high school", "reference": "ChIJsTABHjOayzsRGJUq3bDkeh4", "geometry": {"location": {"lat": 17.4445089, "lng": 78.5188338}, "viewport": {"northeast": {"lat": 17.44583753029151, "lng": 78.5202021302915}, "southwest": {"lat": 17.4431395697085, "lng": 78.51750416970849}}}, "place_id": "ChIJsTABHjOayzsRGJUq3bDkeh4", "plus_code": {"global_code": "7J9WCGV9+RG", "compound_code": "CGV9+RG Secunderabad, Telangana, India"}, "vicinity": "H.No.1012237, Marredpally Mosque, Marred Pally Tukaram Gate Main Road, Aswini Colony, West Marredpally, Secunderabad", "scope": "GOOGLE", "business_status": "OPERATIONAL", "types": ["secondary_school", "school", "point_of_interest", "establishment"], "icon": "https://maps.gstatic.com/mapfiles/place_api/icons/v1/png_71/school-71.png"}, {"rating": 2.8, "user_ratings_total": 17, "name": "Gowtham Model School", "reference": "ChIJK4pn-cabyzsRVL8vK5XAjzU", "geometry": {"location": {"lat": 17.450719, "lng": 78.535038}, "viewport": {"northeast": {"lat": 17.4521515802915, "lng": 78.5364209302915}, "southwest": {"lat": 17.4494536197085, "lng": 78.53372296970849}}}, "opening_hours": {"open_now": false}, "place_id": "ChIJK4pn-cabyzsRVL8vK5XAjzU", "plus_code": {"global_code": "7J9WFG2P+72", "compound_code": "FG2P+72 Secunderabad, Telangana, India"}, "vicinity": "#265/266, Raghavendra Theatre Road, Malkajgiri, Secunderabad", "photos": [{"photo_reference": "ATtYBwK5A0EmkXxvbtxCGkHBBakIAFdc9nfDbQagRFYiCc0TPcdGCNn8pEtZQ9E3Ls8m4KvBucC3oKGfbg4TKyME8o7h9YnjzxtfgsWWfcJFDoyfZWtnvCSzju2xAPhWWe-IzQamjpjVU9XtrKsC6El3jwcKJi2LAJyLRi-FJN7hGBuZ0ivF", "width": 1920, "html_attributions": ["<a href=\"https://maps.google.com/maps/contrib/102225153093310189112\">puppala gruhanth</a>"], "height": 1080}], "scope": "GOOGLE", "business_status": "OPERATIONAL", "types": ["school", "point_of_interest", "establishment"], "icon": "https://maps.gstatic.com/mapfiles/place_api/icons/v1/png_71/school-71.png"}, {"rating": 2, "user_ratings_total": 1, "name": "kidzee", "reference": "ChIJAQAAVMabyzsRDuleqRntmWE", "geometry": {"location": {"lat": 17.4508689, "lng": 78.534544}, "viewport": {"northeast": {"lat": 17.4521665302915, "lng": 78.5358831802915}, "southwest": {"lat": 17.4494685697085, "lng": 78.53318521970849}}}, "place_id": "ChIJAQAAVMabyzsRDuleqRntmWE", "plus_code": {"global_code": "7J9WFG2M+8R", "compound_code": "FG2M+8R Geetha Nagar, Malkajgiri, Secunderabad, Telangana, India"}, "vicinity": "near, Geetha Nagar, Mira Road East, Mira Bhayandar", "scope": "GOOGLE", "business_status": "OPERATIONAL", "types": ["school", "point_of_interest", "establishment"], "icon": "https://maps.gstatic.com/mapfiles/place_api/icons/v1/png_71/school-71.png"}, {"rating": 4.8, "user_ratings_total": 46, "permanently_closed": true, "name": "Tharangini Music Academy", "reference": "ChIJ-S-XWMGbyzsR9rJaBDAPiuI", "geometry": {"location": {"lat": 17.4485793, "lng": 78.5386473}, "viewport": {"northeast": {"lat": 17.4499306802915, "lng": 78.5400259802915}, "southwest": {"lat": 17.4472327197085, "lng": 78.5373280197085}}}, "place_id": "ChIJ-S-XWMGbyzsR9rJaBDAPiuI", "plus_code": {"global_code": "7J9WCGXQ+CF", "compound_code": "CGXQ+CF Secunderabad, Telangana, India"}, "vicinity": "Vasanthapuri Colony Road, Venkateshwara Nagar, Malkajgiri, Secunderabad", "photos": [{"photo_reference": "ATtYBwKyUJD63RX3NPSBknVN2Z3XgQh4CYdKxXkpUzs4G7SAQI7EcZrIGDtOCllNyNFptJmZJdGZeNddcQNwpTwIgTQ2Ty-s342iF78bt84-pSPNr_fpeP9TOWcQulJuekiMn_boTTNYqGdRor4z2j1M7YPltX3AkNGSLjwMLP3bZ20TKDNo", "width": 853, "html_attributions": ["<a href=\"https://maps.google.com/maps/contrib/105633993262995774904\">Tharangini Music Academy</a>"], "height": 1280}], "scope": "GOOGLE", "business_status": "CLOSED_TEMPORARILY", "types": ["school", "point_of_interest", "establishment"], "icon": "https://maps.gstatic.com/mapfiles/place_api/icons/v1/png_71/school-71.png"}, {"rating": 4, "user_ratings_total": 2, "permanently_closed": true, "name": "Govt. Girls High School Kingsway", "reference": "ChIJ9YliiCyayzsRxwxjGnLCh3I", "geometry": {"location": {"lat": 17.43646, "lng": 78.517983}, "viewport": {"northeast": {"lat": 17.4377993302915, "lng": 78.51934018029151}, "southwest": {"lat": 17.4351013697085, "lng": 78.5166422197085}}}, "place_id": "ChIJ9YliiCyayzsRxwxjGnLCh3I", "plus_code": {"global_code": "7J9WCGP9+H5", "compound_code": "CGP9+H5 Hyderabad, Telangana, India"}, "vicinity": "3124, Kings Way, R.p. Road, Secunderabad, Hyderabad", "scope": "GOOGLE", "business_status": "CLOSED_TEMPORARILY", "types": ["secondary_school", "school", "point_of_interest", "establishment"], "icon": "https://maps.gstatic.com/mapfiles/place_api/icons/v1/png_71/school-71.png"}, {"rating": 4.8, "user_ratings_total": 45, "name": "SIP - Abacus Malkajgiri", "reference": "ChIJAQAAAMebyzsRf9iPOPohhJY", "geometry": {"location": {"lat": 17.4517912, "lng": 78.5330686}, "viewport": {"northeast": {"lat": 17.4531111802915, "lng": 78.5344607802915}, "southwest": {"lat": 17.4504132197085, "lng": 78.53176281970849}}}, "place_id": "ChIJAQAAAMebyzsRf9iPOPohhJY", "plus_code": {"global_code": "7J9WFG2M+P6", "compound_code": "FG2M+P6 Secunderabad, Telangana, India"}, "vicinity": "2-8, Satyaprabha Arcade, Bhavani Nagar, Malkajgiri, Secunderabad", "photos": [{"photo_reference": "ATtYBwKCIbuFnnJH5yhQH2L1AO7E6R5FRd0da-b2IY-9hOcM80LaCmX5aEHV-Q0Ic96G3pWWEfjxHV-YaJ9GPqbtZSJSDiyVvKD8vt7Fcp89bKDLQUD_j3xzF842BULv1XFoKSRY9E8egZtRHKVMli7HSP5jaQdRAP1cHxyr_0573M-tjywx", "width": 900, "html_attributions": ["<a href=\"https://maps.google.com/maps/contrib/115343797446045550747\">SIP - Abacus Malkajgiri</a>"], "height": 1280}], "scope": "GOOGLE", "business_status": "OPERATIONAL", "types": ["primary_school", "school", "point_of_interest", "establishment"], "icon": "https://maps.gstatic.com/mapfiles/place_api/icons/v1/png_71/school-71.png"}, {"rating": 3.1, "user_ratings_total": 15, "name": "David Memorial High School", "reference": "ChIJD5Mm52KZyzsR3V66SUYAhCU", "geometry": {"location": {"lat": 17.428268, "lng": 78.533591}, "viewport": {"northeast": {"lat": 17.4296524302915, "lng": 78.53497183029151}, "southwest": {"lat": 17.42695446970849, "lng": 78.5322738697085}}}, "opening_hours": {"open_now": false}, "place_id": "ChIJD5Mm52KZyzsR3V66SUYAhCU", "plus_code": {"global_code": "7J9WCGHM+8C", "compound_code": "CGHM+8C Hyderabad, Telangana, India"}, "vicinity": "No. 12-13-1275, Jehovah Jireh, Lalapet Road, Tarnaka, Hyderabad", "photos": [{"photo_reference": "ATtYBwIlEgM9JJR-wLX8HtTXU00XqGYmEgaJXaoDa4UFJYNraMd0oy1U7mVVKL8myC-LfL70Yjeg0B9OVXPDsvDz8Z9U8nV1WbNL9zuwiubv43vspoX6S85xREiikNO9UpkOQMtC5qeeU2llF_4DOETLUc--fOKVW2lYjOilL7yuiAkZQn9m", "width": 4160, "html_attributions": ["<a href=\"https://maps.google.com/maps/contrib/115456674788909736708\">Naren Chandra</a>"], "height": 3120}], "scope": "GOOGLE", "business_status": "OPERATIONAL", "types": ["secondary_school", "school", "point_of_interest", "establishment"], "icon": "https://maps.gstatic.com/mapfiles/place_api/icons/v1/png_71/school-71.png"}, {"name": "Sri Chaitanya New Campus", "reference": "ChIJC9IGHGKZyzsR8jCkhmQzDnI", "geometry": {"location": {"lat": 17.4299066, "lng": 78.53734759999999}, "viewport": {"northeast": {"lat": 17.4312012802915, "lng": 78.5386483802915}, "southwest": {"lat": 17.4285033197085, "lng": 78.5359504197085}}}, "place_id": "ChIJC9IGHGKZyzsR8jCkhmQzDnI", "plus_code": {"global_code": "7J9WCGHP+XW", "compound_code": "CGHP+XW Secunderabad, Telangana, India"}, "vicinity": "790, Street Number 10, Doctor ZMES Society, Siddharth Nagar Colony, Gokul Nagar, Tarnaka, Secunderabad", "scope": "GOOGLE", "business_status": "OPERATIONAL", "types": ["school", "point_of_interest", "establishment"], "icon": "https://maps.gstatic.com/mapfiles/place_api/icons/v1/png_71/school-71.png"}, {"name": "Adhira Foundation", "reference": "ChIJq-Tpx8ebyzsRbI6bmILw23A", "geometry": {"location": {"lat": 17.4519238, "lng": 78.53334339999999}, "viewport": {"northeast": {"lat": 17.4532781302915, "lng": 78.5346837802915}, "southwest": {"lat": 17.4505801697085, "lng": 78.5319858197085}}}, "place_id": "ChIJq-Tpx8ebyzsRbI6bmILw23A", "plus_code": {"global_code": "7J9WFG2M+Q8", "compound_code": "FG2M+Q8 Secunderabad, Telangana, India"}, "vicinity": "Malkajgiri Road, Bhavani Nagar, Malkajgiri, Secunderabad", "photos": [{"photo_reference": "ATtYBwJ7NVHV_k8gwmjSwnVpiy8Nm1FyyTDeuLdnCraKsj1rwngPjQ2V1xk0kU5_8JDRmoLzMT1CCMBxA5gpcGZ3T7esDfG_9GA31reF2pSqv_pQlT6wW6EVzcZ1dutGUQQzdfDuJX7iFgz0vpA2UMLmNYk7fea4KRjGsnSLU7sGaXBywDTY", "width": 960, "html_attributions": ["<a href=\"https://maps.google.com/maps/contrib/116618146134599457528\">Adhira Foundation</a>"], "height": 720}], "scope": "GOOGLE", "business_status": "OPERATIONAL", "types": ["school", "point_of_interest", "establishment"], "icon": "https://maps.gstatic.com/mapfiles/place_api/icons/v1/png_71/school-71.png"}, {"rating": 3.7, "user_ratings_total": 10, "permanently_closed": true, "name": "Tuneup Academy of music & Dance", "reference": "ChIJ67oM7GKZyzsRx7xtjfiR6L4", "geometry": {"location": {"lat": 17.451477, "lng": 78.53488800000001}, "viewport": {"northeast": {"lat": 17.4527756302915, "lng": 78.53633168029151}, "southwest": {"lat": 17.4500776697085, "lng": 78.5336337197085}}}, "place_id": "ChIJ67oM7GKZyzsRx7xtjfiR6L4", "plus_code": {"global_code": "7J9WFG2M+HX", "compound_code": "FG2M+HX Malkajgiri, Secunderabad, Telangana, India"}, "vicinity": "LK Hospitals, 4-243/1, Geetha Nagar, Near, 47, Malkajgiri", "photos": [{"photo_reference": "ATtYBwLdVsXlv-VbopqLyIDF1pC1zm77Pp3PtVzxRRBTqVHPy6DoNLy0gKJezzC5PtQO5H-_aCE3Z_i9yaegI8JIdqma5HOE8puMvEbxjcBlWgqcW4eyWrXWtpUb2XA-yb5EXbkIIXZeR3EJx8bULv6Re7O8PCy2RoXriNfFC2lKq9nPhLFv", "width": 2048, "html_attributions": ["<a href=\"https://maps.google.com/maps/contrib/103338631473906310874\">Tuneup Academy of music &amp; Dance</a>"], "height": 1360}], "scope": "GOOGLE", "business_status": "CLOSED_TEMPORARILY", "types": ["school", "point_of_interest", "establishment"], "icon": "https://maps.gstatic.com/mapfiles/place_api/icons/v1/png_71/school-71.png"}, {"rating": 4.4, "user_ratings_total": 23, "name": "Tuneup Academy of music & Dance", "reference": "ChIJPecjAcebyzsRlxwG97AlZfI", "geometry": {"location": {"lat": 17.4514771, "lng": 78.5348882}, "viewport": {"northeast": {"lat": 17.4529353802915, "lng": 78.53630678029151}, "southwest": {"lat": 17.45023741970849, "lng": 78.5336088197085}}}, "opening_hours": {"open_now": false}, "place_id": "ChIJPecjAcebyzsRlxwG97AlZfI", "plus_code": {"global_code": "7J9WFG2M+HX", "compound_code": "FG2M+HX Secunderabad, Telangana, India"}, "vicinity": "H.No, 4-243/1, LK Hospital Lane, Geetha Nagar, Malkajgiri, Secunderabad", "photos": [{"photo_reference": "ATtYBwIXQhMEBSyeaY1fd0ni1zhgPWLGQn_YHHuY8DWuh42ShOcPjTe3ui305wM5o1AkplA3x2-VHeIYVwgtdbRJBjLio86cA65SMNaxvp6ncmC6vwY4yGrgSio4rjQ4lkgA8bTA0yF2lW9rWe49XrhAdHDq1nVtgZndnhzPIzWsxP8Dq-J1", "width": 3120, "html_attributions": ["<a href=\"https://maps.google.com/maps/contrib/102787997000374377160\">Sudheer Vunamatla</a>"], "height": 4160}], "scope": "GOOGLE", "business_status": "OPERATIONAL", "types": ["electronics_store", "home_goods_store", "school", "point_of_interest", "store", "establishment"], "icon": "https://maps.gstatic.com/mapfiles/place_api/icons/v1/png_71/school-71.png"}, {"rating": 4, "user_ratings_total": 1, "name": "udakishuganj madhepura", "reference": "ChIJSQjj_XyZyzsRDDhuaPNjgzA", "geometry": {"location": {"lat": 17.427552, "lng": 78.5295401}, "viewport": {"northeast": {"lat": 17.4289452302915, "lng": 78.53092253029149}, "southwest": {"lat": 17.4262472697085, "lng": 78.52822456970848}}}, "opening_hours": {"open_now": false}, "place_id": "ChIJSQjj_XyZyzsRDDhuaPNjgzA", "plus_code": {"global_code": "7J9WCGHH+2R", "compound_code": "CGHH+2R Secunderabad, Telangana, India"}, "vicinity": "National Institute Of Nutrition, Icmr, Road, Jamai-osmania Post Office,, Tarnaka 11th Street, Gokul Nagar, Tarnaka, Secunderabad", "scope": "GOOGLE", "business_status": "OPERATIONAL", "types": ["school", "point_of_interest", "establishment"], "icon": "https://maps.gstatic.com/mapfiles/place_api/icons/v1/png_71/school-71.png"}, {"rating": 4.3, "user_ratings_total": 21, "name": "Sri Venkateshwara School of Nursing, Malkajgiri", "reference": "ChIJhRErAsebyzsR0LRWz7pyyHU", "geometry": {"location": {"lat": 17.4514132, "lng": 78.53522079999999}, "viewport": {"northeast": {"lat": 17.4528100302915, "lng": 78.5366161302915}, "southwest": {"lat": 17.4501120697085, "lng": 78.53391816970849}}}, "opening_hours": {"open_now": false}, "place_id": "ChIJhRErAsebyzsR0LRWz7pyyHU", "plus_code": {"global_code": "7J9WFG2P+H3", "compound_code": "FG2P+H3 Secunderabad, Telangana, India"}, "vicinity": "LK Hospital Lane, Geetha Nagar, Malkajgiri, Secunderabad", "photos": [{"photo_reference": "ATtYBwIje4_ChFQPvmaaqUOnTJBr1vBhw2GxDDPtkJvYNbbWoq1BorP3Yj9taIwB7HUNxSPi0yjebHwNLHIRzwQSPnbekmWeWiCoyFvzkkbkpkjJtBVVmZtXPz2HySdA_YxQNTvr9EQxaG4YCTIcpZwXMc7yce9fRuaeZd7orL8apPTNSigy", "width": 4160, "html_attributions": ["<a href=\"https://maps.google.com/maps/contrib/109945002822040879249\">Manna malakar</a>"], "height": 3120}], "scope": "GOOGLE", "business_status": "OPERATIONAL", "types": ["university", "school", "point_of_interest", "establishment"], "icon": "https://maps.gstatic.com/mapfiles/place_api/icons/v1/png_71/school-71.png"}, {"rating": 4.1, "user_ratings_total": 22, "name": "Bachpan Play School, Tarnaka", "reference": "ChIJDWJe49ebyzsRu0zTz8Fa8Ms", "geometry": {"location": {"lat": 17.429601, "lng": 78.537528}, "viewport": {"northeast": {"lat": 17.4309547302915, "lng": 78.5388812802915}, "southwest": {"lat": 17.4282567697085, "lng": 78.53618331970848}}}, "opening_hours": {"open_now": false}, "place_id": "ChIJDWJe49ebyzsRu0zTz8Fa8Ms", "plus_code": {"global_code": "7J9WCGHQ+R2", "compound_code": "CGHQ+R2 Secunderabad, Telangana, India"}, "vicinity": "House No.12-13-333, Road Number 10, Tarnaka, Secunderabad", "photos": [{"photo_reference": "ATtYBwJVzzfvFUQnsZtmn89fz0goGdHeRW2Zbe3XpZYcynDbY1dOEUzvcOftb_qJ0djNARh8nAFSnncPiC-rxVAxKUvApOegZTB6k3MVxVmk0BRLLVmppa_DyZGLjO9MLMC0URzkOx7QwgdIWqZ9nUAq-m5wRILVWgJtdD4YctZdyMLc1JEd", "width": 3096, "html_attributions": ["<a href=\"https://maps.google.com/maps/contrib/103872328057633781974\">samanth kurapati</a>"], "height": 4128}], "scope": "GOOGLE", "business_status": "OPERATIONAL", "types": ["school", "point_of_interest", "establishment"], "icon": "https://maps.gstatic.com/mapfiles/place_api/icons/v1/png_71/school-71.png"}]}