{"status": "OK", "next_page_token": "ATtYBwIUu0QJruHePEWvzwWoy1BOD0G-Bf00xTAQfNWq28TO0oN7ZWdpe7RcytabSv8A_IrliwyYv-QJiLXa4vCoEIJfQiKMf6jUoLVYQir1UfPVeOkxuAB1FDcy-cuR9UBelWt7R3MaBKjgQg-K2vnfwMZSMIj5_6Z5VqMsb-sF5RBdEhHo_N8p9Te0ZorSvUt2uejdHixTpGRJphAkIkmEyiEDgpwyuShG_DfdUBcu565z50h3MNC1gjUphVRoMgiMb8GWLOCOMJs-i7oOMRRGkCJEttMY2MjJJc7RaSHcsnMad1cWsFgLcPqEfLjkRRRLIPAb-IGAexaqvs1n7j-NY1tYK_kmZQia0f40jEpIGVJ9x5S-pQiEE96AHiU9zzO-BQhrfm3XQyKpNJZWs-oSJOTfIJnaVhqAvz41LsyHDeUbWetVMQjimr_oiByfzqy3aCTJZqvK7nSwsFwpfSgc19wiO6g_7mZ5gIZdEI45tWSh-L2EQwkXmphl8vM_SCRnej_2IPEFSKUcIUllf7VDB_ZsRkMqzuyj7o53drDfwufN-iFArlR6Ik7kNwepuF4wwW8Id4CXznDnmU6mlR49laeKTAGnSCxf6A7opV3aAUuPxLWFQK3YGOjAKzo_E0Emf0C5QEau", "html_attributions": [], "results": [{"name": "Govt. Primary School Lunger House", "reference": "ChIJ____j16WyzsRZZ3ZtnORe-0", "geometry": {"location": {"lat": 17.3719097, "lng": 78.4105275}, "viewport": {"northeast": {"lat": 17.3736077302915, "lng": 78.4119552802915}, "southwest": {"lat": 17.3709097697085, "lng": 78.40925731970849}}}, "place_id": "ChIJ____j16WyzsRZZ3ZtnORe-0", "plus_code": {"global_code": "7J9W9CC6+Q6", "compound_code": "9CC6+Q6 Hyderabad, Telangana, India"}, "vicinity": "Hashim Nagar, Langar Houz, Hyderabad", "scope": "GOOGLE", "business_status": "OPERATIONAL", "types": ["primary_school", "school", "point_of_interest", "establishment"], "icon": "https://maps.gstatic.com/mapfiles/place_api/icons/v1/png_71/school-71.png"}, {"rating": 4.6, "user_ratings_total": 42, "permanently_closed": true, "name": "HPS Kids Upparpally", "reference": "ChIJTQebmjeWyzsRjhL0C_WPZIo", "geometry": {"location": {"lat": 17.351907, "lng": 78.419304}, "viewport": {"northeast": {"lat": 17.3532413302915, "lng": 78.42066008029151}, "southwest": {"lat": 17.3505433697085, "lng": 78.41796211970849}}}, "place_id": "ChIJTQebmjeWyzsRjhL0C_WPZIo", "plus_code": {"global_code": "7J9W9C29+QP", "compound_code": "9C29+QP Hyderabad, Telangana, India"}, "vicinity": "HPS Kids Pillar 191 Or 203, Hyderabad Elevated Expressways, Near Attapur,, Upparpally., 2-5-24/1/46, Ashok Vihar Colony, Pillar 191 Attapur, Upparpally., Hyderabad", "photos": [{"photo_reference": "ATtYBwI8k97_aJuzmOMxbnrq0soFF1GgraIfCtLyFGBqJotuBbhvNo7xRSG7WHWpJn5a8ZRE8UDhaUeErQEEmMf3Y8SwngjFwcw8AAz_Ow7fCaw-jhTiWh8eAkFLZkUxwR-QOXk9peoYWVuggRRoLLF7kdvQ4SyUlPI3MuvIDJJGz3sXZNXl", "width": 1040, "html_attributions": ["<a href=\"https://maps.google.com/maps/contrib/106799034956936295605\">meenakshi meena</a>"], "height": 780}], "scope": "GOOGLE", "business_status": "CLOSED_TEMPORARILY", "types": ["school", "point_of_interest", "establishment"], "icon": "https://maps.gstatic.com/mapfiles/place_api/icons/v1/png_71/school-71.png"}, {"rating": 4.7, "user_ratings_total": 7, "name": "Living Bridge Montessori School", "reference": "ChIJKzzpTG6WyzsRKQBcVjo57hY", "geometry": {"location": {"lat": 17.361579, "lng": 78.397494}, "viewport": {"northeast": {"lat": 17.3629534802915, "lng": 78.39888803029152}, "southwest": {"lat": 17.3602555197085, "lng": 78.39619006970851}}}, "opening_hours": {"open_now": false}, "place_id": "ChIJKzzpTG6WyzsRKQBcVjo57hY", "plus_code": {"global_code": "7J9W996W+JX", "compound_code": "996W+JX Bandlaguda Jagir, Telangana, India"}, "vicinity": "6-2-12, Sun City, Bandlaguda Jagir", "photos": [{"photo_reference": "ATtYBwIVEfu3xiuoqItVHLbJTCu1QuylarhRC44EfxrRde-rEVWUpmqv9zAI2ymYmoOGxFgnwudH-ad8WLDnAdE23oz59dcrXNiHn6ktlXTwh1-FSRlzmWenSxdcwxRPt0MiGCWyL7WsarubTqHuGALwOxQWH2ehzSdLvzaXj0z8WUldjv2J", "width": 960, "html_attributions": ["<a href=\"https://maps.google.com/maps/contrib/103869417938383719831\">Living Bridge Montessori School</a>"], "height": 720}], "scope": "GOOGLE", "business_status": "OPERATIONAL", "types": ["school", "point_of_interest", "establishment"], "icon": "https://maps.gstatic.com/mapfiles/place_api/icons/v1/png_71/school-71.png"}, {"rating": 5, "user_ratings_total": 1, "name": "Smartkidz Preschool", "reference": "ChIJ____c26WyzsR3utBFOfs3X4", "geometry": {"location": {"lat": 17.359134, "lng": 78.3973759}, "viewport": {"northeast": {"lat": 17.3604826802915, "lng": 78.39876008029151}, "southwest": {"lat": 17.35778471970849, "lng": 78.3960621197085}}}, "place_id": "ChIJ____c26WyzsR3utBFOfs3X4", "plus_code": {"global_code": "7J9W995W+MX", "compound_code": "995W+MX Bandlaguda Jagir, Telangana, India"}, "vicinity": "Radha Nagar, Hyder Shah Kote, Bandlaguda Jagir", "scope": "GOOGLE", "business_status": "OPERATIONAL", "types": ["school", "point_of_interest", "establishment"], "icon": "https://maps.gstatic.com/mapfiles/place_api/icons/v1/png_71/school-71.png"}, {"rating": 3.3, "user_ratings_total": 28, "name": "Pristine Public School", "reference": "ChIJpeEvnzeWyzsRoncH8MILFLU", "geometry": {"location": {"lat": 17.3516611, "lng": 78.4196343}, "viewport": {"northeast": {"lat": 17.3529418302915, "lng": 78.42100458029151}, "southwest": {"lat": 17.3502438697085, "lng": 78.4183066197085}}}, "opening_hours": {"open_now": false}, "place_id": "ChIJpeEvnzeWyzsRoncH8MILFLU", "plus_code": {"global_code": "7J9W9C29+MV", "compound_code": "9C29+MV Upperpally, Telangana, India"}, "vicinity": "D Mart Upperpally, PILLAR NO 202, PV Narasimha Rao Express way, Lane, Upperpally", "photos": [{"photo_reference": "ATtYBwIsL3qSCw_AmLGFDMGWGvyaK7qN4PklCLWCYWT3-VYa37-oky5zrRoQZUe9SikyQoxtUNB1j6OvGJFnL95jtqhJBiE4I4wh2e7WMcPs3-2JlN60xFE7AdA0Vz5Q21kpvHwzlUI3e7QLXYGUl675h9-KdbugRtP-tzxtOCCO7rDARLKO", "width": 4032, "html_attributions": ["<a href=\"https://maps.google.com/maps/contrib/111144618791655822812\">Mohammed Farzan Ahmed</a>"], "height": 3024}], "scope": "GOOGLE", "business_status": "OPERATIONAL", "types": ["school", "point_of_interest", "establishment"], "icon": "https://maps.gstatic.com/mapfiles/place_api/icons/v1/png_71/school-71.png"}, {"name": "Soliatire Global Schools", "reference": "ChIJFfY6KCmXyzsRSejYhA5ogu8", "geometry": {"location": {"lat": 17.3589212, "lng": 78.4121698}, "viewport": {"northeast": {"lat": 17.3603030302915, "lng": 78.4136828802915}, "southwest": {"lat": 17.3576050697085, "lng": 78.4109849197085}}}, "place_id": "ChIJFfY6KCmXyzsRSejYhA5ogu8", "plus_code": {"global_code": "7J9W9C56+HV", "compound_code": "9C56+HV Upperpally, Telangana, India"}, "vicinity": "Street Number 21A, Venkata Sai Colony, Upperpally", "scope": "GOOGLE", "business_status": "OPERATIONAL", "types": ["school", "point_of_interest", "establishment"], "icon": "https://maps.gstatic.com/mapfiles/place_api/icons/v1/png_71/school-71.png"}, {"rating": 4.3, "user_ratings_total": 151, "permanently_closed": true, "name": "Solitaire Global Schools (Attapur Branch)", "reference": "ChIJe4TWUUGWyzsRF7DJZ44pRng", "geometry": {"location": {"lat": 17.3587387, "lng": 78.4123189}, "viewport": {"northeast": {"lat": 17.3600074802915, "lng": 78.41368418029151}, "southwest": {"lat": 17.3573095197085, "lng": 78.4109862197085}}}, "place_id": "ChIJe4TWUUGWyzsRF7DJZ44pRng", "plus_code": {"global_code": "7J9W9C56+FW", "compound_code": "9C56+FW Upperpally, Telangana, India"}, "vicinity": "Sri Sai Janachithanya Colony, Golden Heights Colony, Upperpally", "photos": [{"photo_reference": "ATtYBwLVYNmoTerh4a6q6R3LqnugtfgNkFhhd8zqbbcjr3v7K1sqlDRVC-pqDpGF-voA4fxb_ZdHcumGc0Kjj5JosU-DHRQppnxrt6EybfwU4XFoDIGJs-mqrLcClJe4_adAjE-ZD4zLVWs3c4Jq5OvaNWZwrIHlorbBb1wlaseuj4sh14rF", "width": 2615, "html_attributions": ["<a href=\"https://maps.google.com/maps/contrib/114325069114905554034\">Solitaire Global Schools (Attapur Branch)</a>"], "height": 995}], "scope": "GOOGLE", "business_status": "CLOSED_TEMPORARILY", "types": ["school", "point_of_interest", "establishment"], "icon": "https://maps.gstatic.com/mapfiles/place_api/icons/v1/png_71/school-71.png"}, {"name": "Zoltan School", "reference": "ChIJ9b4ftEaWyzsR5oVcv745BUw", "geometry": {"location": {"lat": 17.3585075, "lng": 78.4130089}, "viewport": {"northeast": {"lat": 17.3598404802915, "lng": 78.4143579302915}, "southwest": {"lat": 17.3571425197085, "lng": 78.4116599697085}}}, "place_id": "ChIJ9b4ftEaWyzsR5oVcv745BUw", "plus_code": {"global_code": "7J9W9C57+C6", "compound_code": "9C57+C6 Upperpally, Telangana, India"}, "vicinity": "Sri Sai Janachithanya Colony, Golden Heights Colony, Upperpally", "photos": [{"photo_reference": "ATtYBwJYRmrXVjuMYN0NuAhG2vzGVjXV3rSEgJV0ikPWDQ5jutk67iUSW9HazjwRH4PfK-pPCgLfv7ubPnPG2az5IilQCgTDrs0FCcjwZmWWosx3sc2ti7VT_ICk-cJwOLhluPOD2leycFyRJ0gOzVnil9MIanVdI0GfYenTxzeFGL3LwTgN", "width": 3120, "html_attributions": ["<a href=\"https://maps.google.com/maps/contrib/116102575571098427652\">Vijay Deepika</a>"], "height": 4160}], "scope": "GOOGLE", "business_status": "OPERATIONAL", "types": ["school", "point_of_interest", "establishment"], "icon": "https://maps.gstatic.com/mapfiles/place_api/icons/v1/png_71/school-71.png"}, {"rating": 4.5, "user_ratings_total": 2, "name": "Mudes1 Spirulina", "reference": "ChIJ4b7CGkOWyzsRY2H1XCXQGK0", "geometry": {"location": {"lat": 17.3632058, "lng": 78.4104014}, "viewport": {"northeast": {"lat": 17.3646230302915, "lng": 78.4117394302915}, "southwest": {"lat": 17.36192506970849, "lng": 78.4090414697085}}}, "place_id": "ChIJ4b7CGkOWyzsRY2H1XCXQGK0", "plus_code": {"global_code": "7J9W9C76+75", "compound_code": "9C76+75 Upperpally, Telangana, India"}, "vicinity": "Street Number 1, Yerraboda, Upperpally", "photos": [{"photo_reference": "ATtYBwJjpog3byFDhFEpbcZcMTCWghOtQq7MP9yHQvbAXtOzH0zBMADM6LLiCgr5uu5YQpYmd_BWQC2NjANWISD1iZGVqinlF0-2ZKC0c4-OrGZKNEe6iD3zCTebmiJk863pKf3dEmddDORKNVFLeTYNdL4FKOEcaVz_vpOwMnOup3vr00yp", "width": 1536, "html_attributions": ["<a href=\"https://maps.google.com/maps/contrib/111191243514759895805\">skmudigonda</a>"], "height": 2048}], "scope": "GOOGLE", "business_status": "OPERATIONAL", "types": ["school", "point_of_interest", "establishment"], "icon": "https://maps.gstatic.com/mapfiles/place_api/icons/v1/png_71/school-71.png"}, {"name": "Alphakids international preschool & daycare", "reference": "ChIJt8kSgGCXyzsRUF-4Rg_VVbs", "geometry": {"location": {"lat": 17.3595936, "lng": 78.41338950000001}, "viewport": {"northeast": {"lat": 17.3609426802915, "lng": 78.4147552802915}, "southwest": {"lat": 17.3582447197085, "lng": 78.4120573197085}}}, "place_id": "ChIJt8kSgGCXyzsRUF-4Rg_VVbs", "plus_code": {"global_code": "7J9W9C57+R9", "compound_code": "9C57+R9 Upperpally, Telangana, India"}, "vicinity": "Venkata Sai Colony, Upperpally", "scope": "GOOGLE", "business_status": "OPERATIONAL", "types": ["school", "point_of_interest", "establishment"], "icon": "https://maps.gstatic.com/mapfiles/place_api/icons/v1/png_71/school-71.png"}, {"rating": 4.8, "user_ratings_total": 46, "name": "OLIVEMOUNT GLOBAL SCHOOL", "reference": "ChIJ5SKT6kSWyzsRSFKnVxCixoI", "geometry": {"location": {"lat": 17.3638877, "lng": 78.4113759}, "viewport": {"northeast": {"lat": 17.3653605302915, "lng": 78.4127274302915}, "southwest": {"lat": 17.3626625697085, "lng": 78.41002946970849}}}, "opening_hours": {"open_now": false}, "place_id": "ChIJ5SKT6kSWyzsRSFKnVxCixoI", "plus_code": {"global_code": "7J9W9C76+HH", "compound_code": "9C76+HH Attapur, Telangana, India"}, "vicinity": "Street Number 15, Nalanda Nagar, Hyderaguda, Attapur", "photos": [{"photo_reference": "ATtYBwI7JPiMcvXx_rn6wVTXNGeEZ4JomeUPWz_k56o7vt9ymxHdcy0M-qSSy8VNvfGke8nR6GsXnCXnmnWFfle_NKyTPrpqZO87WIHhIAFvuE_kWsddkBeie8qCD9g5eT1DP8XmSOcFmQtd-7sbQ90BrF5-Daj0XuNgD0QHeihphD8_Z1ur", "width": 1140, "html_attributions": ["<a href=\"https://maps.google.com/maps/contrib/110419571311689185808\">OLIVEMOUNT GLOBAL SCHOOL</a>"], "height": 640}], "scope": "GOOGLE", "business_status": "OPERATIONAL", "types": ["school", "primary_school", "secondary_school", "point_of_interest", "establishment"], "icon": "https://maps.gstatic.com/mapfiles/place_api/icons/v1/png_71/school-71.png"}, {"rating": 5, "user_ratings_total": 3, "permanently_closed": true, "name": "I Play I Learn", "reference": "ChIJX3-5VFCXyzsR68BOohoBWPQ", "geometry": {"location": {"lat": 17.3599329, "lng": 78.4056926}, "viewport": {"northeast": {"lat": 17.3613170802915, "lng": 78.4070095802915}, "southwest": {"lat": 17.3586191197085, "lng": 78.4043116197085}}}, "place_id": "ChIJX3-5VFCXyzsR68BOohoBWPQ", "plus_code": {"global_code": "7J9W9C54+X7", "compound_code": "9C54+X7 Bandlaguda Jagir, Telangana, India"}, "vicinity": "Plot No. 181, Rise and grow Society Block, P&T Colony, Sun City, Bandlaguda Jagir", "photos": [{"photo_reference": "ATtYBwKjA5-H7Qr0oFIRBsrtG6aLJzPywyf_ibs9XiAaCZCnGPapn8t20BIRfHK-3-d_V_qhRV7JmJ401syb4Bq1l5XI6lQabcB4o3IOSi4a390rHfeXpFBuA4hoQ9wv0QmPzTnI_v8UxJdQ94P4JQ2Tjth6Jqqg-e9dnT511Zci8iWd0y2Y", "width": 960, "html_attributions": ["<a href=\"https://maps.google.com/maps/contrib/113391631119268599134\">I Play I Learn</a>"], "height": 360}], "scope": "GOOGLE", "business_status": "CLOSED_TEMPORARILY", "types": ["school", "point_of_interest", "establishment"], "icon": "https://maps.gstatic.com/mapfiles/place_api/icons/v1/png_71/school-71.png"}, {"name": "RKManor", "reference": "ChIJZwsls2KXyzsRvUM0zYCIIYE", "geometry": {"location": {"lat": 17.35729049999999, "lng": 78.4143615}, "viewport": {"northeast": {"lat": 17.3586377302915, "lng": 78.41576623029151}, "southwest": {"lat": 17.3559397697085, "lng": 78.41306826970849}}}, "place_id": "ChIJZwsls2KXyzsRvUM0zYCIIYE", "plus_code": {"global_code": "7J9W9C47+WP", "compound_code": "9C47+WP Upperpally, Telangana, India"}, "vicinity": "Plot#93, Sunrise Homes Colony, Upperpally", "scope": "GOOGLE", "business_status": "OPERATIONAL", "types": ["school", "point_of_interest", "establishment"], "icon": "https://maps.gstatic.com/mapfiles/place_api/icons/v1/png_71/school-71.png"}, {"rating": 5, "user_ratings_total": 1, "name": "Amina high school", "reference": "ChIJE9znmmqWyzsRHt9PJU4XqvA", "geometry": {"location": {"lat": 17.3555669, "lng": 78.40641839999999}, "viewport": {"northeast": {"lat": 17.3568936302915, "lng": 78.4076978302915}, "southwest": {"lat": 17.3541956697085, "lng": 78.40499986970849}}}, "place_id": "ChIJE9znmmqWyzsRHt9PJU4XqvA", "plus_code": {"global_code": "7J9W9C44+6H", "compound_code": "9C44+6H Bandlaguda Jagir, Telangana, India"}, "vicinity": "P&T, Hyder Shah Kote, Bandlaguda Jagir", "scope": "GOOGLE", "business_status": "OPERATIONAL", "types": ["school", "point_of_interest", "establishment"], "icon": "https://maps.gstatic.com/mapfiles/place_api/icons/v1/png_71/school-71.png"}, {"name": "Jamia Hafsa as Salafiya Lil Banat", "reference": "ChIJjVOWgQ2XyzsRD2RZ3-ta5m8", "geometry": {"location": {"lat": 17.3594864, "lng": 78.4040711}, "viewport": {"northeast": {"lat": 17.3608431302915, "lng": 78.4054289802915}, "southwest": {"lat": 17.3581451697085, "lng": 78.4027310197085}}}, "place_id": "ChIJjVOWgQ2XyzsRD2RZ3-ta5m8", "plus_code": {"global_code": "7J9W9C53+QJ", "compound_code": "9C53+QJ Bandlaguda Jagir, Telangana, India"}, "vicinity": "Suncity Road, P&T Colony, Sun City, Bandlaguda Jagir", "scope": "GOOGLE", "business_status": "OPERATIONAL", "types": ["school", "point_of_interest", "establishment"], "icon": "https://maps.gstatic.com/mapfiles/place_api/icons/v1/png_71/school-71.png"}, {"rating": 5, "user_ratings_total": 6, "name": "TPS KIDS", "reference": "ChIJ8RRnY66XyzsRj9zyxhusAHs", "geometry": {"location": {"lat": 17.3570534, "lng": 78.40480219999999}, "viewport": {"northeast": {"lat": 17.3584867802915, "lng": 78.40611733029151}, "southwest": {"lat": 17.35578881970849, "lng": 78.40341936970849}}}, "opening_hours": {"open_now": false}, "place_id": "ChIJ8RRnY66XyzsRj9zyxhusAHs", "plus_code": {"global_code": "7J9W9C43+RW", "compound_code": "9C43+RW Bandlaguda Jagir, Telangana, India"}, "vicinity": "plot 120, P&T Colony, Sun City, Bandlaguda Jagir", "scope": "GOOGLE", "business_status": "OPERATIONAL", "types": ["school", "point_of_interest", "establishment"], "icon": "https://maps.gstatic.com/mapfiles/place_api/icons/v1/png_71/school-71.png"}, {"name": "Sanskrit Gurukulam", "reference": "ChIJl24IhAmXyzsRKsQY6ExZq64", "geometry": {"location": {"lat": 17.364467, "lng": 78.41390899999999}, "viewport": {"northeast": {"lat": 17.3657997302915, "lng": 78.4152572302915}, "southwest": {"lat": 17.36310176970849, "lng": 78.4125592697085}}}, "place_id": "ChIJl24IhAmXyzsRKsQY6ExZq64", "plus_code": {"global_code": "7J9W9C77+QH", "compound_code": "9C77+QH Upperpally, Telangana, India"}, "vicinity": "Nalanda Nagar, Nalanda Nagar, Srimallenagar Colony, Upperpally", "photos": [{"photo_reference": "ATtYBwLU1F2ODmwDrWyUR0H92gCTzH9Ctn3Kwj45gHIfLUj_WZOVWWS0SD1WmMxhofE3WUWXXOWdsYjq-BwlNK7CwskZg0uES8Cmhs5TcLD-iWdEN9kdDkBmkfLFa3rF9FLsDXayaHAPocpOAqbjaVKANqxtI4c-vrY2ge_wjy3yAaflrJFj", "width": 4032, "html_attributions": ["<a href=\"https://maps.google.com/maps/contrib/104118572322639955382\">Dattaraj D</a>"], "height": 1960}], "scope": "GOOGLE", "business_status": "OPERATIONAL", "types": ["school", "point_of_interest", "establishment"], "icon": "https://maps.gstatic.com/mapfiles/place_api/icons/v1/png_71/school-71.png"}, {"rating": 4, "user_ratings_total": 2, "name": "Reliance Degree College", "reference": "ChIJK9SPCOqXyzsRJUwlUUtMcGY", "geometry": {"location": {"lat": 17.36274, "lng": 78.4155033}, "viewport": {"northeast": {"lat": 17.3640906302915, "lng": 78.4168330302915}, "southwest": {"lat": 17.3613926697085, "lng": 78.4141350697085}}}, "place_id": "ChIJK9SPCOqXyzsRJUwlUUtMcGY", "plus_code": {"global_code": "7J9W9C78+36", "compound_code": "9C78+36 Upperpally, Telangana, India"}, "vicinity": "opp d mart, Upperpally", "photos": [{"photo_reference": "ATtYBwKs4OdZ3Ca6YZnBcxoNAIfqqb76gM3HCLkYcT4k1LBNJpnubHoxVIQK7cFoScgjjEHebhtpvB8FdA4MIahZQTZVMiFHFv35IAVtcN7du8lcj2JVRhzHlS5jF8hUcQndNMBwQGEkrCe6ptzwGVgej7GnoAaCsVe-YhwLp1zayimZGifo", "width": 4160, "html_attributions": ["<a href=\"https://maps.google.com/maps/contrib/100023076013082173651\">satish kumar</a>"], "height": 3120}], "scope": "GOOGLE", "business_status": "OPERATIONAL", "types": ["school", "point_of_interest", "establishment"], "icon": "https://maps.gstatic.com/mapfiles/place_api/icons/v1/png_71/school-71.png"}, {"name": "Rama Krishna", "reference": "ChIJ96XhhZWXyzsR7yX95pVs-10", "geometry": {"location": {"lat": 17.36274, "lng": 78.4155033}, "viewport": {"northeast": {"lat": 17.3640906302915, "lng": 78.4168330302915}, "southwest": {"lat": 17.3613926697085, "lng": 78.4141350697085}}}, "place_id": "ChIJ96XhhZWXyzsR7yX95pVs-10", "plus_code": {"global_code": "7J9W9C78+36", "compound_code": "9C78+36 Upperpally, Telangana, India"}, "vicinity": "Upperpally", "scope": "GOOGLE", "business_status": "OPERATIONAL", "types": ["school", "point_of_interest", "establishment"], "icon": "https://maps.gstatic.com/mapfiles/place_api/icons/v1/png_71/school-71.png"}, {"name": "Solitaire Global Schools", "reference": "ChIJVVVVFUeWyzsRkZtO7zeedUk", "geometry": {"location": {"lat": 17.3553801, "lng": 78.4140817}, "viewport": {"northeast": {"lat": 17.3567110802915, "lng": 78.4154156302915}, "southwest": {"lat": 17.35401311970849, "lng": 78.4127176697085}}}, "place_id": "ChIJVVVVFUeWyzsRkZtO7zeedUk", "vicinity": "near Sunrise Valley, Sri Sai Janachithanya Colony, Golden Heights Colony, Upperpally", "scope": "GOOGLE", "business_status": "OPERATIONAL", "types": ["school", "point_of_interest", "establishment"], "icon": "https://maps.gstatic.com/mapfiles/place_api/icons/v1/png_71/school-71.png"}]}