{"status": "OK", "html_attributions": [], "results": [{"rating": 4.7, "user_ratings_total": 46, "name": "Amaravathi High School", "reference": "ChIJq6qquimRyzsR81DANUqU8B0", "geometry": {"location": {"lat": 17.4332587, "lng": 78.42760799999999}, "viewport": {"northeast": {"lat": 17.4346190302915, "lng": 78.4289275302915}, "southwest": {"lat": 17.43192106970849, "lng": 78.4262295697085}}}, "opening_hours": {"open_now": false}, "place_id": "ChIJq6qquimRyzsR81DANUqU8B0", "plus_code": {"global_code": "7J9WCCMH+82", "compound_code": "CCMH+82 Hyderabad, Telangana, India"}, "vicinity": "Krishna Nagar, Yousufguda, Hyderabad", "photos": [{"photo_reference": "ATtYBwJDBsj4jqEUJiX6pLqUeVkJD81T3mgRQWjq81WxbHSp6MsWhQFsIY38S5ddkCTcqJ0iK3V3VD9Bwcw7dnzmncfeWPH-4m9TyQakQ8PoQipw7IrZmiTXNTenGm76icaaYh6I1I7Ng0MvRrHxSb5rXIlVkp9vqW6Ph4_fKHhzdXgqSU7l", "width": 3264, "html_attributions": ["<a href=\"https://maps.google.com/maps/contrib/110589802831881723613\">Amaravathi High School</a>"], "height": 1836}], "scope": "GOOGLE", "business_status": "OPERATIONAL", "types": ["secondary_school", "school", "point_of_interest", "establishment"], "icon": "https://maps.gstatic.com/mapfiles/place_api/icons/v1/png_71/school-71.png"}, {"rating": 4.7, "user_ratings_total": 15, "name": "Kidzee Kalyannagar", "reference": "ChIJ574Jyd-QyzsR7u14uCP1SmE", "geometry": {"location": {"lat": 17.4468773, "lng": 78.43204709999999}, "viewport": {"northeast": {"lat": 17.4482222802915, "lng": 78.4334456302915}, "southwest": {"lat": 17.4455243197085, "lng": 78.4307476697085}}}, "place_id": "ChIJ574Jyd-QyzsR7u14uCP1SmE", "plus_code": {"global_code": "7J9WCCWJ+QR", "compound_code": "CCWJ+QR Hyderabad, Telangana, India"}, "vicinity": "Plot no 27 Kalyan Nagar X Rd, Street Number 4, Hyderabad", "photos": [{"photo_reference": "ATtYBwJje2-nCL6mLvMJZdEOcmagLDBr6RpBgF2jqear7Jdyv_-bxHnqKDo9miKDdUGT8Q5Qxexj38xkuFiyaR6us-KzjCQ323G2S8knwUYeP8Z01GKUsfsAPsJrCPdU0NTy3DoMukPrRsT2mFPD7EcCDBnhdJMpKqX6V5qemIpScDLl35kX", "width": 540, "html_attributions": ["<a href=\"https://maps.google.com/maps/contrib/113488168073921365120\">aarti mukhya</a>"], "height": 540}], "scope": "GOOGLE", "business_status": "OPERATIONAL", "types": ["school", "point_of_interest", "establishment"], "icon": "https://maps.gstatic.com/mapfiles/place_api/icons/v1/png_71/school-71.png"}, {"rating": 3.1, "user_ratings_total": 8, "name": "Ingenium world school", "reference": "ChIJpxwpxt-QyzsRlxP_ZKJA8T4", "geometry": {"location": {"lat": 17.4469438, "lng": 78.4318246}, "viewport": {"northeast": {"lat": 17.4480846802915, "lng": 78.43315988029151}, "southwest": {"lat": 17.4453867197085, "lng": 78.4304619197085}}}, "opening_hours": {"open_now": false}, "place_id": "ChIJpxwpxt-QyzsRlxP_ZKJA8T4", "plus_code": {"global_code": "7J9WCCWJ+QP", "compound_code": "CCWJ+QP Hyderabad, Telangana, India"}, "vicinity": "House No 8-3-167/D/29 lane Opp, Central Bank Lane, Kalyan Nagar Phase 1, Hyderabad", "photos": [{"photo_reference": "ATtYBwIDqSzSgzaEzdbVp2Iiz_RETGdUYIPH3jCYFoiu9ob-Ug8NFjARE5d2icOi3msOtRu6GY7gW_aocwibXSOv9t5bhSAd_Co5-jzZB2kij8Ok4zFB68TmZgdZfZVQmDNfVyKqNeNcL2f8lZwNQffy-MBX8YYLfb0ukgatwpmN0nufKeym", "width": 5760, "html_attributions": ["<a href=\"https://maps.google.com/maps/contrib/114234500663566787336\">Ingenium world school</a>"], "height": 3840}], "scope": "GOOGLE", "business_status": "OPERATIONAL", "types": ["school", "point_of_interest", "establishment"], "icon": "https://maps.gstatic.com/mapfiles/place_api/icons/v1/png_71/school-71.png"}, {"rating": 5, "user_ratings_total": 4, "name": "Laurel Pre-School and Daycare", "reference": "ChIJ88R-QdeQyzsRdWhvLAjHukk", "geometry": {"location": {"lat": 17.4360695, "lng": 78.4363422}, "viewport": {"northeast": {"lat": 17.4375087302915, "lng": 78.4377060802915}, "southwest": {"lat": 17.4348107697085, "lng": 78.4350081197085}}}, "opening_hours": {"open_now": false}, "place_id": "ChIJ88R-QdeQyzsRdWhvLAjHukk", "plus_code": {"global_code": "7J9WCCPP+CG", "compound_code": "CCPP+CG Hyderabad, Telangana, India"}, "vicinity": "8-3-316/6/8, Engineers Colony, Sri Krishna Devaraya Nagar, Pragathi Nagar, Yousufguda, Hyderabad", "scope": "GOOGLE", "business_status": "OPERATIONAL", "types": ["school", "point_of_interest", "establishment"], "icon": "https://maps.gstatic.com/mapfiles/place_api/icons/v1/png_71/school-71.png"}, {"rating": 4, "user_ratings_total": 2, "name": "Sri Sai Public School", "reference": "ChIJ1XcPtimRyzsR4S-NofItabU", "geometry": {"location": {"lat": 17.43295819999999, "lng": 78.4282494}, "viewport": {"northeast": {"lat": 17.4343091302915, "lng": 78.42959263029151}, "southwest": {"lat": 17.43161116970849, "lng": 78.4268946697085}}}, "opening_hours": {"open_now": false}, "place_id": "ChIJ1XcPtimRyzsR4S-NofItabU", "plus_code": {"global_code": "7J9WCCMH+57", "compound_code": "CCMH+57 Hyderabad, Telangana, India"}, "vicinity": "A-318, Sri Nagar Colony, Krishna Nagar, Yousufguda, Hyderabad", "scope": "GOOGLE", "business_status": "OPERATIONAL", "types": ["school", "point_of_interest", "establishment"], "icon": "https://maps.gstatic.com/mapfiles/place_api/icons/v1/png_71/school-71.png"}, {"rating": 4, "user_ratings_total": 7, "name": "PLAYsmc", "reference": "ChIJQW5gL9aQyzsRw3s6TgJtck0", "geometry": {"location": {"lat": 17.432748, "lng": 78.430166}, "viewport": {"northeast": {"lat": 17.4340998802915, "lng": 78.4315170802915}, "southwest": {"lat": 17.4314019197085, "lng": 78.42881911970849}}}, "opening_hours": {"open_now": true}, "place_id": "ChIJQW5gL9aQyzsRw3s6TgJtck0", "plus_code": {"global_code": "7J9WCCMJ+33", "compound_code": "CCMJ+33 Hyderabad, Telangana, India"}, "vicinity": "70 a, cosy cottage, sri krishna nagar, opp yousufguda indoor stadium, Hyderabad", "photos": [{"photo_reference": "ATtYBwJjHhXNXC6WYCb2IUQgg5E3JNxh4RI8KsYfLBuxMOu7iZo0sr9Voy3dTxHD8qxQC2UdfCyObZuQbaFNW6n7Dpz6_UTkXyw4cCyzJEZnzL6GHXNJuxKxWUfs_oPZm2-cHL8OqaOL8OuY5W8fcuUD5F0b7-vM1x05mXkWkpMpj_RxD_vP", "width": 2048, "html_attributions": ["<a href=\"https://maps.google.com/maps/contrib/115773716327261632606\">PLAYsmc</a>"], "height": 1365}], "scope": "GOOGLE", "business_status": "OPERATIONAL", "types": ["general_contractor", "school", "health", "point_of_interest", "establishment"], "icon": "https://maps.gstatic.com/mapfiles/place_api/icons/v1/png_71/school-71.png"}, {"name": "SRUSTI ART ACADEMY NARESH REDDY", "reference": "ChIJ4yzxotuQyzsRQs0TR6IB658", "geometry": {"location": {"lat": 17.4410653, "lng": 78.4376912}, "viewport": {"northeast": {"lat": 17.4424187302915, "lng": 78.4390141802915}, "southwest": {"lat": 17.4397207697085, "lng": 78.43631621970849}}}, "place_id": "ChIJ4yzxotuQyzsRQs0TR6IB658", "plus_code": {"global_code": "7J9WCCRQ+C3", "compound_code": "CCRQ+C3 Hyderabad, Telangana, India"}, "vicinity": "H 75/C, Mothi Nagar, Vengal Rao Nagar, Sanjeeva Reddy Nagar, Hyderabad", "scope": "GOOGLE", "business_status": "OPERATIONAL", "types": ["school", "point_of_interest", "establishment"], "icon": "https://maps.gstatic.com/mapfiles/place_api/icons/v1/png_71/school-71.png"}, {"name": "HPS Kids Vengal Rao Nagar", "reference": "ChIJQX7-j9uQyzsRnfK8MypWyY8", "geometry": {"location": {"lat": 17.441917, "lng": 78.43751499999999}, "viewport": {"northeast": {"lat": 17.4432565802915, "lng": 78.43890498029151}, "southwest": {"lat": 17.4405586197085, "lng": 78.43620701970849}}}, "opening_hours": {"open_now": false}, "place_id": "ChIJQX7-j9uQyzsRnfK8MypWyY8", "plus_code": {"global_code": "7J9WCCRQ+Q2", "compound_code": "CCRQ+Q2 Hyderabad, Telangana, India"}, "vicinity": "near Community Hall, Plot No. 95, Siddhartha Nagar, Vengal Rao Nagar, near Community Hall, Hyderabad", "scope": "GOOGLE", "business_status": "OPERATIONAL", "types": ["school", "point_of_interest", "establishment"], "icon": "https://maps.gstatic.com/mapfiles/place_api/icons/v1/png_71/school-71.png"}, {"rating": 3.8, "user_ratings_total": 9, "permanently_closed": true, "name": "Sri Sairam High School", "reference": "ChIJf5OfJS-RyzsRIRTRws4jXCs", "geometry": {"location": {"lat": 17.4343278, "lng": 78.42491849999999}, "viewport": {"northeast": {"lat": 17.4356687302915, "lng": 78.4262931302915}, "southwest": {"lat": 17.4329707697085, "lng": 78.42359516970849}}}, "place_id": "ChIJf5OfJS-RyzsRIRTRws4jXCs", "plus_code": {"global_code": "7J9WCCMF+PX", "compound_code": "CCMF+PX Hyderabad, Telangana, India"}, "vicinity": "8-3-230/1/B, Venkatagiri, Yousufguda, Hyderabad", "photos": [{"photo_reference": "ATtYBwIaPfKKoSFSohFlFnz3dJ3MisFwS4GOc5cneOlBhAu_uxK_A5j_q10nSapw0EAdhnyVymcF_OKCLZSxr-NIX2wTR4Lvra2t6QoH3MAfjnFbBgWSAO82Q_w8fI0keZpU0J5nqtQYYCdLBSh_1219T9eHfYpSaeVhZP4nL2PcXi6OABi4", "width": 3024, "html_attributions": ["<a href=\"https://maps.google.com/maps/contrib/104084372278130638868\">Dasa Akhil</a>"], "height": 4032}], "scope": "GOOGLE", "business_status": "CLOSED_TEMPORARILY", "types": ["secondary_school", "school", "point_of_interest", "establishment"], "icon": "https://maps.gstatic.com/mapfiles/place_api/icons/v1/png_71/school-71.png"}, {"rating": 4, "user_ratings_total": 5, "permanently_closed": true, "name": "Sri Chaitanya school", "reference": "ChIJKyhLmtCQyzsRzVEYwLmuVFo", "geometry": {"location": {"lat": 17.4363546, "lng": 78.4369349}, "viewport": {"northeast": {"lat": 17.4376143802915, "lng": 78.4382723302915}, "southwest": {"lat": 17.4349164197085, "lng": 78.43557436970849}}}, "place_id": "ChIJKyhLmtCQyzsRzVEYwLmuVFo", "plus_code": {"global_code": "7J9WCCPP+GQ", "compound_code": "CCPP+GQ Hyderabad, Telangana, India"}, "vicinity": "House No: 8, beside Allahabad Bank, 3-22, Yousufguda Main Road, Madhura Nagar, Hyderabad", "photos": [{"photo_reference": "ATtYBwJx3zX2FRa_hFoJ2AHCyE89leqsNNj-WWThCjlssSyMBvdWFaCJHGbxrNKuaCHIw2awWImAZ0mTppHnPfcMs9s05dtpgIDPIapZTJ5Fh_dZnM5QlzjeOP18ck6YRwOM65Jw0OanvFQEkyG4F67voP9ovahmY7itm0RZQSC9mAG_MCaN", "width": 561, "html_attributions": ["<a href=\"https://maps.google.com/maps/contrib/114768389940495945794\">Sri Chaitanya school</a>"], "height": 467}], "scope": "GOOGLE", "business_status": "CLOSED_TEMPORARILY", "types": ["school", "point_of_interest", "establishment"], "icon": "https://maps.gstatic.com/mapfiles/place_api/icons/v1/png_71/school-71.png"}, {"rating": 4.2, "user_ratings_total": 78, "name": "Brahmam Talent High School", "reference": "ChIJ31LWHdyQyzsRWJUbS6JpY64", "geometry": {"location": {"lat": 17.4404755, "lng": 78.4382971}, "viewport": {"northeast": {"lat": 17.4417814302915, "lng": 78.4396338302915}, "southwest": {"lat": 17.4390834697085, "lng": 78.43693586970849}}}, "opening_hours": {"open_now": true}, "place_id": "ChIJ31LWHdyQyzsRWJUbS6JpY64", "plus_code": {"global_code": "7J9WCCRQ+58", "compound_code": "CCRQ+58 Hyderabad, Telangana, India"}, "vicinity": "8-3-191/565/K, Vengalarao Nagar, Near SR Nagar X Roads, Hyderabad", "photos": [{"photo_reference": "ATtYBwIu7vdFzeX9KCNBoCq-JDrogcoyKWUVXwf5C24GCjh1eu0lghOzv87y2SRJHLOEPJZEz1t6WdKpQt8kLp5fT1g1CSByeNNDtLoXX1AO9Iy2M--5sTVq8bC2vdW2Ynzl4ASqmVtQWG6Be6lSpYzlIv3oCxlbZ1BGkzltu-w_oWNr0eTw", "width": 1078, "html_attributions": ["<a href=\"https://maps.google.com/maps/contrib/116387359661059405280\">Vipul Krishna</a>"], "height": 672}], "scope": "GOOGLE", "business_status": "OPERATIONAL", "types": ["secondary_school", "school", "point_of_interest", "establishment"], "icon": "https://maps.gstatic.com/mapfiles/place_api/icons/v1/png_71/school-71.png"}, {"name": "Li\u2019ll Hearts School", "reference": "ChIJyRv22t-QyzsR4LwiKRtyxb4", "geometry": {"location": {"lat": 17.4477903, "lng": 78.4321669}, "viewport": {"northeast": {"lat": 17.4491350302915, "lng": 78.4335556802915}, "southwest": {"lat": 17.44643706970849, "lng": 78.4308577197085}}}, "place_id": "ChIJyRv22t-QyzsR4LwiKRtyxb4", "plus_code": {"global_code": "7J9WCCXJ+4V", "compound_code": "CCXJ+4V Hyderabad, Telangana, India"}, "vicinity": "India", "scope": "GOOGLE", "business_status": "OPERATIONAL", "types": ["school", "point_of_interest", "establishment"], "icon": "https://maps.gstatic.com/mapfiles/place_api/icons/v1/png_71/school-71.png"}, {"rating": 4.2, "user_ratings_total": 15, "name": "Brahmam Talent High School", "reference": "ChIJc-61jB-RyzsRWvDue-gWWEw", "geometry": {"location": {"lat": 17.4482131, "lng": 78.42835749999999}, "viewport": {"northeast": {"lat": 17.4495627802915, "lng": 78.4295989802915}, "southwest": {"lat": 17.4468648197085, "lng": 78.4269010197085}}}, "opening_hours": {"open_now": false}, "place_id": "ChIJc-61jB-RyzsRWvDue-gWWEw", "plus_code": {"global_code": "7J9WCCXH+78", "compound_code": "CCXH+78 Hyderabad, Telangana, India"}, "vicinity": "opposite Lane To E S I Hospital, A. G. Colony, Yousufguda, opposite Lane To E S I Hospital, Hyderabad", "photos": [{"photo_reference": "ATtYBwJqBI0Ui3tVX4_dnOV-W5xcqIl3DjpGApceM0MxvFinu5MbALllCbKyPxVCkVRep5Tsr1vUX0minXmO7CZRnw1V2FPxzA3hknAK5bIz5p2zY8afNCkAbdrQV3Jy1EThLnF0fBVZop8M_NoHSftaMTUVGJZUZ-IyBplTrOjqAVMKp8E", "width": 2048, "html_attributions": ["<a href=\"https://maps.google.com/maps/contrib/105247015689755995632\">Brahmam Talent High School</a>"], "height": 1536}], "scope": "GOOGLE", "business_status": "OPERATIONAL", "types": ["secondary_school", "school", "point_of_interest", "establishment"], "icon": "https://maps.gstatic.com/mapfiles/place_api/icons/v1/png_71/school-71.png"}, {"rating": 5, "user_ratings_total": 6, "name": "Shaun's Music Institute", "reference": "ChIJxbdpThqRyzsRrGGFXMQJ-l0", "geometry": {"location": {"lat": 17.4471893, "lng": 78.4254897}, "viewport": {"northeast": {"lat": 17.4485326802915, "lng": 78.42679833029152}, "southwest": {"lat": 17.44583471970849, "lng": 78.4241003697085}}}, "opening_hours": {"open_now": false}, "place_id": "ChIJxbdpThqRyzsRrGGFXMQJ-l0", "plus_code": {"global_code": "7J9WCCWG+V5", "compound_code": "CCWG+V5 Hyderabad, Telangana, India"}, "vicinity": "Flat No T - 2, Plot No 89, Srishikhara Apartments, Rajeev Nagar, Moti Nagar, Hyderabad", "photos": [{"photo_reference": "ATtYBwK8Orbp7TS0eZlCMIMaqVwcIbnR-M4l1VpHKNgnAnRgIM96VpSFF6meFoGCCGgpBbJSHAWN0o-NsUhRs5wOWrZ16Ju3sKYZAZBRzJvkqzOnBi_NGrAuqW5pSvtfvzhvC1TDWTZf2FZY4jOsN4MkQqU2LHGtnrkiEpcSysqjHCTi9Ppi", "width": 409, "html_attributions": ["<a href=\"https://maps.google.com/maps/contrib/106453963318137287413\">Daniel Konakanchi</a>"], "height": 409}], "scope": "GOOGLE", "business_status": "OPERATIONAL", "types": ["electronics_store", "home_goods_store", "school", "point_of_interest", "store", "establishment"], "icon": "https://maps.gstatic.com/mapfiles/place_api/icons/v1/png_71/school-71.png"}, {"rating": 5, "user_ratings_total": 1, "name": "Chipotle kids school", "reference": "ChIJ5XAM8NqQyzsR6gMt5Y7ROYA", "geometry": {"location": {"lat": 17.4390495, "lng": 78.4388832}, "viewport": {"northeast": {"lat": 17.4403205802915, "lng": 78.4402264302915}, "southwest": {"lat": 17.4376226197085, "lng": 78.4375284697085}}}, "place_id": "ChIJ5XAM8NqQyzsR6gMt5Y7ROYA", "plus_code": {"global_code": "7J9WCCQQ+JH", "compound_code": "CCQQ+JH Hyderabad, Telangana, India"}, "vicinity": "A/46, Madhura Nagar Main Road, Madhura Nagar, Hyderabad", "scope": "GOOGLE", "business_status": "OPERATIONAL", "types": ["school", "point_of_interest", "establishment"], "icon": "https://maps.gstatic.com/mapfiles/place_api/icons/v1/png_71/school-71.png"}, {"rating": 2.6, "user_ratings_total": 7, "name": "Sri Sai Ram High School", "reference": "ChIJ1xKpcy-RyzsRMldiHJzAQUI", "geometry": {"location": {"lat": 17.4346253, "lng": 78.42169489999999}, "viewport": {"northeast": {"lat": 17.4359331302915, "lng": 78.4230323302915}, "southwest": {"lat": 17.4332351697085, "lng": 78.4203343697085}}}, "place_id": "ChIJ1xKpcy-RyzsRMldiHJzAQUI", "plus_code": {"global_code": "7J9WCCMC+VM", "compound_code": "CCMC+VM Hyderabad, Telangana, India"}, "vicinity": "Hylam Colony, Jubilee Hills, Hyderabad", "scope": "GOOGLE", "business_status": "OPERATIONAL", "types": ["secondary_school", "school", "point_of_interest", "establishment"], "icon": "https://maps.gstatic.com/mapfiles/place_api/icons/v1/png_71/school-71.png"}, {"rating": 3.9, "user_ratings_total": 33, "name": "Nagarjuna High School", "reference": "ChIJ4WEhbB-RyzsRWrupxwVxK0o", "geometry": {"location": {"lat": 17.44905139999999, "lng": 78.4259842}, "viewport": {"northeast": {"lat": 17.4503997802915, "lng": 78.42732073029151}, "southwest": {"lat": 17.4477018197085, "lng": 78.42462276970849}}}, "place_id": "ChIJ4WEhbB-RyzsRWrupxwVxK0o", "plus_code": {"global_code": "7J9WCCXG+J9", "compound_code": "CCXG+J9 Hyderabad, Telangana, India"}, "vicinity": "Rajeev Nagar, Erragadda, Hyderabad", "photos": [{"photo_reference": "ATtYBwJIUMA6bFvhLMQMHumJdo_7oOT5Yv1D5FKsv2eqpEpBngLLlzXac6ERCX9um_uDqT_LC-aWmr9NasMeQ74VmU92IOTOUj50epjpnL9Fb57D21WWNSQKq32Aq4SvmaIUdww_NXa30ChJRuurcw4st1jMCnTJithcOv6Fb93Ghqi9Lc6P", "width": 4160, "html_attributions": ["<a href=\"https://maps.google.com/maps/contrib/115456674788909736708\">Naren Chandra</a>"], "height": 3120}], "scope": "GOOGLE", "business_status": "OPERATIONAL", "types": ["school", "point_of_interest", "establishment"], "icon": "https://maps.gstatic.com/mapfiles/place_api/icons/v1/png_71/school-71.png"}, {"rating": 3.3, "user_ratings_total": 4, "name": "Global kids international school", "reference": "ChIJtUohXtCQyzsRsC73cXlJ0oU", "geometry": {"location": {"lat": 17.435012, "lng": 78.43789199999999}, "viewport": {"northeast": {"lat": 17.4364488302915, "lng": 78.4392674302915}, "southwest": {"lat": 17.4337508697085, "lng": 78.43656946970849}}}, "opening_hours": {"open_now": false}, "place_id": "ChIJtUohXtCQyzsRsC73cXlJ0oU", "plus_code": {"global_code": "7J9WCCPQ+25", "compound_code": "CCPQ+25 Hyderabad, Telangana, India"}, "vicinity": "Jaya Prakash Nagar, Yella Reddy Guda, Hyderabad", "scope": "GOOGLE", "business_status": "OPERATIONAL", "types": ["school", "point_of_interest", "establishment"], "icon": "https://maps.gstatic.com/mapfiles/place_api/icons/v1/png_71/school-71.png"}, {"rating": 3.1, "user_ratings_total": 7, "name": "Sri Sai Ram High School", "reference": "ChIJL3flTiKRyzsRgd_FlRnZMHo", "geometry": {"location": {"lat": 17.4451492, "lng": 78.4221324}, "viewport": {"northeast": {"lat": 17.4464962302915, "lng": 78.4235000302915}, "southwest": {"lat": 17.44379826970849, "lng": 78.4208020697085}}}, "opening_hours": {"open_now": false}, "place_id": "ChIJL3flTiKRyzsRgd_FlRnZMHo", "plus_code": {"global_code": "7J9WCCWC+3V", "compound_code": "CCWC+3V Hyderabad, Telangana, India"}, "vicinity": "Venkatagiri, Yousufguda, Hyderabad", "photos": [{"photo_reference": "ATtYBwKkTyVaroE5SlvXw7cB7W_gaDKkEluuYKHOhKpajZlpyM7pzFyOQajmLT1LOsC6_1qn2tzkTheuTR1-J-YY_DK7ncRLrcJAqzZKdHeLc7DJmTOeTqgnvPHTGZETFghiDeKziKbJIsg5BXwABbrjxbCXGn5kiQKfHFdj3Txo6VklWr1C", "width": 3024, "html_attributions": ["<a href=\"https://maps.google.com/maps/contrib/104084372278130638868\">Dasa Akhil</a>"], "height": 4032}], "scope": "GOOGLE", "business_status": "OPERATIONAL", "types": ["secondary_school", "school", "point_of_interest", "establishment"], "icon": "https://maps.gstatic.com/mapfiles/place_api/icons/v1/png_71/school-71.png"}, {"rating": 3.6, "user_ratings_total": 271, "permanently_closed": true, "name": "Mahendra Educational Private Limited", "reference": "ChIJyYUvX8-QyzsRoZlSFX8YboY", "geometry": {"location": {"lat": 17.4387872, "lng": 78.4424153}, "viewport": {"northeast": {"lat": 17.4401331302915, "lng": 78.4436866802915}, "southwest": {"lat": 17.4374351697085, "lng": 78.44098871970849}}}, "place_id": "ChIJyYUvX8-QyzsRoZlSFX8YboY", "plus_code": {"global_code": "7J9WCCQR+GX", "compound_code": "CCQR+GX Hyderabad, Telangana, India"}, "vicinity": "SAI SURYA TATA TOWER 3RD FLOOR, ABOVE SOUTH INDIAN BANK, NEAR MAITRIVANAM BUILDING AMEERPET, Hyderabad", "photos": [{"photo_reference": "ATtYBwLRqLp0qMf21X1bGfHjI05yUMBwW2bxISwe2R-VhmKvW35mgP1gsb15E_9wW62_fAukAn4b-kPvy4_NKUIiedhKy7wezUuu91OEG4sS4yU0M-FXC9dmKb7E0z69JOH0aAlmCfz0zs97iQr4Rf61f9CDdHdRThuI8fZLNCDdh6DPsP_5", "width": 4160, "html_attributions": ["<a href=\"https://maps.google.com/maps/contrib/104602270771011475269\">Kishore Nanda</a>"], "height": 3120}], "scope": "GOOGLE", "business_status": "CLOSED_TEMPORARILY", "types": ["school", "point_of_interest", "establishment"], "icon": "https://maps.gstatic.com/mapfiles/place_api/icons/v1/png_71/school-71.png"}]}