{"status": "OK", "next_page_token": "ATtYBwIEVqL9EsIJTk5xixPjHfaSYzWu2TSv9-T8jAXnRq7oO_G1sRnSaykTbXEwALw9YFXDHnQodHInxcTYwX0f-W_yZJni8GEMZ0NA7o0rbe0APjaSwS5TOvg7749NQzYp7IacNC9_-M9sG-Q4tiX0W_Es28BFZ9gC1z0amLu7y8Aq2GCFqxhvgZi_9MS_6n1CmAPmbEoKEtXcfDpotRBY8IHX_qprW-WSJiTV92aZF5OtbtUeh1c2OqCyxt9oG9Hxy1nxeA8tWPmbRdFRQE0j6-hBX_JDzfYOAhAqLK64x5o3LJ1Y2uxNhbaPclNn80SK-wSZBD05Z9TDXppwl4IolHdVnKxroWBqQY8LNt8WX540g35HHc--jAh_chNTNNBabOTVDVz5GlH_YrSrmNiEIv4ZjYgnNQ0NZg1Le_QtLUC8NqhHnUk", "html_attributions": [], "results": [{"rating": 3.6, "user_ratings_total": 16, "name": "Phoenix International School", "reference": "ChIJW9u25me9yzsRhIHYdTOWCFM", "geometry": {"location": {"lat": 17.3215139, "lng": 78.4513621}, "viewport": {"northeast": {"lat": 17.3227486802915, "lng": 78.4528808302915}, "southwest": {"lat": 17.32005071970849, "lng": 78.4501828697085}}}, "opening_hours": {"open_now": false}, "place_id": "ChIJW9u25me9yzsRhIHYdTOWCFM", "plus_code": {"global_code": "7J9W8FC2+JG", "compound_code": "8FC2+JG Hyderabad, Telangana, India"}, "vicinity": "Survey No.9 Near Waramgadda Railway Gate,, Vattepally Road, Hyderabad", "scope": "GOOGLE", "business_status": "OPERATIONAL", "types": ["school", "point_of_interest", "establishment"], "icon": "https://maps.gstatic.com/mapfiles/place_api/icons/v1/png_71/school-71.png"}, {"rating": 4.5, "user_ratings_total": 17, "name": "Sri Gayatri Techno School", "reference": "ChIJB_W5U129yzsRWQzFPurwvr0", "geometry": {"location": {"lat": 17.3217251, "lng": 78.4535437}, "viewport": {"northeast": {"lat": 17.3231231302915, "lng": 78.4548715302915}, "southwest": {"lat": 17.3204251697085, "lng": 78.45217356970848}}}, "opening_hours": {"open_now": false}, "place_id": "ChIJB_W5U129yzsRWQzFPurwvr0", "plus_code": {"global_code": "7J9W8FC3+MC", "compound_code": "8FC3+MC Mailardevpally, Telangana, India"}, "vicinity": "8-15-96/19/5, Shama Colony, Near Waramgadda, Railway Gate Road, Rajendranagar mandal, Mailardevpally", "photos": [{"photo_reference": "ATtYBwKI9Irpf4SsKyVVE3DpyqQcrwDBuDzecrIA47w16xBnQHuhFqlNBe5iSs1GfLTeALOmylYom5xi42nqiHCAbRuhArFVSTm1vGqZWXvw01OmrFXDrAY1-LsNmlOr-DoVmYUNbtY8EmQWRT1VWSIjyOVdPi6NIFEkT7uh4okdcIfHnWFE", "width": 4032, "html_attributions": ["<a href=\"https://maps.google.com/maps/contrib/101158139095711882221\">Brahma Velpula</a>"], "height": 3024}], "scope": "GOOGLE", "business_status": "OPERATIONAL", "types": ["secondary_school", "school", "point_of_interest", "establishment"], "icon": "https://maps.gstatic.com/mapfiles/place_api/icons/v1/png_71/school-71.png"}, {"rating": 5, "user_ratings_total": 1, "name": "Alfaz Stars", "reference": "ChIJKVUzVma9yzsR-yO5STUsH1s", "geometry": {"location": {"lat": 17.323868, "lng": 78.4490874}, "viewport": {"northeast": {"lat": 17.3252164802915, "lng": 78.4504300802915}, "southwest": {"lat": 17.32251851970849, "lng": 78.44773211970849}}}, "opening_hours": {"open_now": false}, "place_id": "ChIJKVUzVma9yzsR-yO5STUsH1s", "plus_code": {"global_code": "7J9W8CFX+GJ", "compound_code": "8CFX+GJ Hyderabad, Telangana, India"}, "vicinity": "House No. 8-15-79/1/A, Near Nasar Construction, Shashtripuram, Hyderabad", "photos": [{"photo_reference": "ATtYBwIci9emfXn4c3uVCosto9RCxyA476Q0oGYGvmFvW6wpWaOCz5Ff-CenepIIKYt3nVuzFRlYdrEbWTQ6caKELlKl7ilswO6cdsaDLOVany5UzxcCMyYNTHoBM-bV-SXs8KG6lkeX4WfvxGnQqiRcTugELwbT9g7rVeOfnY_WqFe-ic6m", "width": 720, "html_attributions": ["<a href=\"https://maps.google.com/maps/contrib/104985435613656907066\">nunsavath Mohan Nayak mpp</a>"], "height": 1344}], "scope": "GOOGLE", "business_status": "OPERATIONAL", "types": ["school", "point_of_interest", "establishment"], "icon": "https://maps.gstatic.com/mapfiles/place_api/icons/v1/png_71/school-71.png"}, {"rating": 3.3, "user_ratings_total": 10, "name": "Krishnaveni Talent School", "reference": "ChIJc797_2u9yzsR8VBtHfJpQl0", "geometry": {"location": {"lat": 17.3148707, "lng": 78.446803}, "viewport": {"northeast": {"lat": 17.3162249802915, "lng": 78.4481847302915}, "southwest": {"lat": 17.3135270197085, "lng": 78.4454867697085}}}, "place_id": "ChIJc797_2u9yzsR8VBtHfJpQl0", "plus_code": {"global_code": "7J9W8C7W+WP", "compound_code": "8C7W+WP Mailardevpally, Telangana, India"}, "vicinity": "House No.8-5-140/53Inner Ring Road,Main Road Durga Nagar, Airport Road, Mailardevpally", "photos": [{"photo_reference": "ATtYBwLnmWbHYm-J-yTgqU5lCfxOJpfb7QsDdG63f1lIdWF8meOf3oYARcGakfsRvXtAT7OwZoQgpmc4vJCV81KCporXSrhCOQ7XCe4J25dEk-8xTJBuMIFVbf8LNey-nZe3tz6HR_9Zl3MKMwYaGnXmpBrgCcfEI3MYh1ubFpUB-seCurgJ", "width": 3264, "html_attributions": ["<a href=\"https://maps.google.com/maps/contrib/102080028982453701158\">PURNACHANDAR REDDY</a>"], "height": 2448}], "scope": "GOOGLE", "business_status": "OPERATIONAL", "types": ["school", "point_of_interest", "establishment"], "icon": "https://maps.gstatic.com/mapfiles/place_api/icons/v1/png_71/school-71.png"}, {"rating": 4.3, "user_ratings_total": 12, "name": "Florida Universal High School", "reference": "ChIJ67jA6ly9yzsRRfY92H_TWhY", "geometry": {"location": {"lat": 17.3230158, "lng": 78.4566761}, "viewport": {"northeast": {"lat": 17.3243640802915, "lng": 78.45798478029151}, "southwest": {"lat": 17.3216661197085, "lng": 78.45528681970849}}}, "opening_hours": {"open_now": false}, "place_id": "ChIJ67jA6ly9yzsRRfY92H_TWhY", "plus_code": {"global_code": "7J9W8FF4+6M", "compound_code": "8FF4+6M Hyderabad, Telangana, India"}, "vicinity": "Opp Masjid Mohammed Saleh Bin Zainal Saifi Colony, Vattepally, Hyderabad", "photos": [{"photo_reference": "ATtYBwJjeGagu7xiGaLQZ96OiM7LvaFGgxqolCkwEnYAhMHo81KZrt_4tRHGX2tERBGotMYyFkmJ9AjEPbaU7da6val9VYkDVhfbaHciAeHxISX0uuMMeEE0Hug1yKWpm6YWci3S29U1FRzNhCV8Y_Gs944u-eQgM2DDMmf3QCMDI_eAE2i9", "width": 4096, "html_attributions": ["<a href=\"https://maps.google.com/maps/contrib/114819234926306561098\">Florida Universal High School</a>"], "height": 2304}], "scope": "GOOGLE", "business_status": "OPERATIONAL", "types": ["school", "point_of_interest", "establishment"], "icon": "https://maps.gstatic.com/mapfiles/place_api/icons/v1/png_71/school-71.png"}, {"rating": 5, "user_ratings_total": 1, "name": "Government Bala Jyothi Primary school", "reference": "ChIJ77TPm1y9yzsRk_lNyI6Rd20", "geometry": {"location": {"lat": 17.3234033, "lng": 78.4576443}, "viewport": {"northeast": {"lat": 17.3247688302915, "lng": 78.4589967802915}, "southwest": {"lat": 17.32207086970849, "lng": 78.4562988197085}}}, "place_id": "ChIJ77TPm1y9yzsRk_lNyI6Rd20", "plus_code": {"global_code": "7J9W8FF5+93", "compound_code": "8FF5+93 Hyderabad, Telangana, India"}, "vicinity": "Virasat Nagar, Vattepally, Hyderabad", "scope": "GOOGLE", "business_status": "OPERATIONAL", "types": ["school", "point_of_interest", "establishment"], "icon": "https://maps.gstatic.com/mapfiles/place_api/icons/v1/png_71/school-71.png"}, {"rating": 5, "user_ratings_total": 3, "name": "Smart Global School", "reference": "ChIJ3cJoWFu9yzsRd2LQi3IUZgQ", "geometry": {"location": {"lat": 17.322421, "lng": 78.458215}, "viewport": {"northeast": {"lat": 17.3237323802915, "lng": 78.45955598029151}, "southwest": {"lat": 17.3210344197085, "lng": 78.45685801970849}}}, "opening_hours": {"open_now": false}, "place_id": "ChIJ3cJoWFu9yzsRd2LQi3IUZgQ", "plus_code": {"global_code": "7J9W8FC5+X7", "compound_code": "8FC5+X7 Hyderabad, Telangana, India"}, "vicinity": "#22, Guntal Nagar, Falaknuma, Vattepally, Hyderabad", "scope": "GOOGLE", "business_status": "OPERATIONAL", "types": ["school", "point_of_interest", "establishment"], "icon": "https://maps.gstatic.com/mapfiles/place_api/icons/v1/png_71/school-71.png"}, {"rating": 5, "user_ratings_total": 1, "name": "GHS Nawab Saheb Kunta", "reference": "ChIJJ-3KHmG9yzsRQ5zTW-3D3ys", "geometry": {"location": {"lat": 17.3285893, "lng": 78.4492692}, "viewport": {"northeast": {"lat": 17.3299218302915, "lng": 78.45062108029151}, "southwest": {"lat": 17.3272238697085, "lng": 78.44792311970849}}}, "place_id": "ChIJJ-3KHmG9yzsRQ5zTW-3D3ys", "plus_code": {"global_code": "7J9W8CHX+CP", "compound_code": "8CHX+CP Hyderabad, Telangana, India"}, "vicinity": "Nawab Saheb Kunta, Hyderabad", "scope": "GOOGLE", "business_status": "OPERATIONAL", "types": ["school", "point_of_interest", "establishment"], "icon": "https://maps.gstatic.com/mapfiles/place_api/icons/v1/png_71/school-71.png"}, {"name": "Kidlets Play School", "reference": "ChIJz_IQ_WC9yzsREtKGELDNWyU", "geometry": {"location": {"lat": 17.3292016, "lng": 78.4497614}, "viewport": {"northeast": {"lat": 17.3304823802915, "lng": 78.4511083802915}, "southwest": {"lat": 17.3277844197085, "lng": 78.4484104197085}}}, "opening_hours": {"open_now": false}, "place_id": "ChIJz_IQ_WC9yzsREtKGELDNWyU", "plus_code": {"global_code": "7J9W8CHX+MW", "compound_code": "8CHX+MW Hyderabad, Telangana, India"}, "vicinity": "Rizwan Colony, Shastripuram Colony, Nawab Saheb Kunta, Hyderabad", "scope": "GOOGLE", "business_status": "OPERATIONAL", "types": ["school", "point_of_interest", "establishment"], "icon": "https://maps.gstatic.com/mapfiles/place_api/icons/v1/png_71/school-71.png"}, {"rating": 5, "user_ratings_total": 2, "name": "Rafeeqia Education Society", "reference": "ChIJK06y-GC9yzsREmeQxXQ-cA0", "geometry": {"location": {"lat": 17.3297645, "lng": 78.449986}, "viewport": {"northeast": {"lat": 17.3311650802915, "lng": 78.4513348802915}, "southwest": {"lat": 17.3284671197085, "lng": 78.44863691970849}}}, "opening_hours": {"open_now": false}, "place_id": "ChIJK06y-GC9yzsREmeQxXQ-cA0", "plus_code": {"global_code": "7J9W8CHX+WX", "compound_code": "8CHX+WX Hyderabad, Telangana, India"}, "vicinity": "Shastripuram Colony, Nawab Saheb Kunta, Hyderabad", "scope": "GOOGLE", "business_status": "OPERATIONAL", "types": ["school", "point_of_interest", "establishment"], "icon": "https://maps.gstatic.com/mapfiles/place_api/icons/v1/png_71/school-71.png"}, {"rating": 4.1, "user_ratings_total": 11, "name": "The Global Concept School", "reference": "ChIJQ0M8uGG9yzsRzqztEfQPMmY", "geometry": {"location": {"lat": 17.3311017, "lng": 78.44884760000001}, "viewport": {"northeast": {"lat": 17.3324320802915, "lng": 78.4501963302915}, "southwest": {"lat": 17.3297341197085, "lng": 78.44749836970848}}}, "opening_hours": {"open_now": false}, "place_id": "ChIJQ0M8uGG9yzsRzqztEfQPMmY", "plus_code": {"global_code": "7J9W8CJX+CG", "compound_code": "8CJX+CG Hyderabad, Telangana, India"}, "vicinity": "8 13 139 94 500052, Nawab Sahab Kunta Rd, Nawab Saheb Kunta, Hyderabad", "photos": [{"photo_reference": "ATtYBwLNarv7XuooQ0nzlWR9Wam_-22i0ho1zuBnim1krVSg_1biCkBdd8rUJT9tt0O6Uug-prsZuoAAwjaz27VXU7h29aCMYxcC896YtGrdbsxZx1AnevIURyNlDfkGdxkW-9SyKqsWHHSfDsnhcLw4fQTgXjeqHebp52EULclIltivTbJs", "width": 1374, "html_attributions": ["<a href=\"https://maps.google.com/maps/contrib/116581024773142706215\">Nadeem</a>"], "height": 1425}], "scope": "GOOGLE", "business_status": "OPERATIONAL", "types": ["school", "point_of_interest", "establishment"], "icon": "https://maps.gstatic.com/mapfiles/place_api/icons/v1/png_71/school-71.png"}, {"rating": 5, "user_ratings_total": 2, "name": "Happy Days School", "reference": "ChIJOamNt169yzsRhsgFZJdKuU4", "geometry": {"location": {"lat": 17.3287652, "lng": 78.4574153}, "viewport": {"northeast": {"lat": 17.3301536302915, "lng": 78.4587815302915}, "southwest": {"lat": 17.3274556697085, "lng": 78.45608356970848}}}, "opening_hours": {"open_now": false}, "place_id": "ChIJOamNt169yzsRhsgFZJdKuU4", "plus_code": {"global_code": "7J9W8FH4+GX", "compound_code": "8FH4+GX Hyderabad, Telangana, India"}, "vicinity": "# Mohammadia Colony, Vattepally Road, Hyderabad", "scope": "GOOGLE", "business_status": "OPERATIONAL", "types": ["school", "point_of_interest", "establishment"], "icon": "https://maps.gstatic.com/mapfiles/place_api/icons/v1/png_71/school-71.png"}, {"rating": 5, "user_ratings_total": 9, "name": "Bright Future High School", "reference": "ChIJKUBZu-SXyzsRiqwYJy6LJCU", "geometry": {"location": {"lat": 17.3307444, "lng": 78.45575149999999}, "viewport": {"northeast": {"lat": 17.33207528029151, "lng": 78.4571563802915}, "southwest": {"lat": 17.3293773197085, "lng": 78.45445841970849}}}, "place_id": "ChIJKUBZu-SXyzsRiqwYJy6LJCU", "plus_code": {"global_code": "7J9W8FJ4+78", "compound_code": "8FJ4+78 Hyderabad, Telangana, India"}, "vicinity": "19-1-286/A/9-10, Mustafa Nagar, Jahannuma, Hyderabad", "photos": [{"photo_reference": "ATtYBwLUubwsqwKU8XLd_xA43wXQccIlpPYnw1SvPcAcRh7WFtuh3PYpI4cPoiWqqlp7I_31Kl8v858DGzj05yflJhWN9xVdwZxTZ-dvMkUx1HreBxUn0UD_qlrx8OKcBvyhu80p9LGdY1JytQXsYQwmehe0M4ZFlOViQM2MCzNGJ8UQoUH-", "width": 960, "html_attributions": ["<a href=\"https://maps.google.com/maps/contrib/101829133607980279076\">syed Ahtesham</a>"], "height": 720}], "scope": "GOOGLE", "business_status": "OPERATIONAL", "types": ["secondary_school", "school", "point_of_interest", "establishment"], "icon": "https://maps.gstatic.com/mapfiles/place_api/icons/v1/png_71/school-71.png"}, {"rating": 4, "user_ratings_total": 25, "name": "Springfields International School", "reference": "ChIJh6r9Dke9yzsRSTGR3zdyKjM", "geometry": {"location": {"lat": 17.3126548, "lng": 78.4604495}, "viewport": {"northeast": {"lat": 17.31396348029151, "lng": 78.46195888029149}, "southwest": {"lat": 17.3112655197085, "lng": 78.45926091970848}}}, "opening_hours": {"open_now": false}, "place_id": "ChIJh6r9Dke9yzsRSTGR3zdyKjM", "plus_code": {"global_code": "7J9W8F76+35", "compound_code": "8F76+35 Hyderabad, Telangana, India"}, "vicinity": "Subhan Colony, Chandrayangutta, Hyderabad", "photos": [{"photo_reference": "ATtYBwK6hlhg6wAsA83ZygfiX29tKRno4Bzp1tvH7vCq2VcpMV42rQdrFCyekk_HtyurO8AdFDdFHf1jOLlwUVhgoZqpd3HMK_97btHIHkxfaT4Jla-gOmsB0iyAf4gcQNs5pl5fsXYqjsuOOQyekwRpAJ3mZV6ukW-y6LCKT_UnxYaM_xun", "width": 5760, "html_attributions": ["<a href=\"https://maps.google.com/maps/contrib/102943772702688190032\">Mir Uddin</a>"], "height": 3840}], "scope": "GOOGLE", "business_status": "OPERATIONAL", "types": ["school", "point_of_interest", "establishment"], "icon": "https://maps.gstatic.com/mapfiles/place_api/icons/v1/png_71/school-71.png"}, {"rating": 5, "user_ratings_total": 2, "name": "Sri Saraswathi Shishumandir, Mailardevpally", "reference": "ChIJASRfBdu9yzsRPOyONNMulQ0", "geometry": {"location": {"lat": 17.3193272, "lng": 78.44931299999999}, "viewport": {"northeast": {"lat": 17.3206709802915, "lng": 78.45070338029149}, "southwest": {"lat": 17.3179730197085, "lng": 78.44800541970848}}}, "opening_hours": {"open_now": false}, "place_id": "ChIJASRfBdu9yzsRPOyONNMulQ0", "plus_code": {"global_code": "7J9W8C9X+PP", "compound_code": "8C9X+PP Mailardevpally, Telangana, India"}, "vicinity": "Mughal Colony, Nawab Saheb Kunta, Mailardevpally", "photos": [{"photo_reference": "ATtYBwLT0eXREMcI1CBXlk8VmGRlv1QnOdJyB8natXbC-8QIiSo-8zC9QykSDWMTBm9Hp_ul_a6t-6smnCkDG3ax8pUrQ8Y96AAQWPXkrvQmnumPoJ_r-2q_G1Arfia7emwJ7s6-gVPZi5rrT_YcQ0IEXzDxG0wVg9qtXjCG9oVR8XOmwBXy", "width": 1280, "html_attributions": ["<a href=\"https://maps.google.com/maps/contrib/108986222291658428083\">NAVARU MURALIDHAR REDDY</a>"], "height": 960}], "scope": "GOOGLE", "business_status": "OPERATIONAL", "types": ["school", "point_of_interest", "establishment"], "icon": "https://maps.gstatic.com/mapfiles/place_api/icons/v1/png_71/school-71.png"}, {"rating": 5, "user_ratings_total": 6, "name": "St Mary's High School", "reference": "ChIJY5sNUWi9yzsRwv1wAYvfUtE", "geometry": {"location": {"lat": 17.3187071, "lng": 78.45001359999999}, "viewport": {"northeast": {"lat": 17.3200863302915, "lng": 78.45128708029151}, "southwest": {"lat": 17.3173883697085, "lng": 78.4485891197085}}}, "place_id": "ChIJY5sNUWi9yzsRwv1wAYvfUtE", "plus_code": {"global_code": "7J9W8F92+F2", "compound_code": "8F92+F2 Hyderabad, Telangana, India"}, "vicinity": "Weaker Section Colony, Vattepally, Hyderabad", "photos": [{"photo_reference": "ATtYBwKsxCmhH8vFDSAlIPq-ut_asgYIrU0t4Yb5V9Pz3gWVTduaWOMbceqRmoPdGZS1gQFAQrxu2VaDVWCRuMnpvcF4czkwWOTCQFIROhJoiLZYiTR8s5PqJVDR0QN-K--TNXcXbXrZi2HRtZpC31hrYyQdrXimOTsbEEto1VL2lkSBBYZy", "width": 4032, "html_attributions": ["<a href=\"https://maps.google.com/maps/contrib/101158139095711882221\">Brahma Velpula</a>"], "height": 3024}], "scope": "GOOGLE", "business_status": "OPERATIONAL", "types": ["school", "point_of_interest", "establishment"], "icon": "https://maps.gstatic.com/mapfiles/place_api/icons/v1/png_71/school-71.png"}, {"name": "St. Mary high school hanuman Temple", "reference": "ChIJc_N9sZS9yzsR-6pitqyu3VU", "geometry": {"location": {"lat": 17.3212915, "lng": 78.4494531}, "viewport": {"northeast": {"lat": 17.3226468302915, "lng": 78.4507626302915}, "southwest": {"lat": 17.3199488697085, "lng": 78.44806466970849}}}, "place_id": "ChIJc_N9sZS9yzsR-6pitqyu3VU", "plus_code": {"global_code": "7J9W8CCX+GQ", "compound_code": "8CCX+GQ Mailardevpally, Telangana, India"}, "vicinity": "Mughal Colony, Nawab Saheb Kunta, Mailardevpally", "scope": "GOOGLE", "business_status": "OPERATIONAL", "types": ["school", "point_of_interest", "establishment"], "icon": "https://maps.gstatic.com/mapfiles/place_api/icons/v1/png_71/school-71.png"}, {"rating": 5, "user_ratings_total": 2, "name": "ISLAMIC CREATIVE SCHOOL", "reference": "ChIJgWae1QO9yzsRR1yBToPb6xE", "geometry": {"location": {"lat": 17.3208999, "lng": 78.4514013}, "viewport": {"northeast": {"lat": 17.3221764802915, "lng": 78.4527283802915}, "southwest": {"lat": 17.31947851970849, "lng": 78.4500304197085}}}, "opening_hours": {"open_now": false}, "place_id": "ChIJgWae1QO9yzsRR1yBToPb6xE", "plus_code": {"global_code": "7J9W8FC2+9H", "compound_code": "8FC2+9H Hyderabad, Telangana, India"}, "vicinity": "Moghals Colony, Weaker Section Colony, Falaknuma, Hyderabad", "photos": [{"photo_reference": "ATtYBwIClUXhJGpvJq1HlCjM0YKBMqpWtm_ZStMqkb4DCyr8GDdoTUGjBu_xbAK6J8kLRuMTWKjVrvesBPRTj1jAYYOom9Jyc2UX8FH8Jv20twxOZbUsYSa-SPQOyPTcxieyD_8D6cxiphkWlYBh3NImG4_1SKWD32giYes8Ry_e7zen06kw", "width": 2048, "html_attributions": ["<a href=\"https://maps.google.com/maps/contrib/101158139095711882221\">Brahma Velpula</a>"], "height": 1536}], "scope": "GOOGLE", "business_status": "OPERATIONAL", "types": ["school", "point_of_interest", "establishment"], "icon": "https://maps.gstatic.com/mapfiles/place_api/icons/v1/png_71/school-71.png"}, {"name": "Shalivahana High School", "reference": "ChIJzy3DDze9yzsR-ecCWHLw0sw", "geometry": {"location": {"lat": 17.3182292, "lng": 78.4507927}, "viewport": {"northeast": {"lat": 17.3195768802915, "lng": 78.4521427302915}, "southwest": {"lat": 17.3168789197085, "lng": 78.44944476970849}}}, "place_id": "ChIJzy3DDze9yzsR-ecCWHLw0sw", "plus_code": {"global_code": "7J9W8F92+78", "compound_code": "8F92+78 Hyderabad, Telangana, India"}, "vicinity": "Udamgadda, Vattepally, Hyderabad", "scope": "GOOGLE", "business_status": "OPERATIONAL", "types": ["school", "point_of_interest", "establishment"], "icon": "https://maps.gstatic.com/mapfiles/place_api/icons/v1/png_71/school-71.png"}, {"name": "Phonix school", "reference": "ChIJ8dmy5me9yzsRS03ZVTcx_zw", "geometry": {"location": {"lat": 17.3215328, "lng": 78.45133899999999}, "viewport": {"northeast": {"lat": 17.3229156802915, "lng": 78.4527182802915}, "southwest": {"lat": 17.3202177197085, "lng": 78.4500203197085}}}, "opening_hours": {"open_now": false}, "place_id": "ChIJ8dmy5me9yzsRS03ZVTcx_zw", "plus_code": {"global_code": "7J9W8FC2+JG", "compound_code": "8FC2+JG Hyderabad, Telangana, India"}, "vicinity": "Vattepally, Hyderabad", "scope": "GOOGLE", "business_status": "OPERATIONAL", "types": ["school", "point_of_interest", "establishment"], "icon": "https://maps.gstatic.com/mapfiles/place_api/icons/v1/png_71/school-71.png"}]}