{"status": "OK", "html_attributions": [], "results": [{"rating": 4, "user_ratings_total": 62, "name": "Presidium School", "reference": "ChIJezzGa_IZDTkRzgB0-m1obXU", "geometry": {"location": {"lat": 28.5032002, "lng": 77.029714}, "viewport": {"northeast": {"lat": 28.5045520302915, "lng": 77.0312138802915}, "southwest": {"lat": 28.5018540697085, "lng": 77.02851591970848}}}, "opening_hours": {"open_now": false}, "place_id": "ChIJezzGa_IZDTkRzgB0-m1obXU", "plus_code": {"global_code": "7JWVG23H+7V", "compound_code": "G23H+7V Gurugram, Haryana, India"}, "vicinity": "Near Spanish Court Pocket C Krishna Chowk B &, Block C, Gurugram", "photos": [{"photo_reference": "CmRaAAAAYYT6O5JeJbA1mib77xqrwbSf2SbUkDKNVFnSaTmC3QCwBajBhTOFidD3BZkej2DDo3tWMK8k1ympe-WFPvrwdV3Xmrk2UC2qbgUXMg9T4j9OLw4BNSEZYuDJlm2LCaf6EhDxMFY1_vX4oEVdZzma7iHoGhRZJi0nme86AWb_U7mFt7pvqWUtVw", "width": 1024, "html_attributions": ["<a href=\"https://maps.google.com/maps/contrib/106916421348360652165\">Presidium School</a>"], "height": 684}], "scope": "GOOGLE", "business_status": "OPERATIONAL", "types": ["school", "primary_school", "secondary_school", "point_of_interest", "establishment"], "icon": "https://maps.gstatic.com/mapfiles/place_api/icons/v1/png_71/school-71.png"}, {"rating": 4.1, "user_ratings_total": 11, "permanently_closed": true, "name": "New Cambridge Public School", "reference": "ChIJ98NP1vUZDTkRdXsCLKBjJRo", "geometry": {"location": {"lat": 28.511036, "lng": 77.027791}, "viewport": {"northeast": {"lat": 28.5124113302915, "lng": 77.0291097302915}, "southwest": {"lat": 28.5097133697085, "lng": 77.02641176970847}}}, "place_id": "ChIJ98NP1vUZDTkRdXsCLKBjJRo", "plus_code": {"global_code": "7JWVG26H+C4", "compound_code": "G26H+C4 Gurugram, Haryana, India"}, "vicinity": "Chauma Road, New Palam Vihar, Bajghera, Chowk, Gurugram", "photos": [{"photo_reference": "CmRZAAAAeJBmqmaLcVvJ5F2DHopZQtWPHdFlC9ejSrPeVYaQj0qezvwJtnB-uTcASrQhWYCbv2zEfmCa-YRKUpwRPFerKrGAfYUQnLxrC69DUQIbt0kQ1z4Jwoi05r_uov-KnSExEhCC5SLzIfqhlP6HNy-twaQIGhQsKjKgAlHLdXsZEslUujHrKIJqDA", "width": 2560, "html_attributions": ["<a href=\"https://maps.google.com/maps/contrib/104332012995146932741\">Pramod kumar Sharma</a>"], "height": 1440}], "scope": "GOOGLE", "business_status": "CLOSED_TEMPORARILY", "types": ["primary_school", "school", "point_of_interest", "establishment"], "icon": "https://maps.gstatic.com/mapfiles/place_api/icons/v1/png_71/school-71.png"}, {"rating": 4.8, "user_ratings_total": 27, "name": "Shiksha Bharti School, Free Education Palam Vihar", "reference": "ChIJs6W7EDIZDTkR-FPww7S1jLA", "geometry": {"location": {"lat": 28.5045788, "lng": 77.030517}, "viewport": {"northeast": {"lat": 28.5059282802915, "lng": 77.0318301302915}, "southwest": {"lat": 28.5032303197085, "lng": 77.02913216970849}}}, "place_id": "ChIJs6W7EDIZDTkR-FPww7S1jLA", "plus_code": {"global_code": "7JWVG23J+R6", "compound_code": "G23J+R6 Gurugram, Haryana, India"}, "vicinity": "opp. h.no, 1440, Palam Vihar Road, Block C, Palam Vihar, Gurugram", "photos": [{"photo_reference": "CmRaAAAAjYVj4QddgJR7tV9L8Sn_2cuasPfWomiyww1uT5QWUax4BH6c9QVO8A62LIS8PkLPAoqtRjmrYIIXCOuhLdjUxU6zJUAGnx9zvx7ANllpNopgWOqqjrSspGX6xVg-u9PbEhAt5SZrW8CnWCev3FGdIm2LGhTdPc3R3sqEFVxLA4n2V5AAj31PbA", "width": 1280, "html_attributions": ["<a href=\"https://maps.google.com/maps/contrib/106848671496661636605\">Sumran Wali</a>"], "height": 720}], "scope": "GOOGLE", "business_status": "OPERATIONAL", "types": ["primary_school", "school", "point_of_interest", "establishment"], "icon": "https://maps.gstatic.com/mapfiles/place_api/icons/v1/png_71/school-71.png"}, {"rating": 4.8, "user_ratings_total": 6, "name": "Foster Kids Palam Vihar Gurugram Sector 110", "reference": "ChIJB4ymfYwZDTkRgZ0A7bQ6oYc", "geometry": {"location": {"lat": 28.522087, "lng": 77.0223561}, "viewport": {"northeast": {"lat": 28.5234297802915, "lng": 77.02368948029151}, "southwest": {"lat": 28.5207318197085, "lng": 77.02099151970849}}}, "opening_hours": {"open_now": false}, "place_id": "ChIJB4ymfYwZDTkRgZ0A7bQ6oYc", "plus_code": {"global_code": "7JWVG2CC+RW", "compound_code": "G2CC+RW Gurugram, Haryana, India"}, "vicinity": "3023/31,Near VGR shopping complex, Bajghera Road, Rajendra Park, Gurugram", "photos": [{"photo_reference": "CmRaAAAAqgLLqVwhx7EsyLH5sXFJRVYYiH0Iw13AhX0Ds-yq_8CyM0rcyydP5AIs02PJpDTsdEWMblMTCF8OXTdXd5tKlNS-Fsm19pAgEZaGUEHPMfflKbLAavfb3w5LNj1Bbml0EhAk3OJA_qj-HGDs05U5F5zoGhSFNwTm-0YObsAXAIouj3bs6BnxiA", "width": 3024, "html_attributions": ["<a href=\"https://maps.google.com/maps/contrib/117954097590046761818\">Pratibha Mishra</a>"], "height": 4032}], "scope": "GOOGLE", "business_status": "OPERATIONAL", "types": ["primary_school", "secondary_school", "school", "point_of_interest", "establishment"], "icon": "https://maps.gstatic.com/mapfiles/place_api/icons/v1/png_71/school-71.png"}]}