{"status": "OK", "html_attributions": [], "results": [{"rating": 1, "user_ratings_total": 1, "name": "jai bhawani transport company .regd.9711668587-/-9711118480", "reference": "ChIJdU9KnZwADTkRBDraU38dzBA", "geometry": {"location": {"lat": 28.7931367, "lng": 77.13486689999999}, "viewport": {"northeast": {"lat": 28.7945086802915, "lng": 77.13621693029151}, "southwest": {"lat": 28.7918107197085, "lng": 77.13351896970849}}}, "place_id": "ChIJdU9KnZwADTkRBDraU38dzBA", "plus_code": {"global_code": "7JWVQ4VM+7W", "compound_code": "Q4VM+7W Delhi, India"}, "vicinity": "s.d.m.office k samny shiv markit basmant 16 office, S.D.M.OFFICE K SAMNY E-BLOCK .ALIPUR DELHI 110036", "scope": "GOOGLE", "business_status": "OPERATIONAL", "types": ["local_government_office", "point_of_interest", "establishment"], "icon": "https://maps.gstatic.com/mapfiles/place_api/icons/v1/png_71/civic_building-71.png"}, {"rating": 5, "user_ratings_total": 22, "permanently_closed": true, "name": "Dreams Achievers", "reference": "ChIJWwgThg4BDTkRnInyO5pUWto", "geometry": {"location": {"lat": 28.7948671, "lng": 77.13928489999999}, "viewport": {"northeast": {"lat": 28.7962218802915, "lng": 77.1407251802915}, "southwest": {"lat": 28.79352391970851, "lng": 77.13802721970849}}}, "place_id": "ChIJWwgThg4BDTkRnInyO5pUWto", "plus_code": {"global_code": "7JWVQ4VQ+WP", "compound_code": "Q4VQ+WP Alipur, New Delhi, Delhi, India"}, "vicinity": "office no.74/31, Main G.T Karnal Road, Opposite Swami Shardhanad College New Building, Alipur", "photos": [{"photo_reference": "ATtYBwIAWDbw6YHkAlcTWn2EWFcp_DxdtY5aeeaNAocRiNUvnSkMSDc_CfpcRM1gFb_KoWlzKC3WmOsp8md2bBCnXZZ70O-IK-8WEP2-KLzKTkL3aZIEMciPSPUiddonXuEoRt59Mo_LJFonuZO1XH28OKLOqz55sKrl7xx39mvAT8dpfKj_", "width": 1040, "html_attributions": ["<a href=\"https://maps.google.com/maps/contrib/111856206822854343298\">monika rana</a>"], "height": 780}], "scope": "GOOGLE", "business_status": "CLOSED_TEMPORARILY", "types": ["local_government_office", "point_of_interest", "establishment"], "icon": "https://maps.gstatic.com/mapfiles/place_api/icons/v1/png_71/civic_building-71.png"}, {"rating": 3, "user_ratings_total": 2, "permanently_closed": true, "name": "LTC COMMERCIAL COMPANY PVT. LTD.", "reference": "ChIJnZDMkI0ADTkRi_na5hEolZc", "geometry": {"location": {"lat": 28.7799398, "lng": 77.1380829}, "viewport": {"northeast": {"lat": 28.7812887802915, "lng": 77.1394698802915}, "southwest": {"lat": 28.7785908197085, "lng": 77.1367719197085}}}, "place_id": "ChIJnZDMkI0ADTkRi_na5hEolZc", "plus_code": {"global_code": "7JWVQ4HQ+X6", "compound_code": "Q4HQ+X6 Delhi, India"}, "vicinity": "KHSRA NO 180, VILLAGE BIJJAPUR, Budhpur, Delhi", "scope": "GOOGLE", "business_status": "CLOSED_TEMPORARILY", "types": ["local_government_office", "point_of_interest", "establishment"], "icon": "https://maps.gstatic.com/mapfiles/place_api/icons/v1/png_71/civic_building-71.png"}]}