{"status": "OK", "html_attributions": [], "results": [{"name": "Abroi Associates", "reference": "ChIJZ3YDIYMdDTkRbtcHDnWUUPw", "geometry": {"location": {"lat": 28.571256, "lng": 77.184248}, "viewport": {"northeast": {"lat": 28.5727739802915, "lng": 77.1858753302915}, "southwest": {"lat": 28.5700760197085, "lng": 77.18317736970849}}}, "opening_hours": {"open_now": false}, "place_id": "ChIJZ3YDIYMdDTkRbtcHDnWUUPw", "plus_code": {"global_code": "7JWVH5CM+GM", "compound_code": "H5CM+GM New Delhi, Delhi, India"}, "vicinity": "Shop No. G-19, Shaheed Sudhir Tyagi Marg, R K Puram, Block B, Sector 13, Palika Bhawan, New Delhi", "scope": "GOOGLE", "business_status": "OPERATIONAL", "types": ["local_government_office", "point_of_interest", "establishment"], "icon": "https://maps.gstatic.com/mapfiles/place_api/icons/v1/png_71/civic_building-71.png"}, {"rating": 5, "user_ratings_total": 1, "name": "The LEGAL DOCTERS", "reference": "ChIJpxafeXsdDTkRJf9ThGIM3vc", "geometry": {"location": {"lat": 28.5742558, "lng": 77.1803822}, "viewport": {"northeast": {"lat": 28.5754882302915, "lng": 77.18164113029151}, "southwest": {"lat": 28.5727902697085, "lng": 77.1789431697085}}}, "opening_hours": {"open_now": true}, "place_id": "ChIJpxafeXsdDTkRJf9ThGIM3vc", "plus_code": {"global_code": "7JWVH5FJ+P5", "compound_code": "H5FJ+P5 New Delhi, Delhi, India"}, "vicinity": "Atma Ram Dairy Complex, J-21, Sector 13, Rama Krishna Puram, New Delhi", "photos": [{"photo_reference": "ATtYBwIgZSWoEjQDinekEU3MXBTz3s2Dq2nIEVfhOcvvY3D_5Zsm1-3hHb6OW9us_nKuiGXLJD5GGKiIrzb523YtQxNmvc_btRO6s4uLOsUjarft9JNYfsmJHgCkm7EpgdJwgfgE4Rdnd6bWglZ3VR-77lmp18-4hOQT0zdTmlP65xkh8y0R", "width": 2448, "html_attributions": ["<a href=\"https://maps.google.com/maps/contrib/115014913792127007188\">The LEGAL DOCTERS</a>"], "height": 3264}], "scope": "GOOGLE", "business_status": "OPERATIONAL", "types": ["local_government_office", "point_of_interest", "establishment"], "icon": "https://maps.gstatic.com/mapfiles/place_api/icons/v1/png_71/civic_building-71.png"}, {"rating": 5, "user_ratings_total": 2, "name": "CP&AO, RK PURAM SEC-1,BLOCK-8", "reference": "ChIJVVVFTZodDTkR9r9DhQqORTY", "geometry": {"location": {"lat": 28.5652084, "lng": 77.1793852}, "viewport": {"northeast": {"lat": 28.5665627802915, "lng": 77.1809336802915}, "southwest": {"lat": 28.5638648197085, "lng": 77.1782357197085}}}, "place_id": "ChIJVVVFTZodDTkR9r9DhQqORTY", "plus_code": {"global_code": "7JWVH58H+3Q", "compound_code": "H58H+3Q New Delhi, Delhi, India"}, "vicinity": "26, West Block, Rama Krishna Puram, New Delhi", "photos": [{"photo_reference": "ATtYBwLH8sMzZY1DuYkaaVw6Sj3Y-8YcwT3KjsvAIuFJaOEj6oiplsraKZJuq1zsanP0CVjaKPOa4chVFtfQ-QIwma8-iNGujbD3vjN3jubouXtEynqDP_kyID1yavE5ZUX6xVkvQxAcFI-pgcgxV2koum-gxrS33CAcIZ-InQ7GnBPO-kAS", "width": 3016, "html_attributions": ["<a href=\"https://maps.google.com/maps/contrib/117435786521888370445\">SHIV KUMAR</a>"], "height": 4032}], "scope": "GOOGLE", "business_status": "OPERATIONAL", "types": ["local_government_office", "point_of_interest", "establishment"], "icon": "https://maps.gstatic.com/mapfiles/place_api/icons/v1/png_71/civic_building-71.png"}, {"rating": 5, "user_ratings_total": 1, "permanently_closed": true, "name": "Arya Spol s.r.o.", "reference": "ChIJq6qqGoQdDTkRKNCErOgsUdQ", "geometry": {"location": {"lat": 28.5677814, "lng": 77.1873021}, "viewport": {"northeast": {"lat": 28.5691250802915, "lng": 77.18878043029152}, "southwest": {"lat": 28.5664271197085, "lng": 77.1860824697085}}}, "place_id": "ChIJq6qqGoQdDTkRKNCErOgsUdQ", "plus_code": {"global_code": "7JWVH59P+4W", "compound_code": "H59P+4W New Delhi, Delhi, India"}, "vicinity": "704-A, Somdutt-II, Bhikaji Cama Place, New Delhi", "scope": "GOOGLE", "business_status": "CLOSED_TEMPORARILY", "types": ["local_government_office", "point_of_interest", "establishment"], "icon": "https://maps.gstatic.com/mapfiles/place_api/icons/v1/png_71/generic_business-71.png"}, {"rating": 4.2, "user_ratings_total": 5, "name": "Veterinary Council of India", "reference": "ChIJq6qqaoQdDTkRrvMbsndovRc", "geometry": {"location": {"lat": 28.5674534, "lng": 77.1873379}, "viewport": {"northeast": {"lat": 28.5687081302915, "lng": 77.1886753302915}, "southwest": {"lat": 28.5660101697085, "lng": 77.1859773697085}}}, "place_id": "ChIJq6qqaoQdDTkRrvMbsndovRc", "plus_code": {"global_code": "7JWVH58P+XW", "compound_code": "H58P+XW New Delhi, Delhi, India"}, "vicinity": "A-Wing , IInd Floor, August Kranti Bhawan, Bhikaji Kama Place, New Delhi", "photos": [{"photo_reference": "ATtYBwLxhTZRclLXRqwMycIOCd4oIXqFiaT6lHYgnu2Ib1wD93p8Vpsp3fCMZYicn-_SXSrIgMJKWdsCyWJBbd5ZeWEMwc3pFzGPurKT3WLe08sbq7RVhccAfBhS_yIClciOfN2ty9oMX3wicuJb6dELOgAAnZ_koB8pcs5rrO20Ey5ZtX4J", "width": 4624, "html_attributions": ["<a href=\"https://maps.google.com/maps/contrib/108599526555086352541\">Doctor JTK Veterinarian</a>"], "height": 2136}], "scope": "GOOGLE", "business_status": "OPERATIONAL", "types": ["local_government_office", "point_of_interest", "establishment"], "icon": "https://maps.gstatic.com/mapfiles/place_api/icons/v1/png_71/civic_building-71.png"}, {"permanently_closed": true, "name": "RnK Empresa Pvt. Ltd.", "reference": "ChIJpzlqOn8dDTkRnxc0Z_taUxA", "geometry": {"location": {"lat": 28.5703704, "lng": 77.1879075}, "viewport": {"northeast": {"lat": 28.5718399802915, "lng": 77.1892631302915}, "southwest": {"lat": 28.5691420197085, "lng": 77.18656516970849}}}, "place_id": "ChIJpzlqOn8dDTkRnxc0Z_taUxA", "plus_code": {"global_code": "7JWVH5CQ+45", "compound_code": "H5CQ+45 New Delhi, Delhi, India"}, "vicinity": "M-11, Palika Bhawan, Sector 13 R K Puram, New Delhi", "photos": [{"photo_reference": "ATtYBwJARTXunYc7mIJQGHHmbLsQfWucNrXe4Ee-f0r9THxNzm-UctnDYAOK63GHlUBBl-6di72BT5DzcwNcKZYS6gXkvl1-hE4wEJCxfGMRN4IQqMDM7hxJiTO27jNu75hKSLqeCUo9oap988CZIT5eOBOQkGDWKSmerBdTZY0y_g6i5hhn", "width": 1038, "html_attributions": ["<a href=\"https://maps.google.com/maps/contrib/115385362265360129747\">RnK Empresa Pvt. Ltd.</a>"], "height": 582}], "scope": "GOOGLE", "business_status": "CLOSED_TEMPORARILY", "types": ["local_government_office", "point_of_interest", "establishment"], "icon": "https://maps.gstatic.com/mapfiles/place_api/icons/v1/png_71/civic_building-71.png"}, {"rating": 5, "user_ratings_total": 3, "name": "RR Job Services", "reference": "ChIJc9WpHxgdDTkRyQkHvO9J2eA", "geometry": {"location": {"lat": 28.5674408, "lng": 77.1877414}, "viewport": {"northeast": {"lat": 28.5689022302915, "lng": 77.1890932802915}, "southwest": {"lat": 28.5662042697085, "lng": 77.1863953197085}}}, "opening_hours": {"open_now": false}, "place_id": "ChIJc9WpHxgdDTkRyQkHvO9J2eA", "plus_code": {"global_code": "7JWVH58Q+X3", "compound_code": "H58Q+X3 New Delhi, Delhi, India"}, "vicinity": "Som Dutt Chamber II, FK-8, First, I, Bhikaji Cama Place, Rama Krishna Puram, New Delhi", "photos": [{"photo_reference": "ATtYBwLR0wue-x1-vALJstyMcqzuU2YQZWihnUG627EeKDDJ7lpFm8Se8i8oekIgGJdCkre3Jhz-9SGu_TLuMUgeC8pjczv12rwd9ndYaWZnHwm4PIlhKKdiHoBjPhoB_30MiddrdJW_AJQZf4515BoilXDEud5Sh_6XN7Zxq73B_li3cbbA", "width": 1280, "html_attributions": ["<a href=\"https://maps.google.com/maps/contrib/105356918100003543157\">RR Job Services</a>"], "height": 1280}], "scope": "GOOGLE", "business_status": "OPERATIONAL", "types": ["local_government_office", "point_of_interest", "establishment"], "icon": "https://maps.gstatic.com/mapfiles/place_api/icons/v1/png_71/civic_building-71.png"}, {"rating": 5, "user_ratings_total": 3, "name": "Sood Sabha Delhi Ncr", "reference": "ChIJf00PGoQdDTkRjz--QrGOQPk", "geometry": {"location": {"lat": 28.5679196, "lng": 77.1881392}, "viewport": {"northeast": {"lat": 28.5692707802915, "lng": 77.18942403029149}, "southwest": {"lat": 28.5665728197085, "lng": 77.18672606970848}}}, "place_id": "ChIJf00PGoQdDTkRjz--QrGOQPk", "plus_code": {"global_code": "7JWVH59Q+57", "compound_code": "H59Q+57 New Delhi, Delhi, India"}, "vicinity": "Somdutt Chamber 1, A- 414 - 415, 5, Bhikaji Cama Place, New Delhi", "photos": [{"photo_reference": "ATtYBwKsfztNG88VVu0w4bAFtcKAozlpTzWI281ObdLINIS6lNOfrSrdVHPv0FRBBDUW_mb7qSc0zUvTY4KeLwvJn2CDS2hGpR6WwfKP6H0NigapYJADLgy7ft9RBGNlxP0DRR-XAcLYNpvpqMYNXqGmBnHumG7YJ2oezD-vmVbAqD5tTW64", "width": 480, "html_attributions": ["<a href=\"https://maps.google.com/maps/contrib/108990036706028564990\">Sood Sabha Delhi Ncr</a>"], "height": 344}], "scope": "GOOGLE", "business_status": "OPERATIONAL", "types": ["local_government_office", "point_of_interest", "establishment"], "icon": "https://maps.gstatic.com/mapfiles/place_api/icons/v1/png_71/civic_building-71.png"}, {"name": "abcJOB.in", "reference": "ChIJP7wSyYYdDTkRyUpvsUaiKxM", "geometry": {"location": {"lat": 28.5679154, "lng": 77.1881514}, "viewport": {"northeast": {"lat": 28.5692643802915, "lng": 77.1894301302915}, "southwest": {"lat": 28.5665664197085, "lng": 77.18673216970848}}}, "opening_hours": {"open_now": true}, "place_id": "ChIJP7wSyYYdDTkRyUpvsUaiKxM", "plus_code": {"global_code": "7JWVH59Q+57", "compound_code": "H59Q+57 New Delhi, Delhi, India"}, "vicinity": "R-18, Ansal chamber II, 6 Bhikaji Came Place, New Delhi", "photos": [{"photo_reference": "ATtYBwKDknLaU_3dCLEW6j-zMX9OOA4giwWF4BAO8-2IcgFEexNCdvrZZrNW6qq3CD4mqVLVF_q8Ud5hEZsR9P1k6V1q2_6vXnPWI5XeL8MYubYODN0z78fpUNYH2Gedbpm4NmMEpAY70GuP9IZ3pVUnXGm6h7lZZLL-AGLMujMc9UxwDwLu", "width": 546, "html_attributions": ["<a href=\"https://maps.google.com/maps/contrib/116308681122485255697\">abcJOB.in</a>"], "height": 786}], "scope": "GOOGLE", "business_status": "OPERATIONAL", "types": ["local_government_office", "point_of_interest", "establishment"], "icon": "https://maps.gstatic.com/mapfiles/place_api/icons/v1/png_71/civic_building-71.png"}, {"rating": 5, "user_ratings_total": 34, "name": "Russia Visa Experts(tourist visa agent in delhi,russia visa)", "reference": "ChIJv7dll4YdDTkR9qgTZb7jX9M", "geometry": {"location": {"lat": 28.5658946, "lng": 77.1871893}, "viewport": {"northeast": {"lat": 28.5672381802915, "lng": 77.18849303029151}, "southwest": {"lat": 28.5645402197085, "lng": 77.18579506970849}}}, "opening_hours": {"open_now": false}, "place_id": "ChIJv7dll4YdDTkR9qgTZb7jX9M", "plus_code": {"global_code": "7JWVH58P+9V", "compound_code": "H58P+9V New Delhi, Delhi, India"}, "vicinity": "b-5, ansal chamber 2, Bhikaji Cama Place, Rama Krishna Puram, New Delhi", "photos": [{"photo_reference": "ATtYBwJhPmclwTeg0RJzgEXi5BATCVaC0LSwTs95mb0LHRh8YwqeFCziYr1NmdsjWXuAl90DPTd2E9XxbsBhpifQDbJpEhYLmp7PQlpN3pDVCg4FHNqLkl_P7fgBHr7UiSJEn2MnL637AnA67fmbSYbE16xq6rkd_jZSbx1qLvkIqd9HeMqj", "width": 940, "html_attributions": ["<a href=\"https://maps.google.com/maps/contrib/108019778259979500955\">Russia Visa Experts</a>"], "height": 788}], "scope": "GOOGLE", "business_status": "OPERATIONAL", "types": ["travel_agency", "local_government_office", "point_of_interest", "establishment"], "icon": "https://maps.gstatic.com/mapfiles/place_api/icons/v1/png_71/generic_business-71.png"}, {"rating": 4.9, "user_ratings_total": 38, "name": "TRAVIZAS- tourist visa agent in delhi (russia visa agent,UK Visa agent,US visa agent,dubai visa agent,china visa,malaysia visa,singapore visa,tajikistan visa,japan visa,schengen visa agents,nigeria visa,kazakhstan visa,malaysia visa)", "reference": "ChIJ7bLhNRQdDTkRYo7uV_zwEog", "geometry": {"location": {"lat": 28.56764129999999, "lng": 77.1881832}, "viewport": {"northeast": {"lat": 28.5689999302915, "lng": 77.18944263029151}, "southwest": {"lat": 28.56630196970849, "lng": 77.18674466970849}}}, "opening_hours": {"open_now": false}, "place_id": "ChIJ7bLhNRQdDTkRYo7uV_zwEog", "plus_code": {"global_code": "7JWVH59Q+37", "compound_code": "H59Q+37 New Delhi, Delhi, India"}, "vicinity": "B 5 ANSAL CHAMBERS II, Bhikaji Cama Place, New Delhi", "scope": "GOOGLE", "business_status": "OPERATIONAL", "types": ["travel_agency", "local_government_office", "point_of_interest", "establishment"], "icon": "https://maps.gstatic.com/mapfiles/place_api/icons/v1/png_71/generic_business-71.png"}, {"rating": 3.3, "user_ratings_total": 15, "permanently_closed": true, "name": "Veterinary Council of India", "reference": "ChIJA2iAJYQdDTkR7iXQtteVphs", "geometry": {"location": {"lat": 28.5667953, "lng": 77.188383}, "viewport": {"northeast": {"lat": 28.5679687302915, "lng": 77.1897438302915}, "southwest": {"lat": 28.5652707697085, "lng": 77.1870458697085}}}, "place_id": "ChIJA2iAJYQdDTkR7iXQtteVphs", "plus_code": {"global_code": "7JWVH58Q+P9", "compound_code": "H58Q+P9 New Delhi, Delhi, India"}, "vicinity": "A- Wing, IInd Floor, August Kranti Bhawan, Bhikaji Cama Place, New Delhi", "photos": [{"photo_reference": "ATtYBwKr5xhESV5BodmUS2-AAQJLXIbBE66Nul684Hs2XSEw_7gs0e9RcYJsmF40eP1-VEr1IAzeYBO2n_JUtP0MAgVcBDxCyuNSpX3MIyylvqo4p6bnjJTguNtJgynylxGGc7IXr25wiugjjVPkbqXAvuAyOuG2HGqqmmhautB4j80yyL5u", "width": 2304, "html_attributions": ["<a href=\"https://maps.google.com/maps/contrib/112616204506765264492\">Dr. Kapil Kachwaha</a>"], "height": 4096}], "scope": "GOOGLE", "business_status": "CLOSED_TEMPORARILY", "types": ["local_government_office", "point_of_interest", "establishment"], "icon": "https://maps.gstatic.com/mapfiles/place_api/icons/v1/png_71/civic_building-71.png"}, {"permanently_closed": true, "name": "Police station", "reference": "ChIJb3-sH8AdDTkRQ1CDe2nt-T8", "geometry": {"location": {"lat": 28.5603887, "lng": 77.1810378}, "viewport": {"northeast": {"lat": 28.5615968802915, "lng": 77.1826161802915}, "southwest": {"lat": 28.5588989197085, "lng": 77.1799182197085}}}, "place_id": "ChIJb3-sH8AdDTkRQ1CDe2nt-T8", "plus_code": {"global_code": "7JWVH56J+5C", "compound_code": "H56J+5C New Delhi, Delhi, India"}, "vicinity": "836, Parvatiya Camp, Sector 4, Rama Krishna Puram, New Delhi", "scope": "GOOGLE", "business_status": "CLOSED_TEMPORARILY", "types": ["local_government_office", "point_of_interest", "establishment"], "icon": "https://maps.gstatic.com/mapfiles/place_api/icons/v1/png_71/civic_building-71.png"}, {"rating": 4.7, "user_ratings_total": 6, "permanently_closed": true, "name": "Hanuman Majdoor Camp", "reference": "ChIJFw7OKZAdDTkRZcvolTmptmQ", "geometry": {"location": {"lat": 28.5602576, "lng": 77.18225129999999}, "viewport": {"northeast": {"lat": 28.5618205302915, "lng": 77.18351183029151}, "southwest": {"lat": 28.5591225697085, "lng": 77.1808138697085}}}, "place_id": "ChIJFw7OKZAdDTkRZcvolTmptmQ", "plus_code": {"global_code": "7JWVH56J+4W", "compound_code": "H56J+4W New Delhi, Delhi, India"}, "vicinity": "110022, Adarsh Colony, Sector 2, Rama Krishna Puram, New Delhi", "photos": [{"photo_reference": "ATtYBwJCxquo-hl5Gnh9BETf2bDi8N84k1nU1cX1VYyHfxOKAPYjxfjqewDp4skAT4k9YGAyt-K_5KwpKY-i6RRkk95rd1WtBwRh1xXlFQ6iHXqA3hv9yDHB-_iwyfG7YA3K-mzAVL8wQY-tdTWGVP2P6bEDSuWJlo3Nr1SGHYXCCmkRPG1h", "width": 1280, "html_attributions": ["<a href=\"https://maps.google.com/maps/contrib/118281113814127411178\">Naveen kumar</a>"], "height": 720}], "scope": "GOOGLE", "business_status": "CLOSED_TEMPORARILY", "types": ["local_government_office", "point_of_interest", "establishment"], "icon": "https://maps.gstatic.com/mapfiles/place_api/icons/v1/png_71/civic_building-71.png"}, {"rating": 3.6, "user_ratings_total": 5, "name": "Central Public Works Departmental Service Center", "reference": "ChIJbRaYpKAdDTkRUDhz-rYhnhQ", "geometry": {"location": {"lat": 28.572025, "lng": 77.1668122}, "viewport": {"northeast": {"lat": 28.5733485802915, "lng": 77.1680581302915}, "southwest": {"lat": 28.5706506197085, "lng": 77.16536016970849}}}, "opening_hours": {"open_now": false}, "place_id": "ChIJbRaYpKAdDTkRUDhz-rYhnhQ", "plus_code": {"global_code": "7JWVH5C8+RP", "compound_code": "H5C8+RP New Delhi, Delhi, India"}, "vicinity": "Qutab Garh, Sector 8, Rama Krishna Puram, New Delhi", "photos": [{"photo_reference": "ATtYBwKjyS-sKYclLbnlQ8eofxFJkbjuHQO3KDPsSmrwmq9bSvmIP9q5B4ckfoagK6a5CN5QS7fa3bKj6bIAqilbs0lPuQQheQFS9Qd70i98mlwHlN0i87WEmzCNii4TH2aKpYNjVvQNkCzbE3jCdFscuYtvOE2HC_wg4JsEIuSO6R5B0bf3", "width": 3096, "html_attributions": ["<a href=\"https://maps.google.com/maps/contrib/106358669268210743930\">RAM KUMAR SINGH</a>"], "height": 4128}], "scope": "GOOGLE", "business_status": "OPERATIONAL", "types": ["local_government_office", "point_of_interest", "establishment"], "icon": "https://maps.gstatic.com/mapfiles/place_api/icons/v1/png_71/civic_building-71.png"}, {"rating": 4, "user_ratings_total": 3, "name": "CPWD", "reference": "ChIJ74QFe4AdDTkRbKP3BBvmkbc", "geometry": {"location": {"lat": 28.5727794, "lng": 77.1938547}, "viewport": {"northeast": {"lat": 28.5741279302915, "lng": 77.1951796302915}, "southwest": {"lat": 28.5714299697085, "lng": 77.1924816697085}}}, "place_id": "ChIJ74QFe4AdDTkRbKP3BBvmkbc", "plus_code": {"global_code": "7JWVH5FV+4G", "compound_code": "H5FV+4G New Delhi, Delhi, India"}, "vicinity": "Department-344, C.P.W.D, Sarojini Nagar, New Delhi", "photos": [{"photo_reference": "ATtYBwLN8D3597UNxfkNlas6saDvtT5FuPIcgUhAeLoKpTQ22GXSnygyRnTBijBBcXs8LGePe777AP9aqhYe34xc9iSjI7Y12ew_aIl-bCZhr_LcIrYbdfT3p800peY_wBmTx3lf6EmuLuspvl92UtVgraELsNAwbXMzIXYm_u1Ska89dLS4", "width": 3120, "html_attributions": ["<a href=\"https://maps.google.com/maps/contrib/102186737596191800615\">Ramesh Raajan</a>"], "height": 4160}], "scope": "GOOGLE", "business_status": "OPERATIONAL", "types": ["local_government_office", "point_of_interest", "establishment"], "icon": "https://maps.gstatic.com/mapfiles/place_api/icons/v1/png_71/civic_building-71.png"}]}