{"status": "OK", "html_attributions": [], "results": [{"rating": 5, "user_ratings_total": 2, "permanently_closed": true, "name": "Bhurji Kayastha Samaj Matrimonial", "reference": "ChIJIZ5rOufhDDkR7IAX6FQKdf0", "geometry": {"location": {"lat": 28.5089768, "lng": 77.2010652}, "viewport": {"northeast": {"lat": 28.5103224302915, "lng": 77.2024205302915}, "southwest": {"lat": 28.5076244697085, "lng": 77.19972256970848}}}, "place_id": "ChIJIZ5rOufhDDkR7IAX6FQKdf0", "plus_code": {"global_code": "7JWVG652+HC", "compound_code": "G652+HC New Delhi, Delhi, India"}, "vicinity": "Maidan Garhi, Ignou Main Road ,Saket, New Delhi", "scope": "GOOGLE", "business_status": "CLOSED_TEMPORARILY", "types": ["local_government_office", "point_of_interest", "establishment"], "icon": "https://maps.gstatic.com/mapfiles/place_api/icons/v1/png_71/civic_building-71.png"}, {"name": "Bajoria Foods Pvt. Ltd.", "reference": "ChIJFeruI0DhDDkRLYbHdHGQhCg", "geometry": {"location": {"lat": 28.5091759, "lng": 77.201987}, "viewport": {"northeast": {"lat": 28.5105204802915, "lng": 77.2033522802915}, "southwest": {"lat": 28.5078225197085, "lng": 77.20065431970849}}}, "place_id": "ChIJFeruI0DhDDkRLYbHdHGQhCg", "plus_code": {"global_code": "7JWVG652+MQ", "compound_code": "G652+MQ New Delhi, Delhi, India"}, "vicinity": "177,1 Shoukeen Market, Neb Sarai, New Delhi", "scope": "GOOGLE", "business_status": "OPERATIONAL", "types": ["local_government_office", "point_of_interest", "establishment"], "icon": "https://maps.gstatic.com/mapfiles/place_api/icons/v1/png_71/civic_building-71.png"}, {"rating": 5, "user_ratings_total": 2, "name": "Spain & Russia Visa Agents | Greece Visa Consultant in Delhi", "reference": "ChIJF3jE8WHhDDkRQ-pFKMGyZKA", "geometry": {"location": {"lat": 28.5189266, "lng": 77.2010744}, "viewport": {"northeast": {"lat": 28.5202831302915, "lng": 77.20238838029151}, "southwest": {"lat": 28.5175851697085, "lng": 77.19969041970849}}}, "opening_hours": {"open_now": false}, "place_id": "ChIJF3jE8WHhDDkRQ-pFKMGyZKA", "plus_code": {"global_code": "7JWVG692+HC", "compound_code": "G692+HC New Delhi, Delhi, India"}, "vicinity": "Building No. 5 Gali No 2 Saidulajab Near Saket Metro, New Delhi", "scope": "GOOGLE", "business_status": "OPERATIONAL", "types": ["travel_agency", "local_government_office", "point_of_interest", "establishment"], "icon": "https://maps.gstatic.com/mapfiles/place_api/icons/v1/png_71/generic_business-71.png"}, {"rating": 4.6, "user_ratings_total": 32, "name": "Sandeep Yadav", "reference": "ChIJ6Zt9j0YeDTkRQ5j-DvsRvnI", "geometry": {"location": {"lat": 28.5196455, "lng": 77.2005444}, "viewport": {"northeast": {"lat": 28.5209316302915, "lng": 77.20186123029151}, "southwest": {"lat": 28.51823366970849, "lng": 77.19916326970849}}}, "place_id": "ChIJ6Zt9j0YeDTkRQ5j-DvsRvnI", "plus_code": {"global_code": "7JWVG692+V6", "compound_code": "G692+V6 New Delhi, Delhi, India"}, "vicinity": "Plot - No- 1, Kehar Singh Estate West Marg, Saidulajab, New Delhi", "photos": [{"photo_reference": "ATtYBwI0NLCKyKi4ndKaiHT9yhsM9pnISQqdBAdOl191V8IlzwOUcN4otEyip4EfsUGgzDPtb0L51lWf7vDjD_JAuaVuY0Dvo_-WxiV4iDMqP3-W1vKFPNKENqmd_9vVyJFLtdOMNuJy6AELKk2jU5RdwWFzWcCX0uXAOVP7VkaALXsCLD7N", "width": 1920, "html_attributions": ["<a href=\"https://maps.google.com/maps/contrib/100507600216064555488\">PRIYA MUSIC - By Sandeep Yadav</a>"], "height": 1080}], "scope": "GOOGLE", "business_status": "OPERATIONAL", "types": ["local_government_office", "point_of_interest", "establishment"], "icon": "https://maps.gstatic.com/mapfiles/place_api/icons/v1/png_71/generic_business-71.png"}, {"rating": 1, "user_ratings_total": 1, "name": "Delhi Jal Board Dispensary Mehrauli", "reference": "ChIJPZV6IvofDTkRrjgssaFL2Ok", "geometry": {"location": {"lat": 28.516451, "lng": 77.190496}, "viewport": {"northeast": {"lat": 28.5178542802915, "lng": 77.1918663302915}, "southwest": {"lat": 28.5151563197085, "lng": 77.1891683697085}}}, "opening_hours": {"open_now": false}, "place_id": "ChIJPZV6IvofDTkRrjgssaFL2Ok", "plus_code": {"global_code": "7JWVG58R+H5", "compound_code": "G58R+H5 New Delhi, Delhi, India"}, "vicinity": "Mittal Garden, Sainik Farm, New Delhi", "scope": "GOOGLE", "business_status": "OPERATIONAL", "types": ["local_government_office", "health", "point_of_interest", "establishment"], "icon": "https://maps.gstatic.com/mapfiles/place_api/icons/v1/png_71/civic_building-71.png"}, {"permanently_closed": true, "name": "Saket metro station gate no 1", "reference": "ChIJw3Ej6MHhDDkRninJDfcAebc", "geometry": {"location": {"lat": 28.52063889999999, "lng": 77.203099}, "viewport": {"northeast": {"lat": 28.52203043029149, "lng": 77.20444558029152}, "southwest": {"lat": 28.51933246970849, "lng": 77.2017476197085}}}, "place_id": "ChIJw3Ej6MHhDDkRninJDfcAebc", "plus_code": {"global_code": "7JWVG6C3+76", "compound_code": "G6C3+76 New Delhi, Delhi, India"}, "vicinity": "Block A, Block D, Saket, New Delhi", "photos": [{"photo_reference": "ATtYBwJAPwFclT9BNa5icwvYqORyOUkZDkBuRFY7rIdf3Po3aSpUhCAbUvixgfgWb6wswpQT2Gx_H1PYrvU0MyRIvt2E0kxth7Z82yrCnPDaHfXGtBdB-MpjC8fXcFmR-amtsqXUxVmur4Dp2BmzdXnB4PWWlOYg4jNlPaQWaBdtuZPKGC6Y", "width": 2340, "html_attributions": ["<a href=\"https://maps.google.com/maps/contrib/116822326825016341760\">Dipesh kumar Aarya</a>"], "height": 4160}], "scope": "GOOGLE", "business_status": "CLOSED_TEMPORARILY", "types": ["local_government_office", "point_of_interest", "establishment"], "icon": "https://maps.gstatic.com/mapfiles/place_api/icons/v1/png_71/civic_building-71.png"}, {"rating": 5, "user_ratings_total": 2, "name": "Marriage Certificate Online Delhi", "reference": "ChIJT2qFclzhDDkRc1P1x17SY3I", "geometry": {"location": {"lat": 28.5186204, "lng": 77.2086839}, "viewport": {"northeast": {"lat": 28.5201320802915, "lng": 77.2100806802915}, "southwest": {"lat": 28.5174341197085, "lng": 77.20738271970849}}}, "opening_hours": {"open_now": true}, "place_id": "ChIJT2qFclzhDDkRc1P1x17SY3I", "plus_code": {"global_code": "7JWVG695+CF", "compound_code": "G695+CF New Delhi, Delhi, India"}, "vicinity": "Mehrauli - Badarpur Road, Saket, New Delhi", "photos": [{"photo_reference": "ATtYBwJZb5rcjCfjOm0EHMlf0BVvwfW6C9K5zbuW-TOp52WM09rzfIVoartsx40Hix5SuXDipRD-SEI8_9iTzSHW-9AHhfblFZRFJRT-TD2aPPYj9Nxr2SGSXO3nyFQO7VAX2DpfTlwLBsCFvT-huf0gzCWTnpt21MhF1A3j_8FgQfaZthSG", "width": 601, "html_attributions": ["<a href=\"https://maps.google.com/maps/contrib/112057923266981930602\">Marriage Certificate Online Delhi</a>"], "height": 446}], "scope": "GOOGLE", "business_status": "OPERATIONAL", "types": ["local_government_office", "point_of_interest", "establishment"], "icon": "https://maps.gstatic.com/mapfiles/place_api/icons/v1/png_71/civic_building-71.png"}]}