{"status": "OK", "html_attributions": [], "results": [{"rating": 5, "user_ratings_total": 7, "name": "JobsDena.Com", "reference": "ChIJGQAAwM0PDTkRsj6EvctLDMQ", "geometry": {"location": {"lat": 28.612297, "lng": 76.968627}, "viewport": {"northeast": {"lat": 28.6136618802915, "lng": 76.9699762302915}, "southwest": {"lat": 28.6109639197085, "lng": 76.96727826970849}}}, "opening_hours": {"open_now": false}, "place_id": "ChIJGQAAwM0PDTkRsj6EvctLDMQ", "plus_code": {"global_code": "7JWRJX69+WF", "compound_code": "JX69+WF Delhi, India"}, "vicinity": "Plot No 280 Gali No 24 M.D Road, Gopal Nagar Extension, Najafgarh, Delhi", "photos": [{"photo_reference": "ATtYBwLqtYOVW3TBhIvJYiIGkLr2fxpmAGW6ey4o3-g-go7pXo4exbl-Rrd2hGGg2yflkZu-lhaLpK5oxRlVILVFvb4m4NSWeGfVklYF76AHfqXBF1ngw1BVdR5ylpxX12FXepAntAuZ9SWgUtXVa6Pc7u38pDEUaiHNJUz2yHmWMjGtNEhT", "width": 449, "html_attributions": ["<a href=\"https://maps.google.com/maps/contrib/107965663213999065131\">JobsDena.Com</a>"], "height": 388}], "scope": "GOOGLE", "business_status": "OPERATIONAL", "types": ["local_government_office", "point_of_interest", "establishment"], "icon": "https://maps.gstatic.com/mapfiles/place_api/icons/v1/png_71/civic_building-71.png"}, {"rating": 5, "user_ratings_total": 1, "name": "B.J.P Negam Parsad Office", "reference": "ChIJVT2UQtIPDTkRWhxcnILWxzY", "geometry": {"location": {"lat": 28.6093016, "lng": 76.96801339999999}, "viewport": {"northeast": {"lat": 28.6106757802915, "lng": 76.96935398029152}, "southwest": {"lat": 28.6079778197085, "lng": 76.96665601970851}}}, "place_id": "ChIJVT2UQtIPDTkRWhxcnILWxzY", "plus_code": {"global_code": "7JWRJX59+P6", "compound_code": "JX59+P6 Delhi, India"}, "vicinity": "Neha Colony, New Gopal Nagar, Najafgarh, Delhi", "scope": "GOOGLE", "business_status": "OPERATIONAL", "types": ["local_government_office", "point_of_interest", "establishment"], "icon": "https://maps.gstatic.com/mapfiles/place_api/icons/v1/png_71/civic_building-71.png"}, {"name": "Hr 31 Kundu villa", "reference": "ChIJ26F0GA0PDTkR1-HRbuHe-zM", "geometry": {"location": {"lat": 28.6087146, "lng": 76.9698823}, "viewport": {"northeast": {"lat": 28.6099839802915, "lng": 76.97122333029151}, "southwest": {"lat": 28.60728601970849, "lng": 76.96852536970849}}}, "place_id": "ChIJ26F0GA0PDTkR1-HRbuHe-zM", "plus_code": {"global_code": "7JWRJX59+FX", "compound_code": "JX59+FX Delhi, India"}, "vicinity": "near Oxford Foundation School, Main Dhansa Road, Nanak Piau, near Oxford Foundation School, Nanda Enclave, Block B, New Gopal Nagar, Najafgarh, Delhi", "scope": "GOOGLE", "business_status": "OPERATIONAL", "types": ["local_government_office", "point_of_interest", "establishment"], "icon": "https://maps.gstatic.com/mapfiles/place_api/icons/v1/png_71/civic_building-71.png"}, {"name": "Taker foods private limited company", "reference": "ChIJH3GaEMIPDTkRM9KNu4y3qQg", "geometry": {"location": {"lat": 28.605644, "lng": 76.969174}, "viewport": {"northeast": {"lat": 28.6069612302915, "lng": 76.97048273029151}, "southwest": {"lat": 28.6042632697085, "lng": 76.96778476970849}}}, "place_id": "ChIJH3GaEMIPDTkRM9KNu4y3qQg", "plus_code": {"global_code": "7JWRJX49+7M", "compound_code": "JX49+7M Najafgarh, New Delhi, Delhi, India"}, "vicinity": "krishna vihar main khaira, road, Najafgarh, New Delhi", "scope": "GOOGLE", "business_status": "OPERATIONAL", "types": ["local_government_office", "point_of_interest", "establishment"], "icon": "https://maps.gstatic.com/mapfiles/place_api/icons/v1/png_71/civic_building-71.png"}, {"rating": 4.3, "user_ratings_total": 7, "name": "MLA Office", "reference": "ChIJ12Dw8NEPDTkRyq8jDvaqifM", "geometry": {"location": {"lat": 28.6102076, "lng": 76.9705719}, "viewport": {"northeast": {"lat": 28.6115492802915, "lng": 76.9718845802915}, "southwest": {"lat": 28.6088513197085, "lng": 76.9691866197085}}}, "opening_hours": {"open_now": false}, "place_id": "ChIJ12Dw8NEPDTkRyq8jDvaqifM", "plus_code": {"global_code": "7JWRJX6C+36", "compound_code": "JX6C+36 Delhi, India"}, "vicinity": "Gopal Nagar Extension, Najafgarh, Delhi", "photos": [{"photo_reference": "ATtYBwJ3kMyXPEqHrv78nUoOGo4xfcrQgWgPvu2jfxrkjad5l5eT4PpgYsjhif92oOFzf3fiB46NXDo6hHOW_cy9utAzWir7Q9QfjIj2JkWiqBgw7dF5SjQrlpvgCoG9mRNw0YMaUPe8eqKUJWcfYTcPGGCohgApSze12o17AEJ9FQn6jdQl", "width": 4160, "html_attributions": ["<a href=\"https://maps.google.com/maps/contrib/107166592258819467107\">Manish Shokeen</a>"], "height": 3120}], "scope": "GOOGLE", "business_status": "OPERATIONAL", "types": ["local_government_office", "point_of_interest", "establishment"], "icon": "https://maps.gstatic.com/mapfiles/place_api/icons/v1/png_71/civic_building-71.png"}, {"permanently_closed": true, "name": "Young Kalyan Samiti", "reference": "ChIJNY0a09EPDTkRaIJMnY29cGA", "geometry": {"location": {"lat": 28.610774, "lng": 76.972821}, "viewport": {"northeast": {"lat": 28.6120807302915, "lng": 76.97418438029149}, "southwest": {"lat": 28.6093827697085, "lng": 76.97148641970848}}}, "place_id": "ChIJNY0a09EPDTkRaIJMnY29cGA", "plus_code": {"global_code": "7JWRJX6F+84", "compound_code": "JX6F+84 Delhi, India"}, "vicinity": "Dhasa Road,Najafgarh, Najafgarh Dhansa Road, Gopal Nagar Extension, Mitraon, Delhi", "scope": "GOOGLE", "business_status": "CLOSED_TEMPORARILY", "types": ["finance", "local_government_office", "point_of_interest", "establishment"], "icon": "https://maps.gstatic.com/mapfiles/place_api/icons/v1/png_71/generic_business-71.png"}, {"name": "INDIA MOTORS", "reference": "ChIJJ2EaV9APDTkR6WKVBiIlKwI", "geometry": {"location": {"lat": 28.6086942, "lng": 76.9735207}, "viewport": {"northeast": {"lat": 28.60999698029151, "lng": 76.9749850302915}, "southwest": {"lat": 28.6072990197085, "lng": 76.97228706970849}}}, "opening_hours": {"open_now": true}, "place_id": "ChIJJ2EaV9APDTkR6WKVBiIlKwI", "plus_code": {"global_code": "7JWRJX5F+FC", "compound_code": "JX5F+FC Delhi, India"}, "vicinity": "Nanda Enclave, Block B, New Gopal Nagar, Najafgarh, Delhi", "scope": "GOOGLE", "business_status": "OPERATIONAL", "types": ["local_government_office", "point_of_interest", "establishment"], "icon": "https://maps.gstatic.com/mapfiles/place_api/icons/v1/png_71/civic_building-71.png"}, {"rating": 1, "user_ratings_total": 1, "name": "Taker foods private limited company", "reference": "ChIJ3ZlyWYQPDTkRTQEKr-iyWhA", "geometry": {"location": {"lat": 28.6047668, "lng": 76.9722271}, "viewport": {"northeast": {"lat": 28.6061015802915, "lng": 76.9736140802915}, "southwest": {"lat": 28.60340361970849, "lng": 76.97091611970849}}}, "place_id": "ChIJ3ZlyWYQPDTkRTQEKr-iyWhA", "plus_code": {"global_code": "7JWRJX3C+WV", "compound_code": "JX3C+WV Najafgarh, New Delhi, Delhi, India"}, "vicinity": "Krishna Vihar East, Najafgarh, New Delhi", "photos": [{"photo_reference": "ATtYBwJOKRlGKe1vluEoDH3csFR7PWM2Ag2V_q50BO82608yN_KM9earc4qyDIzUfMzfW777G9gcSy3w0O616xR4zzUktcv-Cq9RQTJGjQY592Z3tW2jVdImNkWyJ8jggus_iq0hcSWLlqpul0XHbzef5T8QnrdhvstEu-79XtkZm6cdgfei", "width": 2128, "html_attributions": ["<a href=\"https://maps.google.com/maps/contrib/110729252396136102398\">Taker food pvt.lim. compony</a>"], "height": 4608}], "scope": "GOOGLE", "business_status": "OPERATIONAL", "types": ["local_government_office", "point_of_interest", "establishment"], "icon": "https://maps.gstatic.com/mapfiles/place_api/icons/v1/png_71/civic_building-71.png"}]}