{"status": "OK", "html_attributions": [], "results": [{"rating": 3.3, "user_ratings_total": 3, "name": "Airnet Service", "reference": "ChIJjVVz4qDkDDkRoQ_nv-lRK9Y", "geometry": {"location": {"lat": 28.611121, "lng": 77.289338}, "viewport": {"northeast": {"lat": 28.6126759802915, "lng": 77.2907874302915}, "southwest": {"lat": 28.6099780197085, "lng": 77.2880894697085}}}, "place_id": "ChIJjVVz4qDkDDkRoQ_nv-lRK9Y", "plus_code": {"global_code": "7JWVJ76Q+CP", "compound_code": "J76Q+CP New Delhi, Delhi, India"}, "vicinity": "BR Complex, Patparganj Road, Una Enclave, Mayur Vihar, New Delhi", "scope": "GOOGLE", "business_status": "OPERATIONAL", "types": ["local_government_office", "point_of_interest", "establishment"], "icon": "https://maps.gstatic.com/mapfiles/place_api/icons/v1/png_71/civic_building-71.png"}, {"rating": 5, "user_ratings_total": 39, "name": "Salutary Facility Management Pvt Ltd - Facility Management Companies in Delhi NCR | Housekeeping Service in Delhi, Noida, Gurgaon | INDIA", "reference": "ChIJl1op_lrjDDkR_VdM_KCdn6g", "geometry": {"location": {"lat": 28.617908, "lng": 77.28661439999999}, "viewport": {"northeast": {"lat": 28.61936673029151, "lng": 77.2880956802915}, "southwest": {"lat": 28.6166687697085, "lng": 77.28539771970848}}}, "opening_hours": {"open_now": false}, "place_id": "ChIJl1op_lrjDDkR_VdM_KCdn6g", "plus_code": {"global_code": "7JWVJ79P+5J", "compound_code": "J79P+5J Pandav Nagar, New Delhi, Delhi, India"}, "vicinity": "Nehru Complex, office no. 28, 9-B, Delhi Noida Direct Flyway, Pandav Nagar, Gurugram", "photos": [{"photo_reference": "ATtYBwJbXUR_bHQKc0wclGqGRj9uNYWru-M8ETu9DnazLTyt5oiBBpum9L_QkhEVujgn__w0kAlAykqZKYNVm2yN6Vhe4jCsnGiQVZE4J4D3NbHrq3LUpfDse2sQ-DMh0xlKtODpMiwQ_V3scDWtsrpDukfrtd06hRkx2ITQriq7g-8OV3hp", "width": 900, "html_attributions": ["<a href=\"https://maps.google.com/maps/contrib/107378935634825595553\">Salutary Facility Management Pvt Ltd - Facility Management Companies in Delhi NCR | Housekeeping Service in Delhi, Noida, Gurgaon | INDIA</a>"], "height": 650}], "scope": "GOOGLE", "business_status": "OPERATIONAL", "types": ["laundry", "finance", "local_government_office", "point_of_interest", "establishment"], "icon": "https://maps.gstatic.com/mapfiles/place_api/icons/v1/png_71/generic_business-71.png"}, {"rating": 5, "user_ratings_total": 3, "name": "Devotee Marriage", "reference": "ChIJq6paPaLkDDkRR6_ZZSC2iMQ", "geometry": {"location": {"lat": 28.6090937, "lng": 77.2929963}, "viewport": {"northeast": {"lat": 28.6105371302915, "lng": 77.2943198302915}, "southwest": {"lat": 28.6078391697085, "lng": 77.2916218697085}}}, "place_id": "ChIJq6paPaLkDDkRR6_ZZSC2iMQ", "plus_code": {"global_code": "7JWVJ75V+J5", "compound_code": "J75V+J5 New Delhi, Delhi, India"}, "vicinity": "2nd Floor, Shiv Arcade A 2, 64, Acharya Niketan, Mayur Vihar, New Delhi", "photos": [{"photo_reference": "ATtYBwKCYOAOiVhiRKKECz7w9AgJ9Zim4C2gmSbZM4WXapc1ljdYsS2KBruJBz068dY5z7sL7CPvogP1NcN9jqtVFmJbgq3UpvJ4kc5n8ZyWWNwyCXKL_6Qn3RQ7urKI_J2QqzIDPShDNsBJ0R1u-Tmqvi_4DeXMH6UGr43wCf4HY53ut4P-", "width": 1000, "html_attributions": ["<a href=\"https://maps.google.com/maps/contrib/101002129600726763402\">Devotee Marriage</a>"], "height": 664}], "scope": "GOOGLE", "business_status": "OPERATIONAL", "types": ["local_government_office", "point_of_interest", "establishment"], "icon": "https://maps.gstatic.com/mapfiles/place_api/icons/v1/png_71/civic_building-71.png"}, {"rating": 4.8, "user_ratings_total": 4, "name": "ABHAY VERMA", "reference": "ChIJwRgp_lrjDDkRCRXC0otQbF8", "geometry": {"location": {"lat": 28.6147804, "lng": 77.2776579}, "viewport": {"northeast": {"lat": 28.6161293802915, "lng": 77.2790068802915}, "southwest": {"lat": 28.6134314197085, "lng": 77.27630891970848}}}, "place_id": "ChIJwRgp_lrjDDkRCRXC0otQbF8", "vicinity": "near Kali Mandir, D-163, D Block Ganesh Nagar Pandav Nagar Complex, near Kali Mandir", "scope": "GOOGLE", "business_status": "OPERATIONAL", "types": ["local_government_office", "point_of_interest", "establishment"], "icon": "https://maps.gstatic.com/mapfiles/place_api/icons/v1/png_71/civic_building-71.png"}, {"permanently_closed": true, "name": "Panchayat Bhawan", "reference": "ChIJjXguhuTjDDkRr-PyFtj14dM", "geometry": {"location": {"lat": 28.6142, "lng": 77.28481719999999}, "viewport": {"northeast": {"lat": 28.6155203802915, "lng": 77.2861793302915}, "southwest": {"lat": 28.61282241970849, "lng": 77.2834813697085}}}, "place_id": "ChIJjXguhuTjDDkRr-PyFtj14dM", "plus_code": {"global_code": "7JWVJ77M+MW", "compound_code": "J77M+MW New Delhi, Delhi, India"}, "vicinity": "F248, Samaspur Village, Pandav Nagar, New Delhi", "scope": "GOOGLE", "business_status": "CLOSED_TEMPORARILY", "types": ["city_hall", "local_government_office", "point_of_interest", "establishment"], "icon": "https://maps.gstatic.com/mapfiles/place_api/icons/v1/png_71/civic_building-71.png"}, {"permanently_closed": true, "name": "Vasu Properties", "reference": "ChIJjf0vpVnjDDkRmGm1VZKEj74", "geometry": {"location": {"lat": 28.6155855, "lng": 77.2825378}, "viewport": {"northeast": {"lat": 28.6170412302915, "lng": 77.2840326302915}, "southwest": {"lat": 28.6143432697085, "lng": 77.2813346697085}}}, "place_id": "ChIJjf0vpVnjDDkRmGm1VZKEj74", "plus_code": {"global_code": "7JWVJ78M+62", "compound_code": "J78M+62 New Delhi, Delhi, India"}, "vicinity": "A-97/2, Block S, Pandav Nagar, New Delhi", "scope": "GOOGLE", "business_status": "CLOSED_TEMPORARILY", "types": ["local_government_office", "point_of_interest", "establishment"], "icon": "https://maps.gstatic.com/mapfiles/place_api/icons/v1/png_71/civic_building-71.png"}, {"rating": 3.6, "user_ratings_total": 17, "name": "Shyen Solution (Tax Consultant and Financial Advisior)", "reference": "ChIJzUmjpaDkDDkRI-PaF-dW-c8", "geometry": {"location": {"lat": 28.611957, "lng": 77.286984}, "viewport": {"northeast": {"lat": 28.6132806802915, "lng": 77.2882846302915}, "southwest": {"lat": 28.6105827197085, "lng": 77.2855866697085}}}, "opening_hours": {"open_now": false}, "place_id": "ChIJzUmjpaDkDDkRI-PaF-dW-c8", "plus_code": {"global_code": "7JWVJ76P+QQ", "compound_code": "J76P+QQ New Delhi, Delhi, India"}, "vicinity": "F-36, Pankaj Grand Plaza, Mayur Vihar, New Delhi", "photos": [{"photo_reference": "ATtYBwLBjsud8yGgG8w6I8sBXI43Aqbylx4QIU41nbIO4f1tFIAxgbMENb1ec-Tx8s7FDQHKxmpMNcAJWZEEvkSnKIDF0bB2oRpcHRznZF2nqOO9Az3G4Ca71gD9BykIauV790gVT4qDbFtE5Su4GukV0Khtd70d64yANmq2eDbZ9D6uce2T", "width": 4160, "html_attributions": ["<a href=\"https://maps.google.com/maps/contrib/107771398744002329146\">Shyen Solution (Tax Consultant and Financial Advisior)</a>"], "height": 3120}], "scope": "GOOGLE", "business_status": "OPERATIONAL", "types": ["accounting", "finance", "local_government_office", "point_of_interest", "establishment"], "icon": "https://maps.gstatic.com/mapfiles/place_api/icons/v1/png_71/generic_business-71.png"}, {"rating": 4.3, "user_ratings_total": 28, "name": "Qatar Visa Center", "reference": "ChIJVz6SVAHjDDkRfjqvhAUzvXo", "geometry": {"location": {"lat": 28.61778889999999, "lng": 77.2795093}, "viewport": {"northeast": {"lat": 28.6189386802915, "lng": 77.2809730302915}, "southwest": {"lat": 28.6162407197085, "lng": 77.2782750697085}}}, "opening_hours": {"open_now": false}, "place_id": "ChIJVz6SVAHjDDkRfjqvhAUzvXo", "plus_code": {"global_code": "7JWVJ79H+4R", "compound_code": "J79H+4R New Delhi, Delhi, India"}, "vicinity": "Unit no 2, Lower ground floor, Parsvnath Mall Akshardham Metro Station, Pandav Nagar, New Delhi", "photos": [{"photo_reference": "ATtYBwLv6Voh89iVba6wHq5_G0FUHtLiEop7xdnh-3Cm-TL8HZHN87QZmR-H0yb5y-pxOc0smqJoLJ-tZ5kkzntmCqaV6qs_9W2EEPlftUPVteOucr3WEdg13vV1FxQVgAoTQXwhPblDeYTAWwyXea7V2ym9aJiwLWqwdfbCC-vtSjUPjoC2", "width": 1080, "html_attributions": ["<a href=\"https://maps.google.com/maps/contrib/111674026337012114621\">Qatar Visa Center</a>"], "height": 607}], "scope": "GOOGLE", "business_status": "OPERATIONAL", "types": ["travel_agency", "local_government_office", "point_of_interest", "establishment"], "icon": "https://maps.gstatic.com/mapfiles/place_api/icons/v1/png_71/civic_building-71.png"}, {"rating": 4, "user_ratings_total": 1, "name": "Jha Advocates & Legal Consultants", "reference": "ChIJA9PwqBzjDDkRJaMxCF0tYEE", "geometry": {"location": {"lat": 28.6186165, "lng": 77.2813008}, "viewport": {"northeast": {"lat": 28.6199515802915, "lng": 77.2826296802915}, "southwest": {"lat": 28.6172536197085, "lng": 77.27993171970849}}}, "opening_hours": {"open_now": false}, "place_id": "ChIJA9PwqBzjDDkRJaMxCF0tYEE", "plus_code": {"global_code": "7JWVJ79J+CG", "compound_code": "J79J+CG New Delhi, Delhi, India"}, "vicinity": "S-215, Block-S,Near Akshardham Metro, Patparganj Road, New Delhi", "photos": [{"photo_reference": "ATtYBwLBZgwSZLzvr1juWsTpHoQsCXr7hDtZMHlCMnc2p0cGAOiEs-Tj-F_dfueBpjbiriQb_993cj3lzQu_X5ngf1bxSoZxx-CSYQGLwd9SIsLQUFB8W0-agy-sEsC2QP6t0r5-JePCA18Z4M__ox6w7aLD9GydVvJ26ld-eJl0kqTh0ZRq", "width": 1017, "html_attributions": ["<a href=\"https://maps.google.com/maps/contrib/106732716942577690902\">Jha Advocates &amp; Legal Consultants</a>"], "height": 571}], "scope": "GOOGLE", "business_status": "OPERATIONAL", "types": ["local_government_office", "point_of_interest", "establishment"], "icon": "https://maps.gstatic.com/mapfiles/place_api/icons/v1/png_71/civic_building-71.png"}, {"permanently_closed": true, "name": "ruturaj sawantdesai", "reference": "ChIJy9H0_6fkDDkRIcqavjxnM-U", "geometry": {"location": {"lat": 28.6183834, "lng": 77.2865016}, "viewport": {"northeast": {"lat": 28.6197712802915, "lng": 77.2879231302915}, "southwest": {"lat": 28.6170733197085, "lng": 77.2852251697085}}}, "place_id": "ChIJy9H0_6fkDDkRIcqavjxnM-U", "plus_code": {"global_code": "7JWVJ79P+9J", "compound_code": "J79P+9J New Delhi, Delhi, India"}, "vicinity": "6P, Patparganj Road, Block D, Pandav Nagar, New Delhi", "scope": "GOOGLE", "business_status": "CLOSED_TEMPORARILY", "types": ["local_government_office", "point_of_interest", "establishment"], "icon": "https://maps.gstatic.com/mapfiles/place_api/icons/v1/png_71/civic_building-71.png"}, {"rating": 1.9, "user_ratings_total": 49, "name": "passport seva kendra parparganj", "reference": "ChIJvRu3qabkDDkRZlZty9BTWB4", "geometry": {"location": {"lat": 28.6137711, "lng": 77.29212849999999}, "viewport": {"northeast": {"lat": 28.6151571802915, "lng": 77.2935485302915}, "southwest": {"lat": 28.61245921970849, "lng": 77.2908505697085}}}, "place_id": "ChIJvRu3qabkDDkRZlZty9BTWB4", "plus_code": {"global_code": "7JWVJ77R+GV", "compound_code": "J77R+GV New Delhi, Delhi, India"}, "vicinity": "Patparganj Road, New Delhi", "photos": [{"photo_reference": "ATtYBwIY5wu7GzIEGT0Wvuk-ujRjfhLHgZcAQZO0es3UMPnguRpnZpFuhdfJjL5HHNVlLlHvDryVenMZnBEHcsGa6N5OHNTk3Pjaz6Zf0sAeN6ntC9HjSE3m5JsUiAqhP0lSH4JVD2Di8_hu-xuw7eFFrS_21vvqHdEP6L55eH2mVdLnIZFX", "width": 4032, "html_attributions": ["<a href=\"https://maps.google.com/maps/contrib/118346861969298053375\">Rahul Ranjan</a>"], "height": 3024}], "scope": "GOOGLE", "business_status": "OPERATIONAL", "types": ["local_government_office", "point_of_interest", "establishment"], "icon": "https://maps.gstatic.com/mapfiles/place_api/icons/v1/png_71/civic_building-71.png"}, {"rating": 5, "user_ratings_total": 23, "name": "Directorate of Anupam Group India, New Delhi", "reference": "ChIJnylcWyDjDDkRbVViynh4s18", "geometry": {"location": {"lat": 28.6221405, "lng": 77.2823646}, "viewport": {"northeast": {"lat": 28.6235217802915, "lng": 77.28376223029152}, "southwest": {"lat": 28.6208238197085, "lng": 77.28106426970851}}}, "opening_hours": {"open_now": false}, "place_id": "ChIJnylcWyDjDDkRbVViynh4s18", "plus_code": {"global_code": "7JWVJ7CJ+VW", "compound_code": "J7CJ+VW New Delhi, Delhi, India"}, "vicinity": "Directorate of Anupam Group India C53, G/F, Ganesh Nagar Pandav Nagar Complex, New Delhi", "photos": [{"photo_reference": "ATtYBwIPXosmeSXDAE93Jhjmtkhg6e3-rLAMpbZJ2OWqLhXw3sEJ64yqQBAA4KkkdAY6-amZ87kS1TLLxF5Xsst5CZrv1yXzAe97J25csowdOXeMpR5HTDQ6l3Klf0eLnS-SzY7JiwOmqGKWfiIE_8e-OXaOWGCxODXWdjeU4dBzXNK-jIbS", "width": 1080, "html_attributions": ["<a href=\"https://maps.google.com/maps/contrib/110663564377304845106\">Directorate of Anupam Group India, New Delhi</a>"], "height": 608}], "scope": "GOOGLE", "business_status": "OPERATIONAL", "types": ["local_government_office", "point_of_interest", "establishment"], "icon": "https://maps.gstatic.com/mapfiles/place_api/icons/v1/png_71/generic_business-71.png"}, {"rating": 5, "user_ratings_total": 14, "name": "Anupam Pharmaceutical Private Limited", "reference": "ChIJnfSg89PjDDkRYohiOjHWcME", "geometry": {"location": {"lat": 28.6221871, "lng": 77.2824117}, "viewport": {"northeast": {"lat": 28.6235667802915, "lng": 77.2837402802915}, "southwest": {"lat": 28.6208688197085, "lng": 77.28104231970849}}}, "opening_hours": {"open_now": false}, "place_id": "ChIJnfSg89PjDDkRYohiOjHWcME", "plus_code": {"global_code": "7JWVJ7CJ+VX", "compound_code": "J7CJ+VX Delhi, India"}, "vicinity": "Block C/53, Ground Floor, Ganesh Nagar Delhi Convent School Road Pandav Nagar Complex", "photos": [{"photo_reference": "ATtYBwKkKhpoLIm7mR7238F_6XrKVZZEFhUVcfWhgyiJRWztIQTyoZnuiLvSqBtgMzmnR-swAvv8OEE3JD8IWRTfAP1CjMIanmBxNmhIsk6n2vrOkFj5b33B3h4ZnBlTVaiY4LuntZZ4Ct7HZ6H52cd4lwE_Cvg6Va568wju8k3C7PhU9E6u", "width": 1440, "html_attributions": ["<a href=\"https://maps.google.com/maps/contrib/118369522003320610790\">Anupam Pharmaceutical Private Limited</a>"], "height": 809}], "scope": "GOOGLE", "business_status": "OPERATIONAL", "types": ["local_government_office", "health", "point_of_interest", "establishment"], "icon": "https://maps.gstatic.com/mapfiles/place_api/icons/v1/png_71/generic_business-71.png"}, {"name": "Job Search India", "reference": "ChIJnQAslpjkDDkRe4V5ArY-TTI", "geometry": {"location": {"lat": 28.606763, "lng": 77.293692}, "viewport": {"northeast": {"lat": 28.6081472802915, "lng": 77.2950568302915}, "southwest": {"lat": 28.6054493197085, "lng": 77.2923588697085}}}, "opening_hours": {"open_now": false}, "place_id": "ChIJnQAslpjkDDkRe4V5ArY-TTI", "plus_code": {"global_code": "7JWVJ74V+PF", "compound_code": "J74V+PF Delhi, India"}, "vicinity": "Shop No. 2, Near Sai baba Mandir Near Samachar Appartment Mayur Vihar,, Phase 1 Extention, Delhi", "scope": "GOOGLE", "business_status": "OPERATIONAL", "types": ["local_government_office", "point_of_interest", "establishment"], "icon": "https://maps.gstatic.com/mapfiles/place_api/icons/v1/png_71/civic_building-71.png"}, {"rating": 5, "user_ratings_total": 1, "permanently_closed": true, "name": "My Startup Doctor", "reference": "ChIJdT53PO_lDDkRPRAN5dsztRE", "geometry": {"location": {"lat": 28.606593, "lng": 77.29367599999999}, "viewport": {"northeast": {"lat": 28.6079268802915, "lng": 77.2950538302915}, "southwest": {"lat": 28.6052289197085, "lng": 77.29235586970849}}}, "place_id": "ChIJdT53PO_lDDkRPRAN5dsztRE", "vicinity": "Office No 5, 2nd Floor, P37/38, Gomti Complex, Mayur Vihar, New Delhi", "photos": [{"photo_reference": "ATtYBwIcbP8SGi-zYcBWim54ez1tFY4OYQuGn5uPVVxKJCXvoZDnx99NdTy0_T15NATtqHqKEBHi-UNoZZe4p6wvnDAS5dupZJBAkgvBBz1qJAjvX3k-esMm2lf2WuPWSExqcWyGrEnawTfWMV1nGoayIKI2oTnxMymNskoV0Pc2zrz6YmcR", "width": 1200, "html_attributions": ["<a href=\"https://maps.google.com/maps/contrib/102910443004939972300\">My Startup Doctor</a>"], "height": 672}], "scope": "GOOGLE", "business_status": "CLOSED_TEMPORARILY", "types": ["accounting", "finance", "local_government_office", "point_of_interest", "establishment"], "icon": "https://maps.gstatic.com/mapfiles/place_api/icons/v1/png_71/generic_business-71.png"}, {"rating": 4, "user_ratings_total": 1, "name": "PRO BUSINESS SOLUTIONS", "reference": "ChIJLUKN5UnlDDkRYyY7L5bWGgQ", "geometry": {"location": {"lat": 28.6066752, "lng": 77.2938096}, "viewport": {"northeast": {"lat": 28.6080241802915, "lng": 77.2951585802915}, "southwest": {"lat": 28.6053262197085, "lng": 77.29246061970849}}}, "opening_hours": {"open_now": false}, "place_id": "ChIJLUKN5UnlDDkRYyY7L5bWGgQ", "plus_code": {"global_code": "7JWVJ74V+MG", "compound_code": "J74V+MG Delhi, India"}, "vicinity": "F -96, Mayur Vihar, Delhi", "scope": "GOOGLE", "business_status": "OPERATIONAL", "types": ["local_government_office", "point_of_interest", "establishment"], "icon": "https://maps.gstatic.com/mapfiles/place_api/icons/v1/png_71/civic_building-71.png"}, {"rating": 4.9, "user_ratings_total": 74, "name": "My Tax Adviser", "reference": "ChIJI_4Zw_XlDDkRKSOPnu6ZCdU", "geometry": {"location": {"lat": 28.6078202, "lng": 77.2941231}, "viewport": {"northeast": {"lat": 28.6091741302915, "lng": 77.29546458029151}, "southwest": {"lat": 28.6064761697085, "lng": 77.2927666197085}}}, "opening_hours": {"open_now": false}, "place_id": "ChIJI_4Zw_XlDDkRKSOPnu6ZCdU", "plus_code": {"global_code": "7JWVJ75V+4J", "compound_code": "J75V+4J New Delhi, Delhi, India"}, "vicinity": "A-11, 3rd Floor, Acharya Niketan, Mayur Vihar, New Delhi", "photos": [{"photo_reference": "ATtYBwI-FuBIU0jeT8Es4FmqIraUU7dVHSRKyOFtyZHv9zo9Gjs0DgXTX_MPwB3Ddf6fq2slFfbMjnN1Fi88WoN6Pszcdkey0kA9vShhHyLmCWPB7WFTRPIzUN6PwBpvShtQe2MN105FlCj7AC7wX868MyLPbLFvHmNRqjo9FQ-DIwEEamnu", "width": 4096, "html_attributions": ["<a href=\"https://maps.google.com/maps/contrib/110777149573194583444\">My Tax Adviser</a>"], "height": 3072}], "scope": "GOOGLE", "business_status": "OPERATIONAL", "types": ["lawyer", "accounting", "finance", "local_government_office", "point_of_interest", "establishment"], "icon": "https://maps.gstatic.com/mapfiles/place_api/icons/v1/png_71/generic_business-71.png"}, {"name": "Balwant Rai Mehta Panchayat Bhavan", "reference": "ChIJh6zkL5_kDDkREQz8Rnuogzo", "geometry": {"location": {"lat": 28.6055196, "lng": 77.2916946}, "viewport": {"northeast": {"lat": 28.6067781302915, "lng": 77.29287773029151}, "southwest": {"lat": 28.6040801697085, "lng": 77.29017976970849}}}, "place_id": "ChIJh6zkL5_kDDkREQz8Rnuogzo", "vicinity": "Pratap Nagar", "scope": "GOOGLE", "types": ["premise", "local_government_office", "establishment"], "icon": "https://maps.gstatic.com/mapfiles/place_api/icons/v1/png_71/civic_building-71.png"}]}