{"status": "OK", "html_attributions": [], "results": [{"rating": 4.3, "user_ratings_total": 3, "name": "Visaoffice.in", "reference": "ChIJSQwB2JLlDDkRa4ihs-ourtQ", "geometry": {"location": {"lat": 28.5818463, "lng": 77.318336}, "viewport": {"northeast": {"lat": 28.5832005802915, "lng": 77.31967993029151}, "southwest": {"lat": 28.58050261970849, "lng": 77.3169819697085}}}, "opening_hours": {"open_now": false}, "place_id": "ChIJSQwB2JLlDDkRa4ihs-ourtQ", "plus_code": {"global_code": "7JWVH8J9+P8", "compound_code": "H8J9+P8 Noida, Uttar Pradesh, India"}, "vicinity": "near Achcha Khao Achha Khila0, D22,Ground Floor Sec-3,Noida, near Achcha Khao Achha Khila0, Noida", "photos": [{"photo_reference": "ATtYBwL_35x721wfPS5_w2e0UbJzoYt6hdwxF3uTtfCM_11U8ARPmV-f2sC_RuclrI0C6MNBrTx_kHLxmXV1yfNCxOuhsqkMoQZ1IxCmTn61GKTXuNIk94iKfUXcuz0yIsuEkKyOue3FVj_-PaxggNNPU1pkSpyYSdhlO6bny31R-ejFEW_6", "width": 620, "html_attributions": ["<a href=\"https://maps.google.com/maps/contrib/109600181562517887534\">Visaoffice.in</a>"], "height": 264}], "scope": "GOOGLE", "business_status": "OPERATIONAL", "types": ["local_government_office", "point_of_interest", "establishment"], "icon": "https://maps.gstatic.com/mapfiles/place_api/icons/v1/png_71/civic_building-71.png"}, {"rating": 3.8, "user_ratings_total": 19, "name": "Byjus The Learning App", "reference": "ChIJuzBw27DlDDkRLOWKCnqMEe4", "geometry": {"location": {"lat": 28.5818635, "lng": 77.3168498}, "viewport": {"northeast": {"lat": 28.5832987802915, "lng": 77.3181108802915}, "southwest": {"lat": 28.5806008197085, "lng": 77.31541291970849}}}, "place_id": "ChIJuzBw27DlDDkRLOWKCnqMEe4", "plus_code": {"global_code": "7JWVH8J8+PP", "compound_code": "H8J8+PP Noida, Uttar Pradesh, India"}, "vicinity": "Block D, Sector 3, Noida", "photos": [{"photo_reference": "ATtYBwJ-LWNbgglI9Bc8lrpv7BfVjQqTjKQkYn_mRXGxWyu2RajyhbKza9Ba0_Cxiigs0xrRIUnQZFdkYo_LnKbiQz03nvmeaVu3pm36LSjsUW--RaWJZCK66gjD-nkLgiEt6JUocJt7OL501tvcM8W50cfNY1ZruCzi_LcnRsRJOS9LlC-V", "width": 4032, "html_attributions": ["<a href=\"https://maps.google.com/maps/contrib/106200791626886297454\">Manish pandey</a>"], "height": 3024}], "scope": "GOOGLE", "business_status": "OPERATIONAL", "types": ["local_government_office", "point_of_interest", "establishment"], "icon": "https://maps.gstatic.com/mapfiles/place_api/icons/v1/png_71/civic_building-71.png"}, {"rating": 5, "user_ratings_total": 1, "name": "Chels Telecom", "reference": "ChIJFfbho17kDDkRLsXxx4ALabA", "geometry": {"location": {"lat": 28.581288, "lng": 77.314067}, "viewport": {"northeast": {"lat": 28.5827299802915, "lng": 77.31553723029151}, "southwest": {"lat": 28.5800320197085, "lng": 77.31283926970849}}}, "opening_hours": {"open_now": true}, "place_id": "ChIJFfbho17kDDkRLsXxx4ALabA", "plus_code": {"global_code": "7JWVH8J7+GJ", "compound_code": "H8J7+GJ Noida, Uttar Pradesh, India"}, "vicinity": "Bhagmal Complex, Captain Vijyant Thapar Marg, Sector 15, Noida", "scope": "GOOGLE", "business_status": "OPERATIONAL", "types": ["local_government_office", "point_of_interest", "store", "establishment"], "icon": "https://maps.gstatic.com/mapfiles/place_api/icons/v1/png_71/shopping-71.png"}]}