{"status": "OK", "next_page_token": "ATtYBwIC7s7ghe2AoEpVGQGlKfC7qXBbazd_xVIMmMNi3etf0YcZLr9hWsj1kFUMsj-i89XSTFenqAAKqpeRyYYX5JT_m5POZ6R5BWdBKRHHLt1iSy-AHgGV7sma0KoOzqhRDGU6rPWQjxa56V1uI9ohCTOIlCNFQJFnJ0Zm9Ux_Yf-MbcV-uLBQdwAKR4UeMHvAsEcA7jYG2NbdS4J31iba6X5-VY03mPUTucxJ-TYyLaqcODCuIV0baLDJ010ah5Ws0PQCaqygU2N-BlvvFNVBwVPzEL__NYRtKJfrPyR-dydhAwMteOrI-jxUma539l3rrnJx5iVPKElfX8mAgUYG0jYGPhNr5BymASbT-cB4ZwVLf7ezXJ1fZEHaBBKDDrYz_aGCLjS_ojegf1DY2ajd0Rg-_WTP4tvV0UOYukpa2Xnv3tpqOBYKbxmq_uK3i0ek6_OYaO9kzA", "html_attributions": [], "results": [{"rating": 1.2, "user_ratings_total": 11, "name": "Right time placement (\"No Charges From Candidates, Free Placement for Candidates. We Don`t Charge from Job Seekers.\")", "reference": "ChIJtW84zan7DDkRgKZBZvI9ubY", "geometry": {"location": {"lat": 28.68549710000001, "lng": 77.327257}, "viewport": {"northeast": {"lat": 28.6868349802915, "lng": 77.3286138802915}, "southwest": {"lat": 28.6841370197085, "lng": 77.32591591970848}}}, "opening_hours": {"open_now": false}, "place_id": "ChIJtW84zan7DDkRgKZBZvI9ubY", "plus_code": {"global_code": "7JWVM8PG+5W", "compound_code": "M8PG+5W Delhi, India"}, "vicinity": "G-138, Dilshad Colony, Delhi", "scope": "GOOGLE", "business_status": "OPERATIONAL", "types": ["local_government_office", "point_of_interest", "establishment"], "icon": "https://maps.gstatic.com/mapfiles/place_api/icons/v1/png_71/civic_building-71.png"}, {"rating": 3, "user_ratings_total": 45, "name": "Transport Department, Govt.of NCT Delhi", "reference": "ChIJ_8VqYKv7DDkRxd-161YK-k0", "geometry": {"location": {"lat": 28.685672, "lng": 77.330924}, "viewport": {"northeast": {"lat": 28.6870480302915, "lng": 77.33238328029151}, "southwest": {"lat": 28.68435006970851, "lng": 77.32968531970849}}}, "place_id": "ChIJ_8VqYKv7DDkRxd-161YK-k0", "plus_code": {"global_code": "7JWVM8PJ+79", "compound_code": "M8PJ+79 Delhi, India"}, "vicinity": "DTC Bus Depot, Dilshad Colony, Dilshad Garden, Delhi", "scope": "GOOGLE", "business_status": "OPERATIONAL", "types": ["local_government_office", "point_of_interest", "establishment"], "icon": "https://maps.gstatic.com/mapfiles/place_api/icons/v1/png_71/civic_building-71.png"}, {"rating": 5, "user_ratings_total": 10, "name": "Trademark Registration Mishra & associates", "reference": "ChIJK_YxByX7DDkRSzVBG7EJvCY", "geometry": {"location": {"lat": 28.68808500000001, "lng": 77.321488}, "viewport": {"northeast": {"lat": 28.6895156802915, "lng": 77.32273893029151}, "southwest": {"lat": 28.6868177197085, "lng": 77.3200409697085}}}, "opening_hours": {"open_now": true}, "place_id": "ChIJK_YxByX7DDkRSzVBG7EJvCY", "plus_code": {"global_code": "7JWVM8QC+6H", "compound_code": "M8QC+6H Dilshad Garden, New Delhi, Delhi, India"}, "vicinity": "206 Agarwal chamber O and P pocket, Dilshad Garden", "photos": [{"photo_reference": "ATtYBwIVXYZuKvm0X50kHsSI8jSuWp3hXUATykhLezoEqK6Okp9B7etD6wn-EdBKQv7wfUaEA6dyqagHHbUUvmco5xDeMcYSxknDJEtC_9OrhtUCNXlCy2QO9E8G_9PgXYXLvfU85eVaQPRyzjSvxJff_p3rYOwkjUowlDeL7QkjLaG9YvP8", "width": 2000, "html_attributions": ["<a href=\"https://maps.google.com/maps/contrib/105407529275634520982\">Fillingpool</a>"], "height": 4000}], "scope": "GOOGLE", "business_status": "OPERATIONAL", "types": ["lawyer", "accounting", "finance", "local_government_office", "point_of_interest", "establishment"], "icon": "https://maps.gstatic.com/mapfiles/place_api/icons/v1/png_71/generic_business-71.png"}, {"rating": 4.8, "user_ratings_total": 17, "name": "MSME Registration Online", "reference": "ChIJ__9PPK_7DDkRTpuZbtV1JoA", "geometry": {"location": {"lat": 28.6862128, "lng": 77.322885}, "viewport": {"northeast": {"lat": 28.6875144302915, "lng": 77.3241404802915}, "southwest": {"lat": 28.6848164697085, "lng": 77.32144251970848}}}, "opening_hours": {"open_now": true}, "place_id": "ChIJ__9PPK_7DDkRTpuZbtV1JoA", "plus_code": {"global_code": "7JWVM8PF+F5", "compound_code": "M8PF+F5 Delhi, India"}, "vicinity": "206 Aggrawal Chamber, Dilshad Garden, Delhi", "photos": [{"photo_reference": "ATtYBwKxfPAEGgNoJST-gopj_mrFyepEWlOm8ZmelGFBgnAeWsfAtDl7cc6sr2WvR41v17O9kmwpNaKlfz7PPBjxfoAfSWq6iNUg6P4rZe1Ob6HPEo3mi3sDxyIYaEWK3X_Qt31YPLGM9p53sVjaj3AE-PCQHTBsEvuJT4NekJyzldVmcWMu", "width": 2848, "html_attributions": ["<a href=\"https://maps.google.com/maps/contrib/105362101656166459271\">MSME Registration Online</a>"], "height": 1824}], "scope": "GOOGLE", "business_status": "OPERATIONAL", "types": ["accounting", "finance", "local_government_office", "point_of_interest", "establishment"], "icon": "https://maps.gstatic.com/mapfiles/place_api/icons/v1/png_71/generic_business-71.png"}, {"rating": 3, "user_ratings_total": 4, "name": "Sunder Nagari District Court", "reference": "ChIJtV7HSrr7DDkRcqBldVHDkro", "geometry": {"location": {"lat": 28.6944978, "lng": 77.31814659999999}, "viewport": {"northeast": {"lat": 28.6958448802915, "lng": 77.3196061302915}, "southwest": {"lat": 28.6931469197085, "lng": 77.3169081697085}}}, "place_id": "ChIJtV7HSrr7DDkRcqBldVHDkro", "plus_code": {"global_code": "7JWVM8V9+Q7", "compound_code": "M8V9+Q7 Delhi, India"}, "vicinity": "G3/36, Sunder Nagri, Dilshad Garden, Delhi", "scope": "GOOGLE", "business_status": "OPERATIONAL", "types": ["courthouse", "local_government_office", "point_of_interest", "establishment"], "icon": "https://maps.gstatic.com/mapfiles/place_api/icons/v1/png_71/civic_building-71.png"}, {"rating": 3, "user_ratings_total": 2, "name": "Office of the Executive Magistrate/Tehsildar Karawal Nagar", "reference": "ChIJe3JDvrv7DDkRerddniSOroU", "geometry": {"location": {"lat": 28.6942072, "lng": 77.3167737}, "viewport": {"northeast": {"lat": 28.6955823302915, "lng": 77.31813123029151}, "southwest": {"lat": 28.6928843697085, "lng": 77.3154332697085}}}, "opening_hours": {"open_now": false}, "place_id": "ChIJe3JDvrv7DDkRerddniSOroU", "plus_code": {"global_code": "7JWVM8V8+MP", "compound_code": "M8V8+MP Delhi, India"}, "vicinity": "near Gagan Cinema, J-Block, 2nd Floor, DC Office Complex, near Gagan Cinema, Nand Nagri, Mandoli, Delhi", "photos": [{"photo_reference": "ATtYBwKBPEn52RMKVLS7BwNT_Fz2K_f3UCGVHEsB7mMGkDQGXj2KRm5FY8uD2NJKu3ktvAvjLnvALhdb372atQ51qI81TQbmwJCDYsHLQ89WAnCRDzOWy4tDnX_skRzsdxL_YDcxwT6L0nnjZhS8k5c9ySXOE78VN_D07rwbJQXuEkxnBao0", "width": 4160, "html_attributions": ["<a href=\"https://maps.google.com/maps/contrib/117627525223176727873\">taiyab husain</a>"], "height": 3120}], "scope": "GOOGLE", "business_status": "OPERATIONAL", "types": ["local_government_office", "point_of_interest", "establishment"], "icon": "https://maps.gstatic.com/mapfiles/place_api/icons/v1/png_71/civic_building-71.png"}, {"rating": 4.4, "user_ratings_total": 5, "name": "Consumer Forum North East District Nand Nagari", "reference": "ChIJI-L77Lv7DDkR-uUemqgFnqk", "geometry": {"location": {"lat": 28.694557, "lng": 77.3161339}, "viewport": {"northeast": {"lat": 28.6958810302915, "lng": 77.3174770302915}, "southwest": {"lat": 28.6931830697085, "lng": 77.3147790697085}}}, "opening_hours": {"open_now": false}, "place_id": "ChIJI-L77Lv7DDkR-uUemqgFnqk", "plus_code": {"global_code": "7JWVM8V8+RF", "compound_code": "M8V8+RF Delhi, India"}, "vicinity": "E1/374, E1/374, Dilshad Garden, Delhi", "photos": [{"photo_reference": "ATtYBwKU8xY71PPxn1X7HuqhNX0B0RjtMiO3QsOtWsI89KnbywzqYruEKG20UMKU4wHpJNONTqZNfYVwvIHDqiydXBkTmMsLrer-OL3DH8I15kyEiWb-ItXzMSIE3MQ8Be7DbUmIMeEZzFtXAEfImQ3sPx_lQmGyaI0G1w3Mm53cmeTDdm4n", "width": 4128, "html_attributions": ["<a href=\"https://maps.google.com/maps/contrib/104344156742336571444\">Nafees Ahmed Saifi</a>"], "height": 2322}], "scope": "GOOGLE", "business_status": "OPERATIONAL", "types": ["courthouse", "local_government_office", "point_of_interest", "establishment"], "icon": "https://maps.gstatic.com/mapfiles/place_api/icons/v1/png_71/civic_building-71.png"}, {"rating": 2.5, "user_ratings_total": 2, "name": "Police Station G.T.B Enclave", "reference": "ChIJbXBsEqT7DDkR9gZ-jtke5Wo", "geometry": {"location": {"lat": 28.68558309999999, "lng": 77.3157174}, "viewport": {"northeast": {"lat": 28.68702558029149, "lng": 77.3169902802915}, "southwest": {"lat": 28.68432761970849, "lng": 77.31429231970849}}}, "opening_hours": {"open_now": true}, "place_id": "ChIJbXBsEqT7DDkR9gZ-jtke5Wo", "plus_code": {"global_code": "7JWVM8P8+67", "compound_code": "M8P8+67 Delhi, India"}, "vicinity": "Taharpur Village, Dilshad Garden, Delhi", "photos": [{"photo_reference": "ATtYBwJF5mIawImuLADDMmAasYQn6MJ7LKHkrbcchxXx0CMUMUKzUhWreR8kL-_g-YpYhcxe2jWenhU1GVJrwgAAUyDpqnTCQyd5gHQ_FwmhHwi3_y8tov47f90z2GL1ptteel4qvUrQbUWU_CQIY-3knRljryxAnmKzVcl42UXCrekvS5D_", "width": 4160, "html_attributions": ["<a href=\"https://maps.google.com/maps/contrib/110048912495684921561\">Harish Pal</a>"], "height": 3120}], "scope": "GOOGLE", "business_status": "OPERATIONAL", "types": ["police", "local_government_office", "point_of_interest", "establishment"], "icon": "https://maps.gstatic.com/mapfiles/place_api/icons/v1/png_71/police-71.png"}, {"name": "Aryan Motors", "reference": "ChIJ_3Cn1KL7DDkRySwVlTnr1VI", "geometry": {"location": {"lat": 28.689646, "lng": 77.311984}, "viewport": {"northeast": {"lat": 28.6910233302915, "lng": 77.3133796802915}, "southwest": {"lat": 28.6883253697085, "lng": 77.3106817197085}}}, "opening_hours": {"open_now": false}, "place_id": "ChIJ_3Cn1KL7DDkRySwVlTnr1VI", "plus_code": {"global_code": "7JWVM8Q6+VQ", "compound_code": "M8Q6+VQ Delhi, India"}, "vicinity": "1284, near Delhi Jal Board, GTB Enclave, Dilshad Garden, Delhi", "scope": "GOOGLE", "business_status": "OPERATIONAL", "types": ["local_government_office", "point_of_interest", "establishment"], "icon": "https://maps.gstatic.com/mapfiles/place_api/icons/v1/png_71/civic_building-71.png"}, {"permanently_closed": true, "name": "Sangita Marriage Bureau", "reference": "ChIJCzacUan7DDkRGK36FfuZ3tY", "geometry": {"location": {"lat": 28.68489199999999, "lng": 77.326148}, "viewport": {"northeast": {"lat": 28.6862414802915, "lng": 77.3274966802915}, "southwest": {"lat": 28.6835435197085, "lng": 77.3247987197085}}}, "place_id": "ChIJCzacUan7DDkRGK36FfuZ3tY", "plus_code": {"global_code": "7JWVM8MG+XF", "compound_code": "M8MG+XF Delhi, India"}, "vicinity": "C-2/T-3, Block C, New Simapuri, Dilshad Garden, Delhi", "scope": "GOOGLE", "business_status": "CLOSED_TEMPORARILY", "types": ["local_government_office", "point_of_interest", "establishment"], "icon": "https://maps.gstatic.com/mapfiles/place_api/icons/v1/png_71/civic_building-71.png"}, {"name": "Tarun Kumar Advocate", "reference": "ChIJ4YwUPwn7DDkRzaH2Xfx93kI", "geometry": {"location": {"lat": 28.6822515, "lng": 77.3228252}, "viewport": {"northeast": {"lat": 28.6835266802915, "lng": 77.32422638029149}, "southwest": {"lat": 28.6808287197085, "lng": 77.32152841970849}}}, "opening_hours": {"open_now": false}, "place_id": "ChIJ4YwUPwn7DDkRzaH2Xfx93kI", "plus_code": {"global_code": "7JWVM8JF+W4", "compound_code": "M8JF+W4 Delhi, India"}, "vicinity": "L Pocket, Dilshad Garden, Delhi", "scope": "GOOGLE", "business_status": "OPERATIONAL", "types": ["finance", "local_government_office", "point_of_interest", "establishment"], "icon": "https://maps.gstatic.com/mapfiles/place_api/icons/v1/png_71/civic_building-71.png"}, {"name": "GST", "reference": "ChIJ_8sk47b7DDkRz6cSqFvuZMU", "geometry": {"location": {"lat": 28.6974374, "lng": 77.31562919999999}, "viewport": {"northeast": {"lat": 28.69878193029151, "lng": 77.3170009302915}, "southwest": {"lat": 28.69608396970851, "lng": 77.31430296970849}}}, "place_id": "ChIJ_8sk47b7DDkRz6cSqFvuZMU", "plus_code": {"global_code": "7JWVM8W8+X7", "compound_code": "M8W8+X7 Delhi, India"}, "vicinity": "Delhi", "scope": "GOOGLE", "business_status": "OPERATIONAL", "types": ["accounting", "finance", "local_government_office", "point_of_interest", "establishment"], "icon": "https://maps.gstatic.com/mapfiles/place_api/icons/v1/png_71/civic_building-71.png"}, {"name": "DRUG LICENCE CONSULTANT", "reference": "ChIJOwVyAr77DDkRDIMrThpfxno", "geometry": {"location": {"lat": 28.6974374, "lng": 77.31562919999999}, "viewport": {"northeast": {"lat": 28.69878193029151, "lng": 77.3170009302915}, "southwest": {"lat": 28.69608396970851, "lng": 77.31430296970849}}}, "place_id": "ChIJOwVyAr77DDkRDIMrThpfxno", "plus_code": {"global_code": "7JWVM8W8+X7", "compound_code": "M8W8+X7 Delhi, India"}, "vicinity": "A-69 SUSHILA GARDEN", "scope": "GOOGLE", "business_status": "OPERATIONAL", "types": ["local_government_office", "point_of_interest", "establishment"], "icon": "https://maps.gstatic.com/mapfiles/place_api/icons/v1/png_71/civic_building-71.png"}, {"name": "S K Photostate", "reference": "ChIJYe0Myqf7DDkR7OfGwIwIhtw", "geometry": {"location": {"lat": 28.681543, "lng": 77.319548}, "viewport": {"northeast": {"lat": 28.6828572802915, "lng": 77.32092063029151}, "southwest": {"lat": 28.6801593197085, "lng": 77.3182226697085}}}, "opening_hours": {"open_now": true}, "place_id": "ChIJYe0Myqf7DDkR7OfGwIwIhtw", "plus_code": {"global_code": "7JWVM8J9+JR", "compound_code": "M8J9+JR Delhi, India"}, "vicinity": "H-40 -A, Pocket H, Dilshad Garden, Delhi", "photos": [{"photo_reference": "ATtYBwL8YwT29yioMXHGcEpWPxwkqSd8QLQOBmkkNB7onXd90Tc5NCKZaEjORa7GMae5sbIZMp_6WF_C45es-gg3YlZ0I6e1SaBbL4so_5IBcUHZClNgezguE9QxUh1b5nHk9273AGvu4mEa8WgQWkpr2N32DPphwkJ_i6BUxCWUiCY6Jeoj", "width": 2048, "html_attributions": ["<a href=\"https://maps.google.com/maps/contrib/112627655746052090679\">S K Photostate</a>"], "height": 1152}], "scope": "GOOGLE", "business_status": "OPERATIONAL", "types": ["local_government_office", "point_of_interest", "establishment"], "icon": "https://maps.gstatic.com/mapfiles/place_api/icons/v1/png_71/civic_building-71.png"}, {"rating": 4.2, "user_ratings_total": 5, "name": "AMIY JOB PLACEMENT & CONSULTANTS", "reference": "ChIJVVVV0bz7DDkRRrXB_Rr9Aus", "geometry": {"location": {"lat": 28.6896758, "lng": 77.30959949999999}, "viewport": {"northeast": {"lat": 28.6910253302915, "lng": 77.3109505302915}, "southwest": {"lat": 28.6883273697085, "lng": 77.3082525697085}}}, "opening_hours": {"open_now": false}, "place_id": "ChIJVVVV0bz7DDkRRrXB_Rr9Aus", "plus_code": {"global_code": "7JWVM8Q5+VR", "compound_code": "M8Q5+VR Delhi, India"}, "vicinity": "223, 1st Floor,D.D.A Janta Flats, GTB Enclave, Dilshad Garden, Delhi", "scope": "GOOGLE", "business_status": "OPERATIONAL", "types": ["local_government_office", "point_of_interest", "establishment"], "icon": "https://maps.gstatic.com/mapfiles/place_api/icons/v1/png_71/civic_building-71.png"}, {"name": "Jitender RTO TAX", "reference": "ChIJaac9QhP7DDkRIwn3Vv9Houk", "geometry": {"location": {"lat": 28.6986849, "lng": 77.3244976}, "viewport": {"northeast": {"lat": 28.7000356802915, "lng": 77.3258472302915}, "southwest": {"lat": 28.6973377197085, "lng": 77.3231492697085}}}, "opening_hours": {"open_now": false}, "place_id": "ChIJaac9QhP7DDkRIwn3Vv9Houk", "plus_code": {"global_code": "7JWVM8XF+FQ", "compound_code": "M8XF+FQ Ghaziabad, Uttar Pradesh, India"}, "vicinity": "Unnamed Road, Tulasi Niketan, Bhopura, Ghaziabad", "photos": [{"photo_reference": "ATtYBwKElfjYB6MPPSfjBXmu_3VzKZDxGWf1dgzbhLrCiYvX1RR-1gtn4nzjAZgHH1PDp_-0PuUmX2iihvIz4Kjv0MFVlcb-CqXzPbIrNhRWdXHKX4svHz5FqhcJ_9NFgne7QqOeyjletNOm5wuIL2uy5wruZD7HOdI-HMOUeyvn1FmBRmMl", "width": 1440, "html_attributions": ["<a href=\"https://maps.google.com/maps/contrib/108961966867104880555\">Jitender RTO TAX</a>"], "height": 810}], "scope": "GOOGLE", "business_status": "OPERATIONAL", "types": ["accounting", "finance", "local_government_office", "home_goods_store", "point_of_interest", "store", "establishment"], "icon": "https://maps.gstatic.com/mapfiles/place_api/icons/v1/png_71/civic_building-71.png"}, {"permanently_closed": true, "name": "Partner For Life", "reference": "ChIJibuImqn7DDkRPNvubUk5dnM", "geometry": {"location": {"lat": 28.6810987, "lng": 77.32434370000001}, "viewport": {"northeast": {"lat": 28.6824381302915, "lng": 77.32570298029151}, "southwest": {"lat": 28.6797401697085, "lng": 77.3230050197085}}}, "place_id": "ChIJibuImqn7DDkRPNvubUk5dnM", "plus_code": {"global_code": "7JWVM8JF+CP", "compound_code": "M8JF+CP Delhi, India"}, "vicinity": "155, J and K Pocket, Dilshad Garden, Delhi", "scope": "GOOGLE", "business_status": "CLOSED_TEMPORARILY", "types": ["local_government_office", "point_of_interest", "establishment"], "icon": "https://maps.gstatic.com/mapfiles/place_api/icons/v1/png_71/civic_building-71.png"}, {"rating": 4, "user_ratings_total": 3, "name": "EDMC Disaster Managment Centre", "reference": "ChIJlSCA3Zf7DDkRStgdsGuZTII", "geometry": {"location": {"lat": 28.690995, "lng": 77.30874399999999}, "viewport": {"northeast": {"lat": 28.6927018802915, "lng": 77.3106430802915}, "southwest": {"lat": 28.6900039197085, "lng": 77.30794511970849}}}, "place_id": "ChIJlSCA3Zf7DDkRStgdsGuZTII", "plus_code": {"global_code": "7JWVM8R5+9F", "compound_code": "M8R5+9F Delhi, India"}, "vicinity": "B-6/157, Block B, Nand Nagri, Mandoli, Delhi", "photos": [{"photo_reference": "ATtYBwKNXxvdEXHeMQk4aIPBKHBGp1ov0ppYhPm9wWAYiQfcZMFXALa1tsqRWvX_0ZA9TG36HHaCgdx2DdyuwajQt7_e60QvZjGhW4Lk4AwYYT2Lg0Az3PD4aFOjUxTRZe57vaySwmIUBOFTu7V-1ND31VcdcgFXX2cf9jVdIlt7i9_-ho1F", "width": 3096, "html_attributions": ["<a href=\"https://maps.google.com/maps/contrib/111163379470604569743\">Kartik Kumar</a>"], "height": 4128}], "scope": "GOOGLE", "business_status": "OPERATIONAL", "types": ["local_government_office", "point_of_interest", "establishment"], "icon": "https://maps.gstatic.com/mapfiles/place_api/icons/v1/png_71/civic_building-71.png"}, {"rating": 2, "user_ratings_total": 1, "permanently_closed": true, "name": "Prit Transport Service", "reference": "ChIJ3VryP7T7DDkRQAvGQpGqE60", "geometry": {"location": {"lat": 28.69847399999999, "lng": 77.328098}, "viewport": {"northeast": {"lat": 28.6998227302915, "lng": 77.32944783029151}, "southwest": {"lat": 28.6971247697085, "lng": 77.3267498697085}}}, "place_id": "ChIJ3VryP7T7DDkRQAvGQpGqE60", "plus_code": {"global_code": "7JWVM8XH+96", "compound_code": "M8XH+96 Ghaziabad, Uttar Pradesh, India"}, "vicinity": "Wazirabad Road, Tulasi Niketan, Bhopura, Ghaziabad", "scope": "GOOGLE", "business_status": "CLOSED_TEMPORARILY", "types": ["local_government_office", "point_of_interest", "establishment"], "icon": "https://maps.gstatic.com/mapfiles/place_api/icons/v1/png_71/civic_building-71.png"}, {"rating": 5, "user_ratings_total": 5, "name": "CSC Center (Awadh Enterprise)", "reference": "ChIJLTSaYyn7DDkRhSs_qT45l58", "geometry": {"location": {"lat": 28.702067, "lng": 77.32074899999999}, "viewport": {"northeast": {"lat": 28.7034159802915, "lng": 77.3220979802915}, "southwest": {"lat": 28.7007180197085, "lng": 77.3194000197085}}}, "opening_hours": {"open_now": false}, "place_id": "ChIJLTSaYyn7DDkRhSs_qT45l58", "plus_code": {"global_code": "7JWVP82C+R7", "compound_code": "P82C+R7 Delhi, India"}, "vicinity": "no 19, Block C-1/394 street, Harsh Vihar, Mandoli, Delhi", "photos": [{"photo_reference": "ATtYBwKq6k3UcswcoXyRk-03dCdj8GVEEznjn2BQ6gFn-gQ2WMGuB-No6aA2XurHalQLne6isx6B9DK__PUndXJFOva_a5q9h_idhB7ENB7ab6G4P9_kOagSdA9EMjLbdKu27A96Ll44phjltiazPoBzI7oVGwADcr4y3ILaS88fMiSpEX6w", "width": 602, "html_attributions": ["<a href=\"https://maps.google.com/maps/contrib/115348464387608613726\">Rajesh Kumar</a>"], "height": 285}], "scope": "GOOGLE", "business_status": "OPERATIONAL", "types": ["local_government_office", "point_of_interest", "establishment"], "icon": "https://maps.gstatic.com/mapfiles/place_api/icons/v1/png_71/civic_building-71.png"}]}