{"status": "OK", "next_page_token": "ATtYBwIfB8czwBNblDrKcb-fMbFxar45NH0oSlMJuKHTxizrIHGn600eJLl7eKJDwKYJoTlyKIl7bTCPPUQhCNcqx0K6rmMvwjzS-xVjl2IP32yclc7Ts1libyQwBLa48WnQ1etySVG8PxCYMw-GgQzoHJcfysdvWcu_YzdTkuHCHD3rXfxCwfdxRSx5sZMRSEQkfOkANPlZqxLbiClrLoecag_J2Bkefq4MrTeaYE1CdvDRolkYxQLTCAte6QhfjJMVjX9J0javtpmhcOKnbGmypBJls0ce9jbOB7I411wKFUGF2bZmTOCkyVnZaRMdJnwANYcZK1sI4M0R6T9iHK2W5ncKl3gPtCcv_ZFwSuVZoWax4Ndvab2golW0qEixhTvlfFeI7P_uifs4MDekc5u7ZzS2NWJIQFafud7T2JRTnx0-Wm_hyyvN4YXScOKkhWSdSfRCW87WSNbf3uZ0LSRb15iV-dhSYIHw86h3vadk1QHJhQMeLw0oyUf5fmf_SLNYuWQR4KMObrC9IUrS3r9qFN75hAuy5j-Jnd1sNwrkPG2Utvq3sLOGG05T19BRAmMRU6ceJzBHo7aSUb_rsJCRt1pxcE-IClfKOg0NJxGx1ojxR7IWZNK2PBEh5Iy9y4FAESyaRDwzpUCb-NGo-k_blkYqQf-Qcng", "html_attributions": [], "results": [{"name": "Iron Steel Indl Co Op Housing Society", "reference": "ChIJE8R9PncWrjsRsXiApATzutA", "geometry": {"location": {"lat": 12.9906324, "lng": 77.553344}, "viewport": {"northeast": {"lat": 12.9918277302915, "lng": 77.55470058029151}, "southwest": {"lat": 12.9891297697085, "lng": 77.5520026197085}}}, "place_id": "ChIJE8R9PncWrjsRsXiApATzutA", "vicinity": "6&7, Industrial Town, Rajaji Nagar, Rajaji Nagar, Bengaluru", "scope": "GOOGLE", "business_status": "OPERATIONAL", "types": ["local_government_office", "point_of_interest", "establishment"], "icon": "https://maps.gstatic.com/mapfiles/place_api/icons/v1/png_71/civic_building-71.png"}, {"rating": 3.3, "user_ratings_total": 4, "name": "Bruhat Bengaluru Mahanagara Palike Primary health center", "reference": "ChIJCdK6_pE9rjsRi6OxDEqQ_HA", "geometry": {"location": {"lat": 12.9936197, "lng": 77.5503505}, "viewport": {"northeast": {"lat": 12.9948977802915, "lng": 77.55169848029149}, "southwest": {"lat": 12.9921998197085, "lng": 77.54900051970849}}}, "opening_hours": {"open_now": true}, "place_id": "ChIJCdK6_pE9rjsRi6OxDEqQ_HA", "plus_code": {"global_code": "7J4VXHV2+C4", "compound_code": "XHV2+C4 Bengaluru, Karnataka, India"}, "vicinity": "Ward No. 99, 1st Main Road, Manjunath Nagar, Rajajinagar, Bengaluru", "photos": [{"photo_reference": "ATtYBwKiit1X0_zWm9WsmBUURJtwDhQx-tjk78z4G1-RBny68xWiEIg9l6O4xT9fc2zfeNfUr4AMlmN6_X6h-JlimUgq5gXBaZEWDqpKRIeg7pH-3_zr2Y_uNDUFuN76NZMv0FQgm7KgriBiOBHTNYpCXjSE3tNMRTADGILv4GuLlLs3SJhs", "width": 1280, "html_attributions": ["<a href=\"https://maps.google.com/maps/contrib/114745411330016318267\">charan Raj</a>"], "height": 720}], "scope": "GOOGLE", "business_status": "OPERATIONAL", "types": ["hospital", "local_government_office", "health", "point_of_interest", "establishment"], "icon": "https://maps.gstatic.com/mapfiles/place_api/icons/v1/png_71/hospital-71.png"}, {"rating": 5, "user_ratings_total": 8, "name": "CIVIL CRAFT", "reference": "ChIJgzvXSvM9rjsRkBn1OE2IM2Y", "geometry": {"location": {"lat": 12.9878473, "lng": 77.55493779999999}, "viewport": {"northeast": {"lat": 12.9892493802915, "lng": 77.5562908802915}, "southwest": {"lat": 12.9865514197085, "lng": 77.55359291970849}}}, "opening_hours": {"open_now": true}, "place_id": "ChIJgzvXSvM9rjsRkBn1OE2IM2Y", "plus_code": {"global_code": "7J4VXHQ3+4X", "compound_code": "XHQ3+4X Bengaluru, Karnataka, India"}, "vicinity": "637, 46th A Cross Road, 1st Block, 3rd Block, Rajajinagar, Bengaluru", "photos": [{"photo_reference": "ATtYBwLmE2Y9CluYNJkmCMGur8TW9NmmIXplxBKA0v_PIWjHI-cdGPzJFwwNK2EyaLophUrGmGHqYRSuqmjuM0ErFnTvPm-Z71_dLjqQSu_djG3jONfGeUApb-qSZi-5NkxGP7zvC3SH7pE26eL5iO_pkuGk1qUJJZuQtbmtddXsMaP94LgB", "width": 508, "html_attributions": ["<a href=\"https://maps.google.com/maps/contrib/106890573935046293147\">Nikesh Shetty m</a>"], "height": 508}], "scope": "GOOGLE", "business_status": "OPERATIONAL", "types": ["local_government_office", "point_of_interest", "establishment"], "icon": "https://maps.gstatic.com/mapfiles/place_api/icons/v1/png_71/civic_building-71.png"}, {"name": "Sri Ganesh Enterprises", "reference": "ChIJSVdLCZE9rjsROmMisRpXCwo", "geometry": {"location": {"lat": 12.994997, "lng": 77.5472559}, "viewport": {"northeast": {"lat": 12.9963532302915, "lng": 77.54858298029151}, "southwest": {"lat": 12.9936552697085, "lng": 77.54588501970849}}}, "place_id": "ChIJSVdLCZE9rjsROmMisRpXCwo", "plus_code": {"global_code": "7J4VXGVW+XW", "compound_code": "XGVW+XW Bengaluru, Karnataka, India"}, "vicinity": "Shop No. 386, 1st Stage, 10th Cross, 8th Cross Road, 2nd Phase, Rajajinagar, Manjunath Nagar, Basaveshwar Nagar, Bengaluru", "scope": "GOOGLE", "business_status": "OPERATIONAL", "types": ["local_government_office", "point_of_interest", "establishment"], "icon": "https://maps.gstatic.com/mapfiles/place_api/icons/v1/png_71/civic_building-71.png"}, {"name": "Sri Gururaghavendra Trust", "reference": "ChIJeQrqCJE9rjsRRqHKVyzW1UI", "geometry": {"location": {"lat": 12.9951812, "lng": 77.547343}, "viewport": {"northeast": {"lat": 12.9965067802915, "lng": 77.5486840802915}, "southwest": {"lat": 12.9938088197085, "lng": 77.54598611970849}}}, "place_id": "ChIJeQrqCJE9rjsRRqHKVyzW1UI", "plus_code": {"global_code": "7J4VXGWW+3W", "compound_code": "XGWW+3W Bengaluru, Karnataka, India"}, "vicinity": "Shop No. 261, 10th Cross, 2nd Phase, 1st Stage, 3rd Main Road, Manjunath Nagar, Basaveshwar Nagar, Bengaluru", "scope": "GOOGLE", "business_status": "OPERATIONAL", "types": ["local_government_office", "point_of_interest", "establishment"], "icon": "https://maps.gstatic.com/mapfiles/place_api/icons/v1/png_71/civic_building-71.png"}, {"rating": 5, "user_ratings_total": 2, "name": "MY DREAM UMRAH", "reference": "ChIJU06T7i49rjsRrxPLqPYWjgc", "geometry": {"location": {"lat": 12.9844797, "lng": 77.5476645}, "viewport": {"northeast": {"lat": 12.9858877302915, "lng": 77.54902193029152}, "southwest": {"lat": 12.9831897697085, "lng": 77.54632396970851}}}, "opening_hours": {"open_now": true}, "place_id": "ChIJU06T7i49rjsRrxPLqPYWjgc", "plus_code": {"global_code": "7J4VXGMX+Q3", "compound_code": "XGMX+Q3 Bengaluru, Karnataka, India"}, "vicinity": "510,511, 1st Main Road, Arundhati Nagar, Nagarbhavi 1st Stage, Chandra Layout, Bengaluru", "photos": [{"photo_reference": "ATtYBwJBCIH9qgCuFNufgf_Z7HffR8NwVqCRIrGyQyWBe43A8ioTDO9-k5HP00-s60v5En9H7qQVXq3UOI9xeNBNPY_d4JU1dDbY7EVTiUp5mGK_aXD7ilVI9VleGVmy-WuokUICvBfDSdlxrqp4xsLljpX8CuDVYm5t68ulQ3LQJPwYOE_K", "width": 3264, "html_attributions": ["<a href=\"https://maps.google.com/maps/contrib/115810182555204643642\">MY DREAM UMRAH</a>"], "height": 1834}], "scope": "GOOGLE", "business_status": "OPERATIONAL", "types": ["travel_agency", "local_government_office", "point_of_interest", "establishment"], "icon": "https://maps.gstatic.com/mapfiles/place_api/icons/v1/png_71/generic_business-71.png"}, {"rating": 4.4, "user_ratings_total": 38, "name": "Dunzo Partner Office Rajajinagar", "reference": "ChIJs9Jwq_I9rjsR6eUdcVCOzec", "geometry": {"location": {"lat": 12.9934639, "lng": 77.55592519999999}, "viewport": {"northeast": {"lat": 12.9947729802915, "lng": 77.5572784302915}, "southwest": {"lat": 12.9920750197085, "lng": 77.5545804697085}}}, "opening_hours": {"open_now": true}, "place_id": "ChIJs9Jwq_I9rjsR6eUdcVCOzec", "plus_code": {"global_code": "7J4VXHV4+99", "compound_code": "XHV4+99 Bengaluru, Karnataka, India"}, "vicinity": "80/80, Ground Floor Dr Rajkumar Road Rajajinagar 2nd block next to idbi bank Opp To Bhairava Deluxe Hotel Mob 9164755013, Bengaluru", "photos": [{"photo_reference": "ATtYBwL1NsX5y9VtlH_F7FgUUkoKt5twfKvzPNp9j39sfo_oQ0OqrpI1B1d3ny2LKaQ_qjCIbD7gcwX6uTp_oYgKN1se19N4zfJJ-PokgCzgRs1iH_uS4xKgmh9Jvtn_MJmSyG10GzKBwj76Xuk3mpdW2yBHzdE-Hfg-eUUDfyeOAlsUk_fJ", "width": 999, "html_attributions": ["<a href=\"https://maps.google.com/maps/contrib/100115887401749699764\">Dunzo Partner Office Rajajinagar</a>"], "height": 562}], "scope": "GOOGLE", "business_status": "OPERATIONAL", "types": ["local_government_office", "point_of_interest", "establishment"], "icon": "https://maps.gstatic.com/mapfiles/place_api/icons/v1/png_71/civic_building-71.png"}, {"name": "Kemps law chambers opposite saibaba temple", "reference": "ChIJB6Je9nw9rjsRr2fo7p9ccbE", "geometry": {"location": {"lat": 12.9883736, "lng": 77.5570714}, "viewport": {"northeast": {"lat": 12.9896756302915, "lng": 77.5584182802915}, "southwest": {"lat": 12.9869776697085, "lng": 77.5557203197085}}}, "place_id": "ChIJB6Je9nw9rjsRr2fo7p9ccbE", "plus_code": {"global_code": "7J4VXHQ4+8R", "compound_code": "XHQ4+8R Bengaluru, Karnataka, India"}, "vicinity": "46th Cross Road, Rajajinagar, Bengaluru", "scope": "GOOGLE", "business_status": "OPERATIONAL", "types": ["local_government_office", "point_of_interest", "establishment"], "icon": "https://maps.gstatic.com/mapfiles/place_api/icons/v1/png_71/civic_building-71.png"}, {"rating": 4, "user_ratings_total": 1, "name": "Sri Ranganatha Enterprises", "reference": "ChIJT1houvM9rjsR1yP9xnCoQvg", "geometry": {"location": {"lat": 12.9840835, "lng": 77.5541865}, "viewport": {"northeast": {"lat": 12.9854278802915, "lng": 77.5555349802915}, "southwest": {"lat": 12.9827299197085, "lng": 77.55283701970849}}}, "opening_hours": {"open_now": true}, "place_id": "ChIJT1houvM9rjsR1yP9xnCoQvg", "plus_code": {"global_code": "7J4VXHM3+JM", "compound_code": "XHM3+JM Bengaluru, Karnataka, India"}, "vicinity": "No. 713/1, Renuka Plaza, Near Canara Coffee Centre, Bhashyam Circle, 12th Main Road, 5 Block, Chamundi Nagar, Rajajinagar, Bengaluru", "photos": [{"photo_reference": "ATtYBwLu07HhFWM36RVCyAAiMKFzujKIZLx6loZRYQS4dvNXd75CUkoPnS_FOUimMCU6Ip4ufK0UF8F2zyHJVX6DO00yGx54GoPvbIoOZsMxLz_Qc5DtOPwJCMDDBSriBgJH0pZgazD7OxRJhceQSvmaCKn2huwtuENRQXYsXVRqOyEHlsVr", "width": 1080, "html_attributions": ["<a href=\"https://maps.google.com/maps/contrib/111079242802068045153\">Sri Ranganatha Enterprises</a>"], "height": 1641}], "scope": "GOOGLE", "business_status": "OPERATIONAL", "types": ["local_government_office", "point_of_interest", "store", "establishment"], "icon": "https://maps.gstatic.com/mapfiles/place_api/icons/v1/png_71/generic_business-71.png"}, {"rating": 5, "user_ratings_total": 3, "name": "Shops & Establishment | MSME | Proprietorship Registration in Bangalore", "reference": "ChIJwWq6GAo9rjsRGM-f2ido19U", "geometry": {"location": {"lat": 12.997184, "lng": 77.5516672}, "viewport": {"northeast": {"lat": 12.9985015802915, "lng": 77.5530139302915}, "southwest": {"lat": 12.9958036197085, "lng": 77.55031596970849}}}, "opening_hours": {"open_now": true}, "place_id": "ChIJwWq6GAo9rjsRGM-f2ido19U", "plus_code": {"global_code": "7J4VXHW2+VM", "compound_code": "XHW2+VM Bengaluru, Karnataka, India"}, "vicinity": "No. 84/A, 22nd Cross Road, 2nd Block, Rajajinagar, Bengaluru", "photos": [{"photo_reference": "ATtYBwJK_yBAHZo6LRxAfLBadUzyTBn0AW7k7eaYuQZbQsL8VrcMXBqYrmyO3XcezddcIpYiSrPXnUEuMJv7LgwKCXcDwGMCQM3tcM3EB1fbhvVSmBtba2VvW0ulMTSdTiqDcpqcjhR3T7ykC9XZdK-sgfM-LsycigTWGMrZOUe4pYa_Jg-5", "width": 1024, "html_attributions": ["<a href=\"https://maps.google.com/maps/contrib/103029188155968128338\">Shops &amp; Establishment | MSME | Proprietorship Registration in Bangalore</a>"], "height": 406}], "scope": "GOOGLE", "business_status": "OPERATIONAL", "types": ["local_government_office", "point_of_interest", "establishment"], "icon": "https://maps.gstatic.com/mapfiles/place_api/icons/v1/png_71/civic_building-71.png"}, {"name": "Shreebalaji Furnishings", "reference": "ChIJuxkMQIs9rjsR3yRW-8U7QXg", "geometry": {"location": {"lat": 12.9893576, "lng": 77.557616}, "viewport": {"northeast": {"lat": 12.9907091802915, "lng": 77.5589703802915}, "southwest": {"lat": 12.9880112197085, "lng": 77.55627241970849}}}, "place_id": "ChIJuxkMQIs9rjsR3yRW-8U7QXg", "vicinity": "230-Y 3 Road Block, Rajaji Nagar, Rajaji Nagar, Bengaluru", "scope": "GOOGLE", "business_status": "OPERATIONAL", "types": ["local_government_office", "point_of_interest", "establishment"], "icon": "https://maps.gstatic.com/mapfiles/place_api/icons/v1/png_71/civic_building-71.png"}, {"rating": 5, "user_ratings_total": 17, "name": "MATRIX MANAGEMENT SOLUTIONS", "reference": "ChIJxxAHj9c9rjsRZ6OGwiuo7ZI", "geometry": {"location": {"lat": 12.9918813, "lng": 77.54258759999999}, "viewport": {"northeast": {"lat": 12.9932341802915, "lng": 77.5439369802915}, "southwest": {"lat": 12.9905362197085, "lng": 77.5412390197085}}}, "opening_hours": {"open_now": true}, "place_id": "ChIJxxAHj9c9rjsRZ6OGwiuo7ZI", "plus_code": {"global_code": "7J4VXGRV+Q2", "compound_code": "XGRV+Q2 Bengaluru, Karnataka, India"}, "vicinity": "1008, GROUND FLOOR, 8th B Main Road, 3rd Stage 4th Block, Basaveshwar Nagar, Bengaluru", "photos": [{"photo_reference": "ATtYBwJH4pL1rORQlo235jcEqyWZXGnKtJetUXHunHIjmA5nmFnZBR_Th6e3nxw1ZjZdyQnKdAWZOkwXVKelGxoWjR8cR_ISocKZT2sjHE1MktcbrRHxmHglS-9kS6I0T7wcI6rXz06ehStFi_9NWUAlgt2vPVjVkQhkMmAfu4ptEJdkKt4", "width": 4032, "html_attributions": ["<a href=\"https://maps.google.com/maps/contrib/113115216431425237122\">MATRIX MANAGEMENT SOLUTIONS</a>"], "height": 3024}], "scope": "GOOGLE", "business_status": "OPERATIONAL", "types": ["accounting", "finance", "local_government_office", "point_of_interest", "establishment"], "icon": "https://maps.gstatic.com/mapfiles/place_api/icons/v1/png_71/generic_business-71.png"}, {"rating": 3.2, "user_ratings_total": 12, "name": "BBMP Contact Point", "reference": "ChIJMyiFg_M9rjsRY3nUVCrNt7M", "geometry": {"location": {"lat": 12.9848258, "lng": 77.5557201}, "viewport": {"northeast": {"lat": 12.9862304802915, "lng": 77.5570344802915}, "southwest": {"lat": 12.9835325197085, "lng": 77.5543365197085}}}, "place_id": "ChIJMyiFg_M9rjsRY3nUVCrNt7M", "plus_code": {"global_code": "7J4VXHM4+W7", "compound_code": "XHM4+W7 Bengaluru, Karnataka, India"}, "vicinity": "20th Main Road, 5 Block, Chamundi Nagar, Rajajinagar, Bengaluru", "photos": [{"photo_reference": "ATtYBwL0f3c8j4EEiXqJrBxVxODOrsYCyn59JYz7qDRb-jYlKmBrur2fY5kkSU97VYE4ObMQdD0VI12uAue9YS3yHcB8jTDNDPBZdMFw0p7dvAW9JdOPVsPC1LxKFgnJfw1gWJTpwmSrDD_YuN0LD_l4ULcr05Jw6D3srSr2DUEtV3ytepRb", "width": 4160, "html_attributions": ["<a href=\"https://maps.google.com/maps/contrib/106242115013542702284\">Ravishankar Kamble</a>"], "height": 3120}], "scope": "GOOGLE", "business_status": "OPERATIONAL", "types": ["local_government_office", "point_of_interest", "establishment"], "icon": "https://maps.gstatic.com/mapfiles/place_api/icons/v1/png_71/civic_building-71.png"}, {"name": "A R transport tata ace", "reference": "ChIJMeKv_5Q9rjsRYD-lgp_m48c", "geometry": {"location": {"lat": 12.989948, "lng": 77.542014}, "viewport": {"northeast": {"lat": 12.9912494802915, "lng": 77.54336258029151}, "southwest": {"lat": 12.9885515197085, "lng": 77.54066461970851}}}, "place_id": "ChIJMeKv_5Q9rjsRYD-lgp_m48c", "plus_code": {"global_code": "7J4VXGQR+XR", "compound_code": "XGQR+XR Bengaluru, Karnataka, India"}, "vicinity": "# 634 2nd cross masidi road kamalanagar, banglore", "photos": [{"photo_reference": "ATtYBwKTGLqqXyPJraDyk0X1vVslD64Hml5hmvvatUVnxZC4EuKYFQh9NR79ZA0m6Q41XaYTEACAu4Zq0EL6SbYjcWYBMYwF63MiXIBD0hlQBBHSnVV-P9M_dqWTH72FrRD_-ppndvPSQ84TnuW3glsCAYaTrp_OMLgiDfZ4igNtjv2i_UrK", "width": 1280, "html_attributions": ["<a href=\"https://maps.google.com/maps/contrib/115104042747468702033\">A R transport tata ace</a>"], "height": 960}], "scope": "GOOGLE", "business_status": "OPERATIONAL", "types": ["local_government_office", "point_of_interest", "establishment"], "icon": "https://maps.gstatic.com/mapfiles/place_api/icons/v1/png_71/civic_building-71.png"}, {"name": "Arunodaya Souharda Credit Co-Operative Limited", "reference": "ChIJ35q_8pA9rjsRCqXNxq0otpE", "geometry": {"location": {"lat": 12.9973093, "lng": 77.5469816}, "viewport": {"northeast": {"lat": 12.9987040302915, "lng": 77.5483292302915}, "southwest": {"lat": 12.9960060697085, "lng": 77.5456312697085}}}, "opening_hours": {"open_now": true}, "place_id": "ChIJ35q_8pA9rjsRCqXNxq0otpE", "plus_code": {"global_code": "7J4VXGWW+WQ", "compound_code": "XGWW+WQ Bengaluru, Karnataka, India"}, "vicinity": "Shop No. 726/A, Opposite New Shanthi Sagar Hotel, Rajajinagar, Doctor MC Modi Hospital Road, West of Chord Road, Manjunath Nagar, Basaveshwar Nagar, Bengaluru", "scope": "GOOGLE", "business_status": "OPERATIONAL", "types": ["local_government_office", "point_of_interest", "establishment"], "icon": "https://maps.gstatic.com/mapfiles/place_api/icons/v1/png_71/civic_building-71.png"}, {"rating": 5, "user_ratings_total": 4, "name": "Intel Tool craft rajajinagar", "reference": "ChIJ15bGueM9rjsR2EGCCb9terM", "geometry": {"location": {"lat": 12.9828742, "lng": 77.5464908}, "viewport": {"northeast": {"lat": 12.9842357302915, "lng": 77.5478413802915}, "southwest": {"lat": 12.9815377697085, "lng": 77.5451434197085}}}, "opening_hours": {"open_now": true}, "place_id": "ChIJ15bGueM9rjsR2EGCCb9terM", "plus_code": {"global_code": "7J4VXGMW+4H", "compound_code": "XGMW+4H Bengaluru, Karnataka, India"}, "vicinity": "Intel tool craft #11/B . 4th main, 4th Cross Road, Rajaji Nagar Industrial Town, Rajajinagar, Bengaluru", "photos": [{"photo_reference": "ATtYBwKcSGlezeLMYXdMF9gSa3YBY-9Nz9i3C1FEzJO1uXovaAB0s3-ijfKdJ1PM9X2mksTpOL1FQANbKX08Xx2ajDk2jQS6pNOK2-h4-DMU5GMSdBSKteXXXotnF-JtGqxBQzGt18h3fvc_4ieZohSMXK5_2nIOlnafsVMlnyxmSH4MZo9a", "width": 1080, "html_attributions": ["<a href=\"https://maps.google.com/maps/contrib/111734673143640981344\">arunkumar arunkumar</a>"], "height": 1920}], "scope": "GOOGLE", "business_status": "OPERATIONAL", "types": ["local_government_office", "point_of_interest", "establishment"], "icon": "https://maps.gstatic.com/mapfiles/place_api/icons/v1/png_71/civic_building-71.png"}, {"rating": 4.6, "user_ratings_total": 11, "name": "Lalamove Partner Joining Office", "reference": "ChIJ01Kh4ds9rjsRW2cabkNbYp0", "geometry": {"location": {"lat": 12.9910746, "lng": 77.5580559}, "viewport": {"northeast": {"lat": 12.9923792802915, "lng": 77.5593345802915}, "southwest": {"lat": 12.9896813197085, "lng": 77.55663661970848}}}, "opening_hours": {"open_now": true}, "place_id": "ChIJ01Kh4ds9rjsRW2cabkNbYp0", "plus_code": {"global_code": "7J4VXHR5+C6", "compound_code": "XHR5+C6 Bengaluru, Karnataka, India"}, "vicinity": "2nd Block, next to IDBI bank mob 9164755013, 82, Doctor Rajkumar Road, Rajajinagar, Bengaluru", "photos": [{"photo_reference": "ATtYBwIL3IvyQbg9XY6Bjpe6vkULX7vSM2BunRWdriqLFFLS98HTuuen2gJ5ehhclbpDeHeFvHgMU8MzqilrxhLkopQRINIGDLP5dst8ZPME5SuvE7Noo-fm3FruiCrV2hnZpsTRoyxEK83ZA2M0sYE5CuQ-sJOVcW0ijYZ0NgkzWVagPMz5", "width": 2247, "html_attributions": ["<a href=\"https://maps.google.com/maps/contrib/110331650672864631394\">Lalamove Partner Joining Office</a>"], "height": 1264}], "scope": "GOOGLE", "business_status": "OPERATIONAL", "types": ["local_government_office", "point_of_interest", "establishment"], "icon": "https://maps.gstatic.com/mapfiles/place_api/icons/v1/png_71/civic_building-71.png"}, {"rating": 2, "user_ratings_total": 2, "name": "Primary Health Centre", "reference": "ChIJhzT7MIs9rjsRBXlc5AQXP_g", "geometry": {"location": {"lat": 12.9886479, "lng": 77.5581287}, "viewport": {"northeast": {"lat": 12.9899696302915, "lng": 77.5594167302915}, "southwest": {"lat": 12.9872716697085, "lng": 77.5567187697085}}}, "place_id": "ChIJhzT7MIs9rjsRBXlc5AQXP_g", "plus_code": {"global_code": "7J4VXHQ5+F7", "compound_code": "XHQ5+F7 Bengaluru, Karnataka, India"}, "vicinity": "3rd Main Road, 4th Block, Rajajinagar, Bengaluru", "photos": [{"photo_reference": "ATtYBwJdtLhs0l5QyoMMKVaGULjmlWBZlBdCGYOuuQKgHS-L5gB8UAJuFVglYS4wA7xYAVh0D7uiDXQTXScu5aM4uKfbIb_aaoFjFjZ3Ah9mt-d5fsTplJ2_ROQunxhJYqej8thUXjB0c6s6VEvLuajoOu380iEQmJIwzCbhW7CGjVvLjeEs", "width": 3456, "html_attributions": ["<a href=\"https://maps.google.com/maps/contrib/108437260579222460490\">RaviKiran.A Dyuthi</a>"], "height": 4608}], "scope": "GOOGLE", "business_status": "OPERATIONAL", "types": ["local_government_office", "health", "point_of_interest", "establishment"], "icon": "https://maps.gstatic.com/mapfiles/place_api/icons/v1/png_71/civic_building-71.png"}, {"name": "AMaCV Charity Trust", "reference": "ChIJv5okPYs9rjsREXXL8-u1AFc", "geometry": {"location": {"lat": 12.9893185, "lng": 77.55829489999999}, "viewport": {"northeast": {"lat": 12.9906140802915, "lng": 77.55954858029149}, "southwest": {"lat": 12.9879161197085, "lng": 77.55685061970848}}}, "place_id": "ChIJv5okPYs9rjsREXXL8-u1AFc", "plus_code": {"global_code": "7J4VXHQ5+P8", "compound_code": "XHQ5+P8 Bengaluru, Karnataka, India"}, "vicinity": "987, 2nd Main Road, 4th Block, 4th Block, Rajajinagar, Bengaluru", "scope": "GOOGLE", "business_status": "OPERATIONAL", "types": ["local_government_office", "point_of_interest", "establishment"], "icon": "https://maps.gstatic.com/mapfiles/place_api/icons/v1/png_71/civic_building-71.png"}, {"rating": 1.8, "user_ratings_total": 56, "name": "Wheelsemi Pvt Ltd Bangalore", "reference": "ChIJ0bhf2aE9rjsRhKvauOxXeYE", "geometry": {"location": {"lat": 12.9903848, "lng": 77.55847349999999}, "viewport": {"northeast": {"lat": 12.9917001802915, "lng": 77.5597620302915}, "southwest": {"lat": 12.9890022197085, "lng": 77.55706406970849}}}, "opening_hours": {"open_now": true}, "place_id": "ChIJ0bhf2aE9rjsRhKvauOxXeYE", "plus_code": {"global_code": "7J4VXHR5+59", "compound_code": "XHR5+59 Bengaluru, Karnataka, India"}, "vicinity": "Wheelsemi pvt ltd banagalore, new no 72 (old no 60, 61, Doctor Rajkumar Road, Prakash Nagar, Rajajinagar, Bengaluru", "photos": [{"photo_reference": "ATtYBwIg7DOIkU1xQ3OsJHlTDxiFbcUtXh23VddV3qRUu-hJC6hbOPkVfNHZnP049EyoZfFgUqNS0H647_4na_stL39LI-mFe8FJHZofXfpsS8MOqli5h2Qy2E1o2Q0gZnTEdm3qMdPjNoI1PoOjLOFBH8UzvbmWIH8Hcxh8b_nZ45gmwBIz", "width": 1920, "html_attributions": ["<a href=\"https://maps.google.com/maps/contrib/105842577611889028472\">Mahesh M</a>"], "height": 1080}], "scope": "GOOGLE", "business_status": "OPERATIONAL", "types": ["local_government_office", "point_of_interest", "establishment"], "icon": "https://maps.gstatic.com/mapfiles/place_api/icons/v1/png_71/civic_building-71.png"}]}