{"status": "OK", "html_attributions": [], "results": [{"rating": 3.5, "user_ratings_total": 2, "name": "BWSSB AE office", "reference": "ChIJ1cUZI7UTrjsRQOjTIpvdrvY", "geometry": {"location": {"lat": 12.9473227, "lng": 77.6982627}, "viewport": {"northeast": {"lat": 12.9486739802915, "lng": 77.6995644802915}, "southwest": {"lat": 12.9459760197085, "lng": 77.6968665197085}}}, "opening_hours": {"open_now": true}, "place_id": "ChIJ1cUZI7UTrjsRQOjTIpvdrvY", "plus_code": {"global_code": "7J4VWMWX+W8", "compound_code": "WMWX+W8 Bengaluru, Karnataka, India"}, "vicinity": "Unnamed Road, Kodbisanhalli, Marathahalli, Bengaluru", "scope": "GOOGLE", "business_status": "OPERATIONAL", "types": ["local_government_office", "point_of_interest", "establishment"], "icon": "https://maps.gstatic.com/mapfiles/place_api/icons/v1/png_71/civic_building-71.png"}, {"rating": 5, "user_ratings_total": 231, "name": "SAPTHAGIRI TAX: GST, Income Tax Return Filing, Company Incorporation, Accountants and Tax Consultants", "reference": "ChIJCVYIp84TrjsRH8Tc3Jq9Kkc", "geometry": {"location": {"lat": 12.9552136, "lng": 77.6916049}, "viewport": {"northeast": {"lat": 12.9565795802915, "lng": 77.6929371302915}, "southwest": {"lat": 12.9538816197085, "lng": 77.69023916970849}}}, "opening_hours": {"open_now": true}, "place_id": "ChIJCVYIp84TrjsRH8Tc3Jq9Kkc", "plus_code": {"global_code": "7J4VXM4R+3J", "compound_code": "XM4R+3J Bengaluru, Karnataka, India"}, "vicinity": "above Kottakkal Arya Vaidya Sala, Bengaluru, No.31, MR Sadan, 102, 1st Floor, Deepa Nursing Home, above Kottakkal Arya Vaidya Sala, Bengaluru, Road, Marathahalli, Bengaluru", "photos": [{"photo_reference": "ATtYBwLkCEMTVYpAUq44QwOuWnmxTh2bqmRB-k4rJUkw0Nbq5Bdu5qd6HkdSiGWizDooc6PaUjBr5NXsiz77wzdndG9ES7_cs6AbSe6eRr6R3pZnqnD5AoKBRP6xSa_r47I2X1tCiNjlND0QS7LGaXRmxxUpfNR5c8t18nRMWmuCFBt8ETbr", "width": 1024, "html_attributions": ["<a href=\"https://maps.google.com/maps/contrib/107643443668960962926\">SAPTHAGIRI TAX: GST, Income Tax Return Filing, Company Incorporation, Accountants and Tax Consultants</a>"], "height": 682}], "scope": "GOOGLE", "business_status": "OPERATIONAL", "types": ["accounting", "finance", "local_government_office", "point_of_interest", "establishment"], "icon": "https://maps.gstatic.com/mapfiles/place_api/icons/v1/png_71/generic_business-71.png"}, {"name": "Nagaraj Civil Engineer", "reference": "ChIJHYA6xM4TrjsRlI6jX2DZFng", "geometry": {"location": {"lat": 12.9558233, "lng": 77.69185}, "viewport": {"northeast": {"lat": 12.9571671802915, "lng": 77.6931998802915}, "southwest": {"lat": 12.9544692197085, "lng": 77.6905019197085}}}, "place_id": "ChIJHYA6xM4TrjsRlI6jX2DZFng", "plus_code": {"global_code": "7J4VXM4R+8P", "compound_code": "XM4R+8P Bengaluru, Karnataka, India"}, "vicinity": "Varthur Road, Jawahar Nagar, Marathahalli, Bengaluru", "scope": "GOOGLE", "business_status": "OPERATIONAL", "types": ["local_government_office", "point_of_interest", "establishment"], "icon": "https://maps.gstatic.com/mapfiles/place_api/icons/v1/png_71/civic_building-71.png"}, {"name": "NANDAJYOTHICHITS INDIA PVT LTD", "reference": "ChIJf9M580UTrjsRPptl9qEIDdk", "geometry": {"location": {"lat": 12.9560549, "lng": 77.6930782}, "viewport": {"northeast": {"lat": 12.9573853802915, "lng": 77.6944305802915}, "southwest": {"lat": 12.9546874197085, "lng": 77.69173261970849}}}, "place_id": "ChIJf9M580UTrjsRPptl9qEIDdk", "plus_code": {"global_code": "7J4VXM4V+C6", "compound_code": "XM4V+C6 Bengaluru, Karnataka, India"}, "vicinity": "3, Varthur Road, Near-Old Bus Stop, Marathahalli Village, Marathahalli, Bengaluru", "photos": [{"photo_reference": "ATtYBwIVKLjYixS1hqCFGE2GV4ZzagNI1r9wksocZIC-41_FAvwW7ObVH8G9FYYzJEvMQP8C61tB3sbZbxR4a6C4g9G91L9Tu8CpsYjscCuYn1Lb5GWIePDJVW6nKGf-TbAtiZMa-dGbY3E6snmlveXX6Qf2hgtKEIMIzU6i0k9iQm-BKZGR", "width": 4224, "html_attributions": ["<a href=\"https://maps.google.com/maps/contrib/116607018297444394457\">NANDAJYOTHICHITS INDIA PVT LTD</a>"], "height": 3168}], "scope": "GOOGLE", "business_status": "OPERATIONAL", "types": ["local_government_office", "point_of_interest", "establishment"], "icon": "https://maps.gstatic.com/mapfiles/place_api/icons/v1/png_71/civic_building-71.png"}, {"rating": 3, "user_ratings_total": 1, "name": "I2 Imperial India Consultancy", "reference": "ChIJBQsVGswTrjsREvE5vDCKuDQ", "geometry": {"location": {"lat": 12.9559957, "lng": 77.6943271}, "viewport": {"northeast": {"lat": 12.9574430802915, "lng": 77.6956633302915}, "southwest": {"lat": 12.9547451197085, "lng": 77.69296536970849}}}, "place_id": "ChIJBQsVGswTrjsREvE5vDCKuDQ", "plus_code": {"global_code": "7J4VXM4V+9P", "compound_code": "XM4V+9P Bengaluru, Karnataka, India"}, "vicinity": "Shop No. 177, 7th Cross, 1st Main, Marathahalli Main Road, Manjunatha Layout, Marathahalli Village, Marathahalli, Bengaluru", "scope": "GOOGLE", "business_status": "OPERATIONAL", "types": ["finance", "local_government_office", "point_of_interest", "establishment"], "icon": "https://maps.gstatic.com/mapfiles/place_api/icons/v1/png_71/civic_building-71.png"}, {"name": "Infinity global data", "reference": "ChIJJ9ZoL5ETrjsR5JYtbblwdl4", "geometry": {"location": {"lat": 12.9562739, "lng": 77.6948026}, "viewport": {"northeast": {"lat": 12.9575921802915, "lng": 77.69615868029152}, "southwest": {"lat": 12.9548942197085, "lng": 77.6934607197085}}}, "place_id": "ChIJJ9ZoL5ETrjsR5JYtbblwdl4", "plus_code": {"global_code": "7J4VXM4V+GW", "compound_code": "XM4V+GW Bengaluru, Karnataka, India"}, "vicinity": "Varthur Road, Marathahalli Village, Marathahalli, Bengaluru", "scope": "GOOGLE", "business_status": "OPERATIONAL", "types": ["local_government_office", "point_of_interest", "establishment"], "icon": "https://maps.gstatic.com/mapfiles/place_api/icons/v1/png_71/civic_building-71.png"}, {"name": "RAMESHA NAIK S", "reference": "ChIJASy2r9UTrjsR2pKsZuWZ2Bg", "geometry": {"location": {"lat": 12.9577353, "lng": 77.6974449}, "viewport": {"northeast": {"lat": 12.9590817302915, "lng": 77.6988260802915}, "southwest": {"lat": 12.9563837697085, "lng": 77.69612811970848}}}, "place_id": "ChIJASy2r9UTrjsR2pKsZuWZ2Bg", "plus_code": {"global_code": "7J4VXM5W+3X", "compound_code": "XM5W+3X Bengaluru, Karnataka, India"}, "vicinity": "SSR PG, 8th Cross Road, Aswath Nagar, Marathahalli, Bengaluru", "scope": "GOOGLE", "business_status": "OPERATIONAL", "types": ["local_government_office", "point_of_interest", "establishment"], "icon": "https://maps.gstatic.com/mapfiles/place_api/icons/v1/png_71/civic_building-71.png"}, {"name": "DailyDental - Job portal for dentists", "reference": "ChIJxS3Z8e4TrjsRLpq-urlGq8s", "geometry": {"location": {"lat": 12.9410135, "lng": 77.69573179999999}, "viewport": {"northeast": {"lat": 12.9424429802915, "lng": 77.69710083029149}, "southwest": {"lat": 12.9397450197085, "lng": 77.69440286970848}}}, "place_id": "ChIJxS3Z8e4TrjsRLpq-urlGq8s", "plus_code": {"global_code": "7J4VWMRW+C7", "compound_code": "WMRW+C7 Bengaluru, Karnataka, India"}, "vicinity": "beside IOC petrol station, 3rd floor, Above SBI bank, beside IOC petrol station, Kadubeesanahalli, Bengaluru", "scope": "GOOGLE", "business_status": "OPERATIONAL", "types": ["local_government_office", "point_of_interest", "establishment"], "icon": "https://maps.gstatic.com/mapfiles/place_api/icons/v1/png_71/civic_building-71.png"}, {"name": "Daily Dental", "reference": "ChIJkVTgZf0TrjsRxExzoL_58_8", "geometry": {"location": {"lat": 12.940984, "lng": 77.6956874}, "viewport": {"northeast": {"lat": 12.9424323802915, "lng": 77.6970611302915}, "southwest": {"lat": 12.9397344197085, "lng": 77.6943631697085}}}, "opening_hours": {"open_now": true}, "place_id": "ChIJkVTgZf0TrjsRxExzoL_58_8", "plus_code": {"global_code": "7J4VWMRW+97", "compound_code": "WMRW+97 Bengaluru, Karnataka, India"}, "vicinity": "#128/8, SBI Building, Besides JP Morgan, Prestige Tech Park Road, Kadubeesanahalli, Marathahalli, Bengaluru", "scope": "GOOGLE", "business_status": "OPERATIONAL", "types": ["local_government_office", "point_of_interest", "establishment"], "icon": "https://maps.gstatic.com/mapfiles/place_api/icons/v1/png_71/civic_building-71.png"}, {"rating": 4.3, "user_ratings_total": 66, "name": "6Benches - Data Science | Machine Learning | Corporate Training", "reference": "ChIJFWAms7MTrjsRe5w17lGhF-I", "geometry": {"location": {"lat": 12.940977, "lng": 77.6956764}, "viewport": {"northeast": {"lat": 12.9424298802915, "lng": 77.69705128029149}, "southwest": {"lat": 12.9397319197085, "lng": 77.69435331970848}}}, "opening_hours": {"open_now": true}, "place_id": "ChIJFWAms7MTrjsRe5w17lGhF-I", "plus_code": {"global_code": "7J4VWMRW+97", "compound_code": "WMRW+97 Bengaluru, Karnataka, India"}, "vicinity": "6Benches, 3rd Floor Above SBI bank beside JP Morgan, Kadubeesanahalli, Bengaluru", "photos": [{"photo_reference": "ATtYBwJvKM9VV25opRAACmCK34tGtKZ8aQh4qRlqLVozzw7FS4gL_m09bpvORMrnyIMo0PuWmnErTbN6GZ6HJ4VjRLwsBH8TIeV4FnBNAthNxbW3Qziew0zyWnYQpOKZnkHXONUd_72bdxRPjIUdX5eHhGvYmL718wKDFOKxwg4h0QugTuw5", "width": 4608, "html_attributions": ["<a href=\"https://maps.google.com/maps/contrib/116279993106818225557\">6Benches - Data Science | Machine Learning | Corporate Training</a>"], "height": 3456}], "scope": "GOOGLE", "business_status": "OPERATIONAL", "types": ["local_government_office", "point_of_interest", "establishment"], "icon": "https://maps.gstatic.com/mapfiles/place_api/icons/v1/png_71/school-71.png"}, {"name": "Electoral Id Registration Office", "reference": "ChIJVzZbuzQSrjsRfDBz0FDfHcE", "geometry": {"location": {"lat": 12.9545393, "lng": 77.7004503}, "viewport": {"northeast": {"lat": 12.9558891802915, "lng": 77.7017955302915}, "southwest": {"lat": 12.9531912197085, "lng": 77.69909756970848}}}, "place_id": "ChIJVzZbuzQSrjsRfDBz0FDfHcE", "plus_code": {"global_code": "7J4VXP32+R5", "compound_code": "XP32+R5 Bengaluru, Karnataka, India"}, "vicinity": "No.135, Outer Ring Road, Kundalahalli, Marathahalli, Bengaluru", "scope": "GOOGLE", "business_status": "OPERATIONAL", "types": ["local_government_office", "point_of_interest", "establishment"], "icon": "https://maps.gstatic.com/mapfiles/place_api/icons/v1/png_71/civic_building-71.png"}, {"rating": 5, "user_ratings_total": 1, "name": "Ashwini Travel Link", "reference": "ChIJNYnxLbUTrjsR68OGaDL7G4c", "geometry": {"location": {"lat": 12.959172, "lng": 77.697419}, "viewport": {"northeast": {"lat": 12.9603366802915, "lng": 77.6986480802915}, "southwest": {"lat": 12.9576387197085, "lng": 77.69595011970848}}}, "place_id": "ChIJNYnxLbUTrjsR68OGaDL7G4c", "plus_code": {"global_code": "7J4VXM5W+MX", "compound_code": "XM5W+MX Bengaluru, Karnataka, India"}, "vicinity": "near passport seva kendra, xerox 1st floor, near passport seva kendra, Devarabisanahalli, Marathahalli, Bengaluru", "scope": "GOOGLE", "business_status": "OPERATIONAL", "types": ["local_government_office", "point_of_interest", "establishment"], "icon": "https://maps.gstatic.com/mapfiles/place_api/icons/v1/png_71/civic_building-71.png"}, {"name": "V V POLY CLINIC&DIAGNOSTICS", "reference": "ChIJrT1kE0UTrjsRmp1kBaaONs0", "geometry": {"location": {"lat": 12.9532045, "lng": 77.7023353}, "viewport": {"northeast": {"lat": 12.9545457802915, "lng": 77.70368368029149}, "southwest": {"lat": 12.9518478197085, "lng": 77.70098571970848}}}, "opening_hours": {"open_now": true}, "place_id": "ChIJrT1kE0UTrjsRmp1kBaaONs0", "plus_code": {"global_code": "7J4VXP32+7W", "compound_code": "XP32+7W Bengaluru, Karnataka, India"}, "vicinity": "5th A Cross Road, Chowdeshwari Layout, Marathahalli, Bengaluru", "photos": [{"photo_reference": "ATtYBwIQ3SqvCadRmShYSEeE3NqD1wgCV12hX9R2GuE3SHQbNIAMRMGoTSVkeU_lvtuHP_VDIGxHAfJFnC0Go1pV01qsdFuPmbqr0iPL3j7V0cW7m7XYeyAIrw-wvPv-dO7YHn9hAiKaeztzHB98NYFdBoyl9MuN_38YoXGurGlGOBF1atyP", "width": 1080, "html_attributions": ["<a href=\"https://maps.google.com/maps/contrib/100317737728941093495\">V V POLY CLINIC&amp;DIAGNOSTICS</a>"], "height": 1080}], "scope": "GOOGLE", "business_status": "OPERATIONAL", "types": ["local_government_office", "health", "point_of_interest", "establishment"], "icon": "https://maps.gstatic.com/mapfiles/place_api/icons/v1/png_71/civic_building-71.png"}]}