{"status": "OK", "html_attributions": [], "results": [{"rating": 3.8, "user_ratings_total": 25, "name": "Hosur Municipality Office", "reference": "ChIJKb2quixxrjsRoePQAZKpWug", "geometry": {"location": {"lat": 12.7588802, "lng": 77.83619209999999}, "viewport": {"northeast": {"lat": 12.7602543802915, "lng": 77.8375688802915}, "southwest": {"lat": 12.7575564197085, "lng": 77.8348709197085}}}, "opening_hours": {"open_now": false}, "place_id": "ChIJKb2quixxrjsRoePQAZKpWug", "plus_code": {"global_code": "7J4VQR5P+HF", "compound_code": "QR5P+HF Viswanathapuram, Tamil Nadu, India"}, "vicinity": "National Highway 207, Thillai Nagar, Viswanathapuram", "photos": [{"photo_reference": "ATtYBwKldl_xWZq-o6Oa4DQ77wNEda_2pgCuMrXzKPAc_GfTh6-cFP1QUpOG8qELYosid6iIv_FEqpzv5e0nYsFnZC_H4oIU2syqCI5qHQiAndhhH_tr3-lA7yZWaCb3HFtJHpJcSqt6KDV8q9hAaOKZFrvvKRFrqQU_DreMnDHyZUipLntt", "width": 4032, "html_attributions": ["<a href=\"https://maps.google.com/maps/contrib/114763759116843779245\">Thirupathi Sidharaman</a>"], "height": 3024}], "scope": "GOOGLE", "business_status": "OPERATIONAL", "types": ["local_government_office", "point_of_interest", "establishment"], "icon": "https://maps.gstatic.com/mapfiles/place_api/icons/v1/png_71/civic_building-71.png"}, {"rating": 2.5, "user_ratings_total": 2, "name": "SMR ROADWAYS", "reference": "ChIJB3GkBxNxrjsRAuxIXeJcsMQ", "geometry": {"location": {"lat": 12.7448521, "lng": 77.8276185}, "viewport": {"northeast": {"lat": 12.7462606802915, "lng": 77.82895383029151}, "southwest": {"lat": 12.7435627197085, "lng": 77.8262558697085}}}, "place_id": "ChIJB3GkBxNxrjsRAuxIXeJcsMQ", "plus_code": {"global_code": "7J4VPRVH+W2", "compound_code": "PRVH+W2 Avalapalli Hudco, Tamil Nadu, India"}, "vicinity": "HIG 59, Bagalur Road, Brindavan Nagar, Avalapalli Hudco", "photos": [{"photo_reference": "ATtYBwL7PLvPqv1jbxPW9RmhHMuNcG6lRHthbohjVoog-_ZbEOPewIn9ikXaq74Wz6jzt0V_C8fIXrc3GDpFPLaGBfJTT2zrcMeU3BtLhJTQRSDAP6Mcv8RepepR6UGcRUGc5-8IeMKbwghOf3X-eT9B3Iy0yApMqBvH6jzIr-6b50KTlOej", "width": 1920, "html_attributions": ["<a href=\"https://maps.google.com/maps/contrib/116247119481685747677\">Justin Saj</a>"], "height": 1080}], "scope": "GOOGLE", "business_status": "OPERATIONAL", "types": ["local_government_office", "point_of_interest", "establishment"], "icon": "https://maps.gstatic.com/mapfiles/place_api/icons/v1/png_71/civic_building-71.png"}, {"rating": 5, "user_ratings_total": 1, "name": "RATHNA PATTERN WORKS", "reference": "ChIJq6sGa-dxrjsRCAWItj-V3Io", "geometry": {"location": {"lat": 12.7500014, "lng": 77.8222837}, "viewport": {"northeast": {"lat": 12.7514038802915, "lng": 77.82365278029151}, "southwest": {"lat": 12.7487059197085, "lng": 77.82095481970849}}}, "opening_hours": {"open_now": true}, "place_id": "ChIJq6sGa-dxrjsRCAWItj-V3Io", "plus_code": {"global_code": "7J4VQR2C+2W", "compound_code": "QR2C+2W Hosur, Tamil Nadu, India"}, "vicinity": "Plot No. 52-56, Sipcot Industrial Complex, Phase 1, Behind Titan Watches Ltd., Eshwari garden, Hosur", "scope": "GOOGLE", "business_status": "OPERATIONAL", "types": ["local_government_office", "point_of_interest", "establishment"], "icon": "https://maps.gstatic.com/mapfiles/place_api/icons/v1/png_71/civic_building-71.png"}, {"rating": 5, "user_ratings_total": 1, "name": "Sbi life insurance", "reference": "ChIJ04V0ds1xrjsRUO5i6Dxx1TQ", "geometry": {"location": {"lat": 12.742706, "lng": 77.834311}, "viewport": {"northeast": {"lat": 12.7440515802915, "lng": 77.8356913802915}, "southwest": {"lat": 12.7413536197085, "lng": 77.83299341970849}}}, "place_id": "ChIJ04V0ds1xrjsRUO5i6Dxx1TQ", "plus_code": {"global_code": "7J4VPRVM+3P", "compound_code": "PRVM+3P Avalapalli Hudco, Tamil Nadu, India"}, "vicinity": "Home, Avalapalli Hudco", "scope": "GOOGLE", "business_status": "OPERATIONAL", "types": ["local_government_office", "point_of_interest", "establishment"], "icon": "https://maps.gstatic.com/mapfiles/place_api/icons/v1/png_71/civic_building-71.png"}, {"name": "Government Ration Shop", "reference": "ChIJiyWFvdJwrjsRXyurqKjqpzU", "geometry": {"location": {"lat": 12.7423026, "lng": 77.83529949999999}, "viewport": {"northeast": {"lat": 12.7436154802915, "lng": 77.8366834802915}, "southwest": {"lat": 12.7409175197085, "lng": 77.83398551970849}}}, "place_id": "ChIJiyWFvdJwrjsRXyurqKjqpzU", "plus_code": {"global_code": "7J4VPRRP+W4", "compound_code": "PRRP+W4 Avalapalli Hudco, Tamil Nadu, India"}, "vicinity": "Avalapalli Hudco", "scope": "GOOGLE", "business_status": "OPERATIONAL", "types": ["local_government_office", "point_of_interest", "establishment"], "icon": "https://maps.gstatic.com/mapfiles/place_api/icons/v1/png_71/civic_building-71.png"}, {"rating": 5, "user_ratings_total": 55, "name": "Shri Mahalakshmi Netcafe(\u0bae\u0b95\u0bcd\u0b95\u0bb3\u0bcd \u0b95\u0ba3\u0bbf\u0ba9\u0bbf \u0bae\u0bc8\u0baf\u0bae\u0bcd) Hosur", "reference": "ChIJtSYoCZXVrTsRQk32oABahqY", "geometry": {"location": {"lat": 12.7463817, "lng": 77.83956309999999}, "viewport": {"northeast": {"lat": 12.7477656802915, "lng": 77.84089088029151}, "southwest": {"lat": 12.7450677197085, "lng": 77.8381929197085}}}, "opening_hours": {"open_now": true}, "place_id": "ChIJtSYoCZXVrTsRQk32oABahqY", "plus_code": {"global_code": "7J4VPRWQ+HR", "compound_code": "PRWQ+HR Hosur, Tamil Nadu, India"}, "vicinity": "Door No,3/355-2 Ragavedar Colony Avalipalli Road, Basthi Road, Hosur", "photos": [{"photo_reference": "ATtYBwIfv2qCABqPtpl8D5W_nApXbmF5ClVIGXJbFd_PCa8nOJpk6VhzNy5UtP6YuUrRbMrLv6kRgCgI68X85k2wAlfnTPXLBJ8p6W3ktGFSEpFkmqlGLJDP7f59n68GuWkjw6vnpH0c66Im9362n3bSr8J9kV8Fr0An5qND7bbE1dviTUp1", "width": 1440, "html_attributions": ["<a href=\"https://maps.google.com/maps/contrib/107852447024760182554\">Shri Mahalakshmi Netcafe(\u0bae\u0b95\u0bcd\u0b95\u0bb3\u0bcd \u0b95\u0ba3\u0bbf\u0ba9\u0bbf \u0bae\u0bc8\u0baf\u0bae\u0bcd) Hosur</a>"], "height": 810}], "scope": "GOOGLE", "business_status": "OPERATIONAL", "types": ["local_government_office", "accounting", "finance", "point_of_interest", "store", "establishment"], "icon": "https://maps.gstatic.com/mapfiles/place_api/icons/v1/png_71/civic_building-71.png"}, {"rating": 5, "user_ratings_total": 3, "name": "Hosur Matrimony - Kalyanavaibogam Matrimonial", "reference": "ChIJv6qqqtpwrjsRNq2KbRMhOvM", "geometry": {"location": {"lat": 12.7409038, "lng": 77.8253245}, "viewport": {"northeast": {"lat": 12.7422961802915, "lng": 77.82656188029151}, "southwest": {"lat": 12.7395982197085, "lng": 77.82386391970849}}}, "opening_hours": {"open_now": true}, "place_id": "ChIJv6qqqtpwrjsRNq2KbRMhOvM", "plus_code": {"global_code": "7J4VPRRG+94", "compound_code": "PRRG+94 Avalapalli Hudco, Tamil Nadu, India"}, "vicinity": "Opp. to Bus Stand, Narasamma Paradise Near Arusuvai Hotel Hosur, Krishnagiri", "photos": [{"photo_reference": "ATtYBwJAEur2jwRteNY3nReQ_YoU_qwOUHFwFJo4HXdxAtmyISJTPt5T0QpkUapa7soGjjwYbMpAVm8N0_YIeRhQ2vexyLVWdO5VSOVrwUNVFsgmEIPeCCK5otGREfLFscj05o_vyjUXmAzDt-jcUd6VO0mXtRq5n0WsK9zpSXlcqnNgY8mr", "width": 4096, "html_attributions": ["<a href=\"https://maps.google.com/maps/contrib/109451747597127214866\">ZEENET BROWSING CENTRE</a>"], "height": 2304}], "scope": "GOOGLE", "business_status": "OPERATIONAL", "types": ["local_government_office", "health", "point_of_interest", "establishment"], "icon": "https://maps.gstatic.com/mapfiles/place_api/icons/v1/png_71/civic_building-71.png"}, {"name": "Hmc Computer Section", "reference": "ChIJCWALryxxrjsR1vB2O-ifzz8", "geometry": {"location": {"lat": 12.7588545, "lng": 77.8361084}, "viewport": {"northeast": {"lat": 12.7602504802915, "lng": 77.8375255302915}, "southwest": {"lat": 12.7575525197085, "lng": 77.8348275697085}}}, "opening_hours": {"open_now": false}, "place_id": "ChIJCWALryxxrjsR1vB2O-ifzz8", "plus_code": {"global_code": "7J4VQR5P+GC", "compound_code": "QR5P+GC Viswanathapuram, Tamil Nadu, India"}, "vicinity": "National Highway 207, Thillai Nagar, Viswanathapuram", "scope": "GOOGLE", "business_status": "OPERATIONAL", "types": ["local_government_office", "point_of_interest", "establishment"], "icon": "https://maps.gstatic.com/mapfiles/place_api/icons/v1/png_71/civic_building-71.png"}, {"rating": 4.6, "user_ratings_total": 11, "name": "Hosur Passport Service", "reference": "ChIJcSz4b85wrjsRo9fgyW7nq1c", "geometry": {"location": {"lat": 12.7389724, "lng": 77.8302427}, "viewport": {"northeast": {"lat": 12.7403798302915, "lng": 77.8316130802915}, "southwest": {"lat": 12.7376818697085, "lng": 77.8289151197085}}}, "opening_hours": {"open_now": true}, "place_id": "ChIJcSz4b85wrjsRo9fgyW7nq1c", "plus_code": {"global_code": "7J4VPRQJ+H3", "compound_code": "PRQJ+H3 Hosur, Tamil Nadu, India"}, "vicinity": "B 4/1 Tamilnadu Housing Board,, Bagalur Road, Hosur", "photos": [{"photo_reference": "ATtYBwIG-Rcz91n_zBBJXpiDw7WUwrobd0TqdWjBBoGVMJK_c5eekPKnjzd-tJ9R4ztYycLXVAlK2UKXP3UJ_vuyQQ6V3er28YUaOy_tSa9aoWjEHXW87w0ubpVVqRGYpBL3np1g4wcgewqDDBk2BqJ0cqPZqFO_6dIw0srvMr5Okn1Ry6Mv", "width": 2048, "html_attributions": ["<a href=\"https://maps.google.com/maps/contrib/104743877180522081598\">Hosur Passport Service</a>"], "height": 1360}], "scope": "GOOGLE", "business_status": "OPERATIONAL", "types": ["local_government_office", "point_of_interest", "establishment"], "icon": "https://maps.gstatic.com/mapfiles/place_api/icons/v1/png_71/civic_building-71.png"}, {"name": "svs industries", "reference": "ChIJs_qXo35xrjsRoa6YDu_01oE", "geometry": {"location": {"lat": 12.7551355, "lng": 77.81989109999999}, "viewport": {"northeast": {"lat": 12.7564743802915, "lng": 77.82123893029151}, "southwest": {"lat": 12.7537764197085, "lng": 77.8185409697085}}}, "place_id": "ChIJs_qXo35xrjsRoa6YDu_01oE", "plus_code": {"global_code": "7J4VQR49+3X", "compound_code": "QR49+3X Hosur, Tamil Nadu, India"}, "vicinity": "Chinna elasagiri, Kamaraj Nagar, Sipcot Ph. I, Hosur", "scope": "GOOGLE", "business_status": "OPERATIONAL", "types": ["local_government_office", "point_of_interest", "establishment"], "icon": "https://maps.gstatic.com/mapfiles/place_api/icons/v1/png_71/civic_building-71.png"}, {"rating": 5, "user_ratings_total": 1, "name": "HOSUR GST POINT", "reference": "ChIJx0NciXxxrjsRipMLRXd7Nbo", "geometry": {"location": {"lat": 12.7388303, "lng": 77.8308247}, "viewport": {"northeast": {"lat": 12.7401792802915, "lng": 77.8321736802915}, "southwest": {"lat": 12.7374813197085, "lng": 77.82947571970848}}}, "opening_hours": {"open_now": true}, "place_id": "ChIJx0NciXxxrjsRipMLRXd7Nbo", "plus_code": {"global_code": "7J4VPRQJ+G8", "compound_code": "PRQJ+G8 Hosur, Tamil Nadu, India"}, "vicinity": "near Pantaloons Showroom, No 2/7 B, Bagalur Housing Board, near Pantaloons Showroom, Bagalur Road, Hosur", "scope": "GOOGLE", "business_status": "OPERATIONAL", "types": ["accounting", "finance", "local_government_office", "point_of_interest", "establishment"], "icon": "https://maps.gstatic.com/mapfiles/place_api/icons/v1/png_71/civic_building-71.png"}, {"rating": 5, "user_ratings_total": 17, "name": "SSS PASSPORT OFFICE IN HOSUR", "reference": "ChIJmYe0yAJxrjsRvIJt1vYmD6U", "geometry": {"location": {"lat": 12.7386446, "lng": 77.8315668}, "viewport": {"northeast": {"lat": 12.7400066302915, "lng": 77.8329231802915}, "southwest": {"lat": 12.7373086697085, "lng": 77.83022521970848}}}, "opening_hours": {"open_now": true}, "place_id": "ChIJmYe0yAJxrjsRvIJt1vYmD6U", "plus_code": {"global_code": "7J4VPRQJ+FJ", "compound_code": "PRQJ+FJ Bagalur Hudco, Tamil Nadu, India"}, "vicinity": "Bagalur HUDCO Road, Bagalur Hudco", "scope": "GOOGLE", "business_status": "OPERATIONAL", "types": ["local_government_office", "point_of_interest", "establishment"], "icon": "https://maps.gstatic.com/mapfiles/place_api/icons/v1/png_71/civic_building-71.png"}, {"name": "TNHB Officr", "reference": "ChIJzQGpB89wrjsRmi1JyvmVuLU", "geometry": {"location": {"lat": 12.7380547, "lng": 77.8276034}, "viewport": {"northeast": {"lat": 12.7393856802915, "lng": 77.82899098029151}, "southwest": {"lat": 12.7366877197085, "lng": 77.82629301970849}}}, "place_id": "ChIJzQGpB89wrjsRmi1JyvmVuLU", "plus_code": {"global_code": "7J4VPRQH+62", "compound_code": "PRQH+62 Hosur, Tamil Nadu, India"}, "vicinity": "635109, Surya Nagar, Sri Nagar, Hosur", "scope": "GOOGLE", "business_status": "OPERATIONAL", "types": ["local_government_office", "point_of_interest", "establishment"], "icon": "https://maps.gstatic.com/mapfiles/place_api/icons/v1/png_71/civic_building-71.png"}]}