{"status": "OK", "html_attributions": [], "results": [{"rating": 4.1, "user_ratings_total": 26, "name": "Karnataka Forest Department", "reference": "ChIJ3S1LK48-rjsRbCk9SG6AUeE", "geometry": {"location": {"lat": 12.9492842, "lng": 77.5103433}, "viewport": {"northeast": {"lat": 12.9504247302915, "lng": 77.5116800302915}, "southwest": {"lat": 12.9477267697085, "lng": 77.5089820697085}}}, "place_id": "ChIJ3S1LK48-rjsRbCk9SG6AUeE", "plus_code": {"global_code": "7J4VWGX6+P4", "compound_code": "WGX6+P4 Bengaluru, Karnataka, India"}, "vicinity": "Gnana Bharathi Main Road, Gnana Bharathi, Bengaluru", "photos": [{"photo_reference": "ATtYBwL53fxKcjHBI3ED7OlOq90DvaTApuMVjGHY2ReJpEhW0VAevppcB5uJhkbUO8slOQaV3dCIIfDyVEdUXszRMgYkNRhdR_iWl23czFE0YUif2ZmsXUdO06n6N-Vb0Hgud8yerOw25pJ13G9lt7N462w_PWn3iiVFNttURNuKbO2x3xFK", "width": 3264, "html_attributions": ["<a href=\"https://maps.google.com/maps/contrib/106677586511938914792\">Sohan Philip</a>"], "height": 2448}], "scope": "GOOGLE", "business_status": "OPERATIONAL", "types": ["local_government_office", "park", "point_of_interest", "establishment"], "icon": "https://maps.gstatic.com/mapfiles/place_api/icons/v1/png_71/civic_building-71.png"}, {"rating": 5, "user_ratings_total": 2, "name": "Planned Wedding", "reference": "ChIJTdIjKoE-rjsRDN_4iduOKdU", "geometry": {"location": {"lat": 12.9579993, "lng": 77.5130952}, "viewport": {"northeast": {"lat": 12.9593488802915, "lng": 77.51444143029151}, "southwest": {"lat": 12.9566509197085, "lng": 77.51174346970849}}}, "opening_hours": {"open_now": true}, "place_id": "ChIJTdIjKoE-rjsRDN_4iduOKdU", "plus_code": {"global_code": "7J4VXG57+56", "compound_code": "XG57+56 Bengaluru, Karnataka, India"}, "vicinity": "Sai Krishna # 620 2nd Cross, NGEF Layout Nrupatunganagar, Bengaluru", "photos": [{"photo_reference": "ATtYBwJwCuF7m9HfZyg56IJ4cf84e7rFmvywnZ09k3BveR4vALAPqhfOepoXUIUMjsyZpe5uM5Tvo39XrUrUqs8E_rctTO7IKTBa0sGSDj74cVvrRO6kEohJ2Dcj8asdgWXZCfT0gLKHHjxuAQijVa9YSCNujO0mHr_BuGGmAICGVnCGIuY5", "width": 517, "html_attributions": ["<a href=\"https://maps.google.com/maps/contrib/107103685888636309418\">Planned Wedding</a>"], "height": 517}], "scope": "GOOGLE", "business_status": "OPERATIONAL", "types": ["local_government_office", "point_of_interest", "establishment"], "icon": "https://maps.gstatic.com/mapfiles/place_api/icons/v1/png_71/generic_business-71.png"}, {"rating": 5, "user_ratings_total": 1, "name": "Jnanabharathi New Police Station", "reference": "ChIJo5qi9Zg_rjsRmt1KU1YXCII", "geometry": {"location": {"lat": 12.950542, "lng": 77.50047479999999}, "viewport": {"northeast": {"lat": 12.9518971802915, "lng": 77.50184163029151}, "southwest": {"lat": 12.9491992197085, "lng": 77.49914366970849}}}, "place_id": "ChIJo5qi9Zg_rjsRmt1KU1YXCII", "plus_code": {"global_code": "7J4VXG22+65", "compound_code": "XG22+65 Bengaluru, Karnataka, India"}, "vicinity": "Bangalore University Road, Mariyappana Palya, Gnana Bharathi, Bengaluru", "photos": [{"photo_reference": "ATtYBwJtOwNrGxRNNxYyPv8vTNb-4OSHD45lSgjP2eWPDFMEbN2qm4TkU0HBvOtnMrTPA3vwmg1VKK0l1ZMYryUENOOBA5Tr1Fu4xCDSFkDKY1QzXdGV-qzq_BlWOvMovbPZiFSJp-GzIz_SQooCt-6858aBDA-bcOqSX73jZvlsspA5ZGg8", "width": 4032, "html_attributions": ["<a href=\"https://maps.google.com/maps/contrib/101761885606207372746\">vaibhav kumar</a>"], "height": 3024}], "scope": "GOOGLE", "business_status": "OPERATIONAL", "types": ["police", "local_government_office", "point_of_interest", "establishment"], "icon": "https://maps.gstatic.com/mapfiles/place_api/icons/v1/png_71/police-71.png"}, {"rating": 5, "user_ratings_total": 1, "name": "Centre For Transportation Engineering", "reference": "ChIJXxKAS1A_rjsRz9L2Vq-DxT4", "geometry": {"location": {"lat": 12.9422023, "lng": 77.50407969999999}, "viewport": {"northeast": {"lat": 12.9434986302915, "lng": 77.5054621302915}, "southwest": {"lat": 12.9408006697085, "lng": 77.5027641697085}}}, "place_id": "ChIJXxKAS1A_rjsRz9L2Vq-DxT4", "plus_code": {"global_code": "7J4VWGR3+VJ", "compound_code": "WGR3+VJ Bengaluru, Karnataka, India"}, "vicinity": "Jnana Jyothi Nagar, Gnana Bharathi, Bengaluru", "scope": "GOOGLE", "business_status": "OPERATIONAL", "types": ["local_government_office", "point_of_interest", "establishment"], "icon": "https://maps.gstatic.com/mapfiles/place_api/icons/v1/png_71/civic_building-71.png"}, {"rating": 4.3, "user_ratings_total": 3, "name": "Rk mars bhoomi surveys", "reference": "ChIJ62vro5s-rjsR2vcsFc57i74", "geometry": {"location": {"lat": 12.9552599, "lng": 77.5012879}, "viewport": {"northeast": {"lat": 12.9566653802915, "lng": 77.50266148029151}, "southwest": {"lat": 12.9539674197085, "lng": 77.4999635197085}}}, "place_id": "ChIJ62vro5s-rjsR2vcsFc57i74", "plus_code": {"global_code": "7J4VXG42+4G", "compound_code": "XG42+4G Bengaluru, Karnataka, India"}, "vicinity": "10th Main Road, Adarsh Palm Retreat, 2nd Cross Road, Puttappa layout, New Tippasandra, Bengaluru", "photos": [{"photo_reference": "ATtYBwLv3CuihEWA-HI2oRxsYMllXXwtsYrUbjH7Odela3ljsraP0RAV-TbaKrwxEXbm31kbaqdbugPr2E78zd2p9UO14GzwC3oG7Gb45Skrq3ifHXbPbH4jKQfqmZCqXuNwzCZPadxGZ95aqcu71n0R8QIUsWC47KdghLOA28eZz_7l51J7", "width": 4608, "html_attributions": ["<a href=\"https://maps.google.com/maps/contrib/116176412254705989916\">Nandan Gowda</a>"], "height": 3456}], "scope": "GOOGLE", "business_status": "OPERATIONAL", "types": ["local_government_office", "point_of_interest", "establishment"], "icon": "https://maps.gstatic.com/mapfiles/place_api/icons/v1/png_71/civic_building-71.png"}, {"rating": 2.1, "user_ratings_total": 18, "name": "BBMP Ward Office", "reference": "ChIJbeN55oI-rjsRB9dI9kkyMTg", "geometry": {"location": {"lat": 12.9607387, "lng": 77.50634819999999}, "viewport": {"northeast": {"lat": 12.9620142302915, "lng": 77.5077120802915}, "southwest": {"lat": 12.9593162697085, "lng": 77.50501411970849}}}, "opening_hours": {"open_now": true}, "place_id": "ChIJbeN55oI-rjsRB9dI9kkyMTg", "plus_code": {"global_code": "7J4VXG64+7G", "compound_code": "XG64+7G Bengaluru, Karnataka, India"}, "vicinity": "2nd Cross, 14th Block,, Nagarbhavi 2nd Stage, 80 Feet Main Road, 14th Block, Naagarabhaavi, Bengaluru", "photos": [{"photo_reference": "ATtYBwKJqvlLTtwIswfgkhze4xcr8I863w6ShFWk5xc-cqO1rgP7R6_0ntkWzcXIuc1SfTKW9Y-OoXWMTwfj6daomWWYZfyJsHHRqaj-SZFQZ6xxmu6_-YVwkrBuSC1IeYTSO5wtdhUKbrBoM388CbLxy6jwGtvh7Ej46ybKlB28pqhyME_q", "width": 4608, "html_attributions": ["<a href=\"https://maps.google.com/maps/contrib/102317439470032690256\">diker joshi</a>"], "height": 3456}], "scope": "GOOGLE", "business_status": "OPERATIONAL", "types": ["accounting", "finance", "local_government_office", "point_of_interest", "establishment"], "icon": "https://maps.gstatic.com/mapfiles/place_api/icons/v1/png_71/civic_building-71.png"}]}