{"status": "OK", "html_attributions": [], "results": [{"rating": 3, "user_ratings_total": 18, "name": "State Bank of India", "reference": "ChIJc7sKwo0wDTkRQnCB0IeuM8g", "geometry": {"location": {"lat": 28.2133463, "lng": 76.9578645}, "viewport": {"northeast": {"lat": 28.21469533029151, "lng": 76.95920713029152}, "southwest": {"lat": 28.2119973697085, "lng": 76.95650916970851}}}, "opening_hours": {"open_now": true}, "place_id": "ChIJc7sKwo0wDTkRQnCB0IeuM8g", "plus_code": {"global_code": "7JWR6X75+84", "compound_code": "6X75+84 Tauru, Haryana, India"}, "vicinity": "First Floor, Main Bazar, Near New Bus Stand, Mewat, Tauru", "photos": [{"photo_reference": "CmRaAAAA914KmcIkUZEZQiFIn5vaNUaNayZgxnVYw5qQ39o17ANZ9qnHmQ_rmVTycZ8rxxneApBCUFCNLDHM6vMaR6_6kLAvJsp1Ta2GWImpFY4yiy6cShfyzTEpdXxH3Hpy-5inEhB86sKdj6YFytEu4HNNlKd9GhSg80Xh1ZFoO-Icc0vvVNRko5WDuA", "width": 3000, "html_attributions": ["<a href=\"https://maps.google.com/maps/contrib/103247570603632942797\">S\u00f5l\u00ee\u00f1d\u00ear G\u00fbjj\u00e5r</a>"], "height": 4000}], "scope": "GOOGLE", "business_status": "OPERATIONAL", "types": ["bank", "finance", "point_of_interest", "establishment"], "icon": "https://maps.gstatic.com/mapfiles/place_api/icons/v1/png_71/bank-71.png"}, {"rating": 2.7, "user_ratings_total": 7, "name": "Allahabad Bank", "reference": "ChIJB53s6Y0wDTkRX9PVbigqfmI", "geometry": {"location": {"lat": 28.2125533, "lng": 76.9541417}, "viewport": {"northeast": {"lat": 28.21398523029151, "lng": 76.9554678302915}, "southwest": {"lat": 28.2112872697085, "lng": 76.95276986970849}}}, "opening_hours": {"open_now": true}, "place_id": "ChIJB53s6Y0wDTkRX9PVbigqfmI", "plus_code": {"global_code": "7JWR6X73+2M", "compound_code": "6X73+2M Tauru, Haryana, India"}, "vicinity": "Ground floor at hukum chand market ,new bus stand, Tauru", "scope": "GOOGLE", "business_status": "OPERATIONAL", "types": ["bank", "finance", "point_of_interest", "establishment"], "icon": "https://maps.gstatic.com/mapfiles/place_api/icons/v1/png_71/bank-71.png"}, {"rating": 4, "user_ratings_total": 1, "name": "HDFC Bank ATM", "reference": "ChIJX1nZuY0wDTkRmYXv9jOXZxM", "geometry": {"location": {"lat": 28.21196, "lng": 76.954923}, "viewport": {"northeast": {"lat": 28.2134151302915, "lng": 76.9564215802915}, "southwest": {"lat": 28.2107171697085, "lng": 76.9537236197085}}}, "opening_hours": {"open_now": true}, "place_id": "ChIJX1nZuY0wDTkRmYXv9jOXZxM", "plus_code": {"global_code": "7JWR6X63+QX", "compound_code": "6X63+QX Tauru, Haryana, India"}, "vicinity": "HDFC Bank ATM, WN 1, Mohd Pur Rd, Taoru, Mewat, Gurgaon", "scope": "GOOGLE", "business_status": "OPERATIONAL", "types": ["atm", "bank", "finance", "point_of_interest", "establishment"], "icon": "https://maps.gstatic.com/mapfiles/place_api/icons/v1/png_71/atm-71.png"}, {"rating": 4.1, "user_ratings_total": 8, "name": "HDFC Bank", "reference": "ChIJNX_ZuY0wDTkRWeqRfKz4qcE", "geometry": {"location": {"lat": 28.21196699999999, "lng": 76.954923}, "viewport": {"northeast": {"lat": 28.2134207802915, "lng": 76.9564196802915}, "southwest": {"lat": 28.2107228197085, "lng": 76.95372171970848}}}, "opening_hours": {"open_now": true}, "place_id": "ChIJNX_ZuY0wDTkRWeqRfKz4qcE", "plus_code": {"global_code": "7JWR6X63+QX", "compound_code": "6X63+QX Tauru, Haryana, India"}, "vicinity": "HDFC Bank LTD WN 1,Mohd Pur Rd, Gurgaon, Tauru", "photos": [{"photo_reference": "CmRaAAAAqR4CP9CPEwwNwSl6e6ZOqHWXeYa6bcBZ8NpK6_zzpyfoMFNhVPMkYX4a1zYnF9LUA5gyv6wRcwUgriCD_a6fGdgjzlNc_xbE9ddCyWhJLaIFa1bjVlx4VRmQEi5nLn4tEhDFTAJh54uI9AQPTl3jo14tGhRLyuLxSDDNTLX1xjYFnTUvAdlUNw", "width": 1000, "html_attributions": ["<a href=\"https://maps.google.com/maps/contrib/112385800022684830512\">HDFC Bank</a>"], "height": 563}], "scope": "GOOGLE", "business_status": "OPERATIONAL", "types": ["bank", "finance", "point_of_interest", "establishment"], "icon": "https://maps.gstatic.com/mapfiles/place_api/icons/v1/png_71/bank-71.png"}, {"rating": 3.7, "user_ratings_total": 10, "name": "UCO Bank", "reference": "ChIJqfpNK4wwDTkRcUiMaps1_WQ", "geometry": {"location": {"lat": 28.2135759, "lng": 76.9556733}, "viewport": {"northeast": {"lat": 28.2149057302915, "lng": 76.95697083029151}, "southwest": {"lat": 28.2122077697085, "lng": 76.9542728697085}}}, "opening_hours": {"open_now": true}, "place_id": "ChIJqfpNK4wwDTkRcUiMaps1_WQ", "plus_code": {"global_code": "7JWR6X74+C7", "compound_code": "6X74+C7 Tauru, Haryana, India"}, "vicinity": "Sohna-Tauru Road, Ward No. 2, Mewat District, Tauru", "scope": "GOOGLE", "business_status": "OPERATIONAL", "types": ["bank", "finance", "point_of_interest", "establishment"], "icon": "https://maps.gstatic.com/mapfiles/place_api/icons/v1/png_71/bank-71.png"}, {"name": "UCO Bank", "reference": "ChIJW6FMjo4wDTkRjr2BRNXUyKg", "geometry": {"location": {"lat": 28.214671, "lng": 76.95627069999999}, "viewport": {"northeast": {"lat": 28.21597833029151, "lng": 76.95761918029149}, "southwest": {"lat": 28.2132803697085, "lng": 76.95492121970848}}}, "opening_hours": {"open_now": true}, "place_id": "ChIJW6FMjo4wDTkRjr2BRNXUyKg", "plus_code": {"global_code": "7JWR6X74+VG", "compound_code": "6X74+VG Tauru, Haryana, India"}, "vicinity": "149, Tauru Road, Tauru", "scope": "GOOGLE", "business_status": "OPERATIONAL", "types": ["bank", "finance", "point_of_interest", "establishment"], "icon": "https://maps.gstatic.com/mapfiles/place_api/icons/v1/png_71/bank-71.png"}, {"rating": 3, "user_ratings_total": 3, "name": "HDFC Bank ATM", "reference": "ChIJ3eA8EpIwDTkRUd4FJTiAPSM", "geometry": {"location": {"lat": 28.212225, "lng": 76.951961}, "viewport": {"northeast": {"lat": 28.2135887302915, "lng": 76.95329773029152}, "southwest": {"lat": 28.2108907697085, "lng": 76.9505997697085}}}, "opening_hours": {"open_now": true}, "place_id": "ChIJ3eA8EpIwDTkRUd4FJTiAPSM", "plus_code": {"global_code": "7JWR6X62+VQ", "compound_code": "6X62+VQ Tauru, Haryana, India"}, "vicinity": "HDFC Bank ATM, WN 7, Sohna Rewari Rd, Tawroo Mewat, Gurgaon", "scope": "GOOGLE", "business_status": "OPERATIONAL", "types": ["atm", "bank", "finance", "point_of_interest", "establishment"], "icon": "https://maps.gstatic.com/mapfiles/place_api/icons/v1/png_71/atm-71.png"}, {"rating": 3.3, "user_ratings_total": 8, "name": "Oriental Bank Of Commerce", "reference": "ChIJBRQNv5IwDTkRDsfTddHr9V8", "geometry": {"location": {"lat": 28.2087838, "lng": 76.9514219}, "viewport": {"northeast": {"lat": 28.21016653029151, "lng": 76.9528065802915}, "southwest": {"lat": 28.2074685697085, "lng": 76.95010861970849}}}, "opening_hours": {"open_now": true}, "place_id": "ChIJBRQNv5IwDTkRDsfTddHr9V8", "plus_code": {"global_code": "7JWR6X52+GH", "compound_code": "6X52+GH Tauru, Haryana, India"}, "vicinity": "Tauru", "scope": "GOOGLE", "business_status": "OPERATIONAL", "types": ["bank", "finance", "point_of_interest", "establishment"], "icon": "https://maps.gstatic.com/mapfiles/place_api/icons/v1/png_71/bank-71.png"}, {"rating": 3.9, "user_ratings_total": 11, "name": "Punjab National Bank", "reference": "ChIJPXEXXJIwDTkR4PN96exZtQ8", "geometry": {"location": {"lat": 28.2108016, "lng": 76.9510602}, "viewport": {"northeast": {"lat": 28.2121551802915, "lng": 76.95239598029151}, "southwest": {"lat": 28.2094572197085, "lng": 76.94969801970849}}}, "opening_hours": {"open_now": true}, "place_id": "ChIJPXEXXJIwDTkR4PN96exZtQ8", "plus_code": {"global_code": "7JWR6X62+8C", "compound_code": "6X62+8C Tauru, Haryana, India"}, "vicinity": "Rewari-Sohna Road, Tauru", "scope": "GOOGLE", "business_status": "OPERATIONAL", "types": ["bank", "finance", "point_of_interest", "establishment"], "icon": "https://maps.gstatic.com/mapfiles/place_api/icons/v1/png_71/bank-71.png"}, {"name": "SyndicateBank Tauru Udyami Mitra Branch", "reference": "ChIJNZuVcvoxDTkROrtJUBmWi8Y", "geometry": {"location": {"lat": 28.213648, "lng": 76.956811}, "viewport": {"northeast": {"lat": 28.2149745802915, "lng": 76.9581665302915}, "southwest": {"lat": 28.2122766197085, "lng": 76.9554685697085}}}, "place_id": "ChIJNZuVcvoxDTkROrtJUBmWi8Y", "plus_code": {"global_code": "7JWR6X74+FP", "compound_code": "6X74+FP Tauru, Haryana, India"}, "vicinity": "Ward No. 3, Main Market, Tauru", "scope": "GOOGLE", "business_status": "OPERATIONAL", "types": ["bank", "finance", "point_of_interest", "establishment"], "icon": "https://maps.gstatic.com/mapfiles/place_api/icons/v1/png_71/bank-71.png"}, {"rating": 5, "user_ratings_total": 2, "name": "V. K. Building Materials", "reference": "ChIJ6Zl8pZIwDTkRpjOHHrDuPus", "geometry": {"location": {"lat": 28.2083691, "lng": 76.9522046}, "viewport": {"northeast": {"lat": 28.2096761302915, "lng": 76.95350193029151}, "southwest": {"lat": 28.2069781697085, "lng": 76.95080396970849}}}, "opening_hours": {"open_now": true}, "place_id": "ChIJ6Zl8pZIwDTkRpjOHHrDuPus", "plus_code": {"global_code": "7JWR6X52+8V", "compound_code": "6X52+8V Tauru, Haryana, India"}, "vicinity": "chandrawti school, road, Tauru", "photos": [{"photo_reference": "CmRaAAAA6fPj69XViGKkXsMYFuABHdpiyinZHzA1tXx4sLofeFlnksHaUOy9U2ttcObjsa3NdYKEMUTFdGlQsQt-qKaMTw1yhyuuO8Px6WzNpkimOuYwrUXyly1qPLot4i3YN1StEhCaSeuGVtYsqU19pRgUACGdGhQ7DWIXTjIKulRRsNpBpBBMcOsDfA", "width": 4608, "html_attributions": ["<a href=\"https://maps.google.com/maps/contrib/105519247177434365565\">Nicky Bansal</a>"], "height": 2592}], "scope": "GOOGLE", "business_status": "OPERATIONAL", "types": ["bank", "finance", "point_of_interest", "establishment"], "icon": "https://maps.gstatic.com/mapfiles/place_api/icons/v1/png_71/bank-71.png"}, {"rating": 3, "user_ratings_total": 1, "name": "PNB BANK MITRE HARI RAM", "reference": "ChIJw7COiZIwDTkR2Y2YgBcbaUA", "geometry": {"location": {"lat": 28.2103424, "lng": 76.9517281}, "viewport": {"northeast": {"lat": 28.2118118302915, "lng": 76.9527386802915}, "southwest": {"lat": 28.2091138697085, "lng": 76.95004071970848}}}, "place_id": "ChIJw7COiZIwDTkR2Y2YgBcbaUA", "plus_code": {"global_code": "7JWR6X62+4M", "compound_code": "6X62+4M Tauru, Haryana, India"}, "vicinity": "Rewari - Sohna Road, Tauru", "scope": "GOOGLE", "business_status": "OPERATIONAL", "types": ["bank", "finance", "point_of_interest", "establishment"], "icon": "https://maps.gstatic.com/mapfiles/place_api/icons/v1/png_71/bank-71.png"}, {"name": "Janshakti Multi State Multi purpose Co-operative Socity LTD.Tauru", "reference": "ChIJjXEpFfIwDTkRSewkIGfr_d0", "geometry": {"location": {"lat": 28.2034764, "lng": 76.9540576}, "viewport": {"northeast": {"lat": 28.2048187302915, "lng": 76.9554505802915}, "southwest": {"lat": 28.2021207697085, "lng": 76.95275261970849}}}, "place_id": "ChIJjXEpFfIwDTkRSewkIGfr_d0", "plus_code": {"global_code": "7JWR6X33+9J", "compound_code": "6X33+9J Tauru, Haryana, India"}, "vicinity": "Major District Road 132, Tauru", "scope": "GOOGLE", "business_status": "OPERATIONAL", "types": ["bank", "finance", "point_of_interest", "establishment"], "icon": "https://maps.gstatic.com/mapfiles/place_api/icons/v1/png_71/bank-71.png"}, {"rating": 4.7, "user_ratings_total": 3, "name": "Sarva Haryana Gramin Bank Tauru", "reference": "ChIJ3-461pEwDTkRTbnaVOKETYU", "geometry": {"location": {"lat": 28.2158135, "lng": 76.9527312}, "viewport": {"northeast": {"lat": 28.2169430302915, "lng": 76.9537863802915}, "southwest": {"lat": 28.2142450697085, "lng": 76.95108841970848}}}, "place_id": "ChIJ3-461pEwDTkRTbnaVOKETYU", "plus_code": {"global_code": "7JWR6X83+83", "compound_code": "6X83+83 Tauru, Haryana, India"}, "vicinity": "Tauru", "photos": [{"photo_reference": "CmRaAAAA0epXzsS0hGiRK2wm3q_i1NuKHuIVYCcN-wesQwdYAIMAiv8GV0E6q28e8Ma_1BNe0CBtaTArYxQ58fG5-2soRr0ary0IR7lJSscVsngJTmSWQ-glRt0HAki724bDRM0cEhD5wBVC8htjlWKqzDY2eA5rGhQVx1o7NhpTTjCJbibS4saYvmzmVA", "width": 3000, "html_attributions": ["<a href=\"https://maps.google.com/maps/contrib/100429870846470908972\">n.s \u092e\u0947\u0935\u093e\u0924\u0940 \u0938\u094d\u091f\u0942\u0921\u093f\u092f\u094b</a>"], "height": 4000}], "scope": "GOOGLE", "business_status": "OPERATIONAL", "types": ["bank", "finance", "point_of_interest", "establishment"], "icon": "https://maps.gstatic.com/mapfiles/place_api/icons/v1/png_71/bank-71.png"}, {"name": "CANARA BANK (formerly Syndicate Bank)", "reference": "ChIJl88VUm8xDTkRCihnwvI72zk", "geometry": {"location": {"lat": 28.2127111, "lng": 76.9530614}, "viewport": {"northeast": {"lat": 28.2140600802915, "lng": 76.95441038029149}, "southwest": {"lat": 28.21136211970849, "lng": 76.95171241970849}}}, "place_id": "ChIJl88VUm8xDTkRCihnwvI72zk", "plus_code": {"global_code": "7JWR6X73+36", "compound_code": "6X73+36 Tauru, Haryana, India"}, "vicinity": "WARD NO, 14, Rewari - Sohna Road, Tauru", "scope": "GOOGLE", "business_status": "OPERATIONAL", "types": ["bank", "finance", "point_of_interest", "establishment"], "icon": "https://maps.gstatic.com/mapfiles/place_api/icons/v1/png_71/bank-71.png"}, {"name": "CANARA BANK - GENERAL BRANCH", "reference": "ChIJ64bRBXExDTkRPwsCz6d-9eM", "geometry": {"location": {"lat": 28.2093126, "lng": 76.95082300000001}, "viewport": {"northeast": {"lat": 28.2106998802915, "lng": 76.95220953029153}, "southwest": {"lat": 28.2080019197085, "lng": 76.9495115697085}}}, "place_id": "ChIJ64bRBXExDTkRPwsCz6d-9eM", "plus_code": {"global_code": "7JWR6X52+P8", "compound_code": "6X52+P8 Tauru, Haryana, India"}, "vicinity": "BHIWADI-SOHNA ROAD, WARD NO.7 TAURU TAORU, Tauru", "scope": "GOOGLE", "business_status": "OPERATIONAL", "types": ["bank", "finance", "point_of_interest", "establishment"], "icon": "https://maps.gstatic.com/mapfiles/place_api/icons/v1/png_71/bank-71.png"}]}