{"status": "OK", "next_page_token": "AcnaJv0KPx8R3pAAxAyZUfQ_Gv-agbSKsn7qWd8iLenLEm_frRGS6fZE_tFcO0onZWk7J-nUZjflwvSVGeFmljOZLJ1zLOIJW1KTeh6hsN345i0OcLifWJgx5T5lUprCO5lGmzXBEgpxzF_wk9TyS4wabjvqEIK-OKaRiHbHUVq1pGqD6KBsV1EwMYvbXlpGaMEjJuZgmuJQAoZV__J5Sz4NOAXyY0vtt9K0lpZ-x7gj_0_WTaFI0jU0Ixi8bZTFmyN1dZf3bZblVNeBgyqXFSqMT8xjWjrhyKQAAK2TvDzwmQqfNZ93g6snCiIduzKz5o4gasQKhqjAIayA6HK-AiTJZMefIyJcepn_ivMC940llCqCL1jgcNLkSYb2sZ82wDcqCJZ3x-jMCmKeQ4zTnqsEwYH7BvXi6sGD-TN3lEjhz-c", "html_attributions": [], "results": [{"rating": 2.9, "user_ratings_total": 40, "name": "Corporation Bank", "reference": "ChIJ1fz_v4wXDTkRTaqDSN2iFic", "geometry": {"location": {"lat": 28.4431262, "lng": 77.0040729}, "viewport": {"northeast": {"lat": 28.4446002802915, "lng": 77.0055275802915}, "southwest": {"lat": 28.4419023197085, "lng": 77.00282961970849}}}, "opening_hours": {"open_now": true}, "place_id": "ChIJ1fz_v4wXDTkRTaqDSN2iFic", "plus_code": {"global_code": "7JWVC2V3+7J", "compound_code": "C2V3+7J Gurugram, Haryana, India"}, "vicinity": "Meenakshi Public School, Khandsa Road, Housing Board Colony, Gurugram", "photos": [{"photo_reference": "CmRaAAAANJgiCdw83461_MNCFmd4MIa8MPcs7Em1_szmK_msKo5NyaOoiBfadPXDSHV_o4jCFpnVXO12vfEvlO_ivEV0FTlxe3-23hcJrS3qnqF78uS8wlHL0GjxB_geCZYHFd3MEhATd4Pl6Pykb1TCPBtxlEcrGhS2cLY1WJz059KcPPEMWRzSx1-rJg", "width": 1960, "html_attributions": ["<a href=\"https://maps.google.com/maps/contrib/114564995224311042830\">ANKIT MISHRA</a>"], "height": 4032}], "scope": "GOOGLE", "business_status": "OPERATIONAL", "types": ["bank", "atm", "finance", "point_of_interest", "establishment"], "icon": "https://maps.gstatic.com/mapfiles/place_api/icons/v1/png_71/bank-71.png"}, {"rating": 2.4, "user_ratings_total": 9, "name": "Oriental Bank of Commerce", "reference": "ChIJQ2MtoO0WDTkRuYuZCz8YmNo", "geometry": {"location": {"lat": 28.4536258, "lng": 77.000321}, "viewport": {"northeast": {"lat": 28.4550088802915, "lng": 77.00167093029151}, "southwest": {"lat": 28.4523109197085, "lng": 76.9989729697085}}}, "opening_hours": {"open_now": true}, "place_id": "ChIJQ2MtoO0WDTkRuYuZCz8YmNo", "plus_code": {"global_code": "7JWVF232+F4", "compound_code": "F232+F4 Gurugram, Haryana, India"}, "vicinity": "Gyan Devi Complex, 763/25, Basai Road, Gurugram", "photos": [{"photo_reference": "CmRaAAAAwhgwSEoHoiekwCkGr4Oi3K6JSV9_9Z_8DIHNxjVcj5mAXiccgakuhcifJjqXGzsrLzx5m13vm0nNlC2vSD64TNvd_k7vPE1Yb7-dwm-tEt4asOYEHAV9-DZJPn_mfgjuEhAT--RpOo_UmdL86jH0hRDsGhRzK2kZ0gY1imvKt_NclFN6FCtj-Q", "width": 1080, "html_attributions": ["<a href=\"https://maps.google.com/maps/contrib/116123912433152600435\">Ashok lakhera</a>"], "height": 1920}], "scope": "GOOGLE", "business_status": "OPERATIONAL", "types": ["bank", "finance", "point_of_interest", "establishment"], "icon": "https://maps.gstatic.com/mapfiles/place_api/icons/v1/png_71/bank-71.png"}, {"rating": 4, "user_ratings_total": 1, "name": "Axis Bank ATM", "reference": "ChIJgd-7afMXDTkRZxdjBk7MNrE", "geometry": {"location": {"lat": 28.45034519999999, "lng": 76.99541479999999}, "viewport": {"northeast": {"lat": 28.4517063802915, "lng": 76.9967400802915}, "southwest": {"lat": 28.44900841970849, "lng": 76.9940421197085}}}, "opening_hours": {"open_now": true}, "place_id": "ChIJgd-7afMXDTkRZxdjBk7MNrE", "plus_code": {"global_code": "7JWRFX2W+45", "compound_code": "FX2W+45 Gurugram, Haryana, India"}, "vicinity": "10A, SCO 20, Ground Floor & Basement Sector, Near, Hero Honda Road, Chowk, Gurugram", "photos": [{"photo_reference": "CmRaAAAAg97dbZ5k5B5P39oY59UnA56aktbD7wV5juKmPXICxe0mPu3QzFnO61EU2ZfLl3qlomV4V3sWw8GX2giN7plzBr5nxqHl_Km8WRwMCHAjqgkLxLMZXEw7RMYp9lZFfdHWEhBIJ6L2jL2k3dn0bGDmeu0mGhTAqPYdzs55894S_T8jsREcMMg6LQ", "width": 4160, "html_attributions": ["<a href=\"https://maps.google.com/maps/contrib/102021080402394604881\">Ajeybharat Digital Media</a>"], "height": 3120}], "scope": "GOOGLE", "business_status": "OPERATIONAL", "types": ["atm", "bank", "finance", "point_of_interest", "establishment"], "icon": "https://maps.gstatic.com/mapfiles/place_api/icons/v1/png_71/atm-71.png"}, {"rating": 3, "user_ratings_total": 1, "name": "Axis Bank ATM", "reference": "ChIJMdy-szoYDTkRbYORslBk4i4", "geometry": {"location": {"lat": 28.4501799, "lng": 76.99522569999999}, "viewport": {"northeast": {"lat": 28.4515282802915, "lng": 76.99663818029151}, "southwest": {"lat": 28.4488303197085, "lng": 76.99394021970849}}}, "opening_hours": {"open_now": true}, "place_id": "ChIJMdy-szoYDTkRbYORslBk4i4", "plus_code": {"global_code": "7JWRFX2W+33", "compound_code": "FX2W+33 Gurugram, Haryana, India"}, "vicinity": "20, Ground Floor & Basement, SCO, near Hero Honda, Sector 10A, Gurugram", "scope": "GOOGLE", "business_status": "OPERATIONAL", "types": ["atm", "bank", "finance", "point_of_interest", "establishment"], "icon": "https://maps.gstatic.com/mapfiles/place_api/icons/v1/png_71/atm-71.png"}, {"rating": 2, "user_ratings_total": 4, "name": "HDFC Bank ATM", "reference": "ChIJzbaq7g8ZDTkRdruiLPSC2l4", "geometry": {"location": {"lat": 28.4453954, "lng": 77.0001922}, "viewport": {"northeast": {"lat": 28.4467733302915, "lng": 77.0014977802915}, "southwest": {"lat": 28.4440753697085, "lng": 76.99879981970848}}}, "opening_hours": {"open_now": true}, "place_id": "ChIJzbaq7g8ZDTkRdruiLPSC2l4", "plus_code": {"global_code": "7JWVC2W2+53", "compound_code": "C2W2+53 Gurugram, Haryana, India"}, "vicinity": "No 78, Ground Floor, Plot, Sector 18, Gurugram", "photos": [{"photo_reference": "CmRaAAAAuootb2G0TqKEpa4_fzAHj7UABHOKdSZwOV9e1J3WTal1r_POBHGTKoISutxL14Zc_Nl0P3Zl-gXt-n_F5XQAUBKRJE3FtPOUmH6J_cYoQIGXYMAgOGv_EjXYwFD7K5eGEhAZglvCO1bFsfyMUml8i5J2GhTxG7oaXghmVDDMRKsGWIF_ekZdRQ", "width": 581, "html_attributions": ["<a href=\"https://maps.google.com/maps/contrib/111004878511469568752\">Satish Baghel</a>"], "height": 1032}], "scope": "GOOGLE", "business_status": "OPERATIONAL", "types": ["atm", "bank", "finance", "point_of_interest", "establishment"], "icon": "https://maps.gstatic.com/mapfiles/place_api/icons/v1/png_71/atm-71.png"}, {"rating": 3.8, "user_ratings_total": 6, "name": "Bank Of Maharashtra", "reference": "ChIJC0SXN5QXDTkR-qNg8a7NYwk", "geometry": {"location": {"lat": 28.445467, "lng": 76.9909938}, "viewport": {"northeast": {"lat": 28.4468653802915, "lng": 76.9923085302915}, "southwest": {"lat": 28.4441674197085, "lng": 76.98961056970849}}}, "opening_hours": {"open_now": true}, "place_id": "ChIJC0SXN5QXDTkR-qNg8a7NYwk", "plus_code": {"global_code": "7JWRCXWR+59", "compound_code": "CXWR+59 Gurugram, Haryana, India"}, "vicinity": "Pataudi Road, Sector 10B, Sector 37, Gurugram", "scope": "GOOGLE", "business_status": "OPERATIONAL", "types": ["bank", "finance", "point_of_interest", "establishment"], "icon": "https://maps.gstatic.com/mapfiles/place_api/icons/v1/png_71/bank-71.png"}, {"rating": 1, "user_ratings_total": 1, "name": "HDFC Bank ATM", "reference": "ChIJl6r2niAYDTkR58fmihGNhbc", "geometry": {"location": {"lat": 28.446962, "lng": 77.010587}, "viewport": {"northeast": {"lat": 28.4483419302915, "lng": 77.01195638029151}, "southwest": {"lat": 28.4456439697085, "lng": 77.0092584197085}}}, "opening_hours": {"open_now": true}, "place_id": "ChIJl6r2niAYDTkR58fmihGNhbc", "plus_code": {"global_code": "7JWVC2W6+Q6", "compound_code": "C2W6+Q6 Gurugram, Haryana, India"}, "vicinity": "HDFC Bank ATM, Shakti Park, Gurugram", "photos": [{"photo_reference": "CmRaAAAA9fo487G0ii6lEIsHxviC2OHBk8IwRhak-4cNFgtR4nzoPUpQEmfPJhYz8QNnLNQkGvOUSYUZXiJGXACAjJyjhzreb5gFxVAcPacmP9Mn8fhCMufXUrBxvedUw4_ctwXTEhBNYJqawaEovtwdew-4KAZ-GhSdnclNDqSkrSPqOO7oLnESKfZdbw", "width": 1040, "html_attributions": ["<a href=\"https://maps.google.com/maps/contrib/114890255112638379811\">Reliance jio</a>"], "height": 585}], "scope": "GOOGLE", "business_status": "OPERATIONAL", "types": ["atm", "bank", "finance", "point_of_interest", "establishment"], "icon": "https://maps.gstatic.com/mapfiles/place_api/icons/v1/png_71/atm-71.png"}, {"name": "Axis Bank ATM", "reference": "ChIJm5cbwS8YDTkRMCFvkRMz118", "geometry": {"location": {"lat": 28.4574834, "lng": 76.9914802}, "viewport": {"northeast": {"lat": 28.4587916802915, "lng": 76.9928280802915}, "southwest": {"lat": 28.4560937197085, "lng": 76.9901301197085}}}, "opening_hours": {"open_now": true}, "place_id": "ChIJm5cbwS8YDTkRMCFvkRMz118", "plus_code": {"global_code": "7JWRFX4R+XH", "compound_code": "FX4R+XH Gurugram, Haryana, India"}, "vicinity": "Shop No, near Tirath Ram Hospital, 3, Basai Road, Sector 10, Gurugram", "scope": "GOOGLE", "business_status": "OPERATIONAL", "types": ["atm", "bank", "finance", "point_of_interest", "establishment"], "icon": "https://maps.gstatic.com/mapfiles/place_api/icons/v1/png_71/atm-71.png"}, {"rating": 2, "user_ratings_total": 2, "name": "HDFC Bank ATM", "reference": "ChIJ4UP7Pl89DTkR6ZMLG9aLNfs", "geometry": {"location": {"lat": 28.4444903, "lng": 77.0106613}, "viewport": {"northeast": {"lat": 28.4459882302915, "lng": 77.01209158029151}, "southwest": {"lat": 28.4432902697085, "lng": 77.00939361970849}}}, "opening_hours": {"open_now": true}, "place_id": "ChIJ4UP7Pl89DTkR6ZMLG9aLNfs", "plus_code": {"global_code": "7JWVC2V6+Q7", "compound_code": "C2V6+Q7 Gurugram, Haryana, India"}, "vicinity": "Khandsa Road, Urban Estate, Gurugram", "scope": "GOOGLE", "business_status": "OPERATIONAL", "types": ["atm", "bank", "finance", "point_of_interest", "establishment"], "icon": "https://maps.gstatic.com/mapfiles/place_api/icons/v1/png_71/atm-71.png"}, {"rating": 3.5, "user_ratings_total": 48, "name": "HDFC Bank", "reference": "ChIJa2pkdCAYDTkRhhGUwp_DKNs", "geometry": {"location": {"lat": 28.4433846, "lng": 77.00971930000001}, "viewport": {"northeast": {"lat": 28.4446935302915, "lng": 77.01107303029151}, "southwest": {"lat": 28.4419955697085, "lng": 77.0083750697085}}}, "opening_hours": {"open_now": true}, "place_id": "ChIJa2pkdCAYDTkRhhGUwp_DKNs", "plus_code": {"global_code": "7JWVC2V5+9V", "compound_code": "C2V5+9V Gurugram, Haryana, India"}, "vicinity": "Khandsa Road, Urban Estate, Gurugram", "photos": [{"photo_reference": "CmRaAAAAzWTzxCtN0QY4OjuSLlVDznmmwNjCWm3oBvJC3QaQJK3f_Wapo8toGGFAovlgpfQf97eYp3tuKWKkOlUFsZbwoilRr8n6E_XkAS7cwNeAaTwMZR0MByJCZD-omJ2qhuY5EhBFIiP91gUJqT0_pikWZWJ_GhQHgIWxpY5du6cOoRD67ASu3SNjWA", "width": 3000, "html_attributions": ["<a href=\"https://maps.google.com/maps/contrib/114977210850223331980\">RAJEEV KUMAR</a>"], "height": 4000}], "scope": "GOOGLE", "business_status": "OPERATIONAL", "types": ["bank", "finance", "point_of_interest", "establishment"], "icon": "https://maps.gstatic.com/mapfiles/place_api/icons/v1/png_71/bank-71.png"}, {"rating": 3.2, "user_ratings_total": 9, "name": "Bank Of India", "reference": "ChIJW933_fQXDTkR4WUl8NAGefY", "geometry": {"location": {"lat": 28.442369, "lng": 77.0090929}, "viewport": {"northeast": {"lat": 28.4437492802915, "lng": 77.01039938029152}, "southwest": {"lat": 28.4410513197085, "lng": 77.0077014197085}}}, "opening_hours": {"open_now": true}, "place_id": "ChIJW933_fQXDTkR4WUl8NAGefY", "plus_code": {"global_code": "7JWVC2R5+WJ", "compound_code": "C2R5+WJ Gurugram, Haryana, India"}, "vicinity": "SCO 99, Huda Market, Sector 10 A, Gurugram", "photos": [{"photo_reference": "CmRaAAAAa1Hchk9isQyAq5g-Cn4dg7Vg7WIPAnder3ayPDkgSJ1poDh-cWNdGeVEiW14LNPY6nn0W5LiqQhW190rPtvvQU2LYZHiYDGdYDrGq_sfxrJQ9aoSIHkyDB7aC45YA9FMEhDVybSsmBDnsfyqcJeUFzzLGhQoo7O_oXdN39D9NvCyStz457dXAg", "width": 824, "html_attributions": ["<a href=\"https://maps.google.com/maps/contrib/103763222821835498553\">jitender singh</a>"], "height": 1099}], "scope": "GOOGLE", "business_status": "OPERATIONAL", "types": ["bank", "finance", "point_of_interest", "establishment"], "icon": "https://maps.gstatic.com/mapfiles/place_api/icons/v1/png_71/bank-71.png"}, {"rating": 4.6, "user_ratings_total": 10, "name": "Punjab & Sind Bank", "reference": "ChIJa9QfSfUXDTkRx6RGNLjD8wk", "geometry": {"location": {"lat": 28.4423303, "lng": 77.009159}, "viewport": {"northeast": {"lat": 28.4437328802915, "lng": 77.0104352302915}, "southwest": {"lat": 28.4410349197085, "lng": 77.0077372697085}}}, "opening_hours": {"open_now": true}, "place_id": "ChIJa9QfSfUXDTkRx6RGNLjD8wk", "plus_code": {"global_code": "7JWVC2R5+WM", "compound_code": "C2R5+WM Gurugram, Haryana, India"}, "vicinity": "Sector 10 Market, SCO-98, Huda Market, Sector 10A, Gurugram", "photos": [{"photo_reference": "CmRaAAAAEKlnL67RZRarq7pnB57JRdzaIn1AuEE8miYvxYAxVWYyppDWl6tvrr4FjxoOfBjFnv3RM5jCqUa4Y_9RfXYO0Wtjj74_sMrF0KBbEHWlzNoM73MraYfEClqNsbgchAt4EhB1yF6lIhcasVLFASimyZREGhT79sQILt3LebNKCw45sbbxXaE_NQ", "width": 1040, "html_attributions": ["<a href=\"https://maps.google.com/maps/contrib/113811996081199425293\">Amardeep Singh</a>"], "height": 780}], "scope": "GOOGLE", "business_status": "OPERATIONAL", "types": ["bank", "finance", "point_of_interest", "establishment"], "icon": "https://maps.gstatic.com/mapfiles/place_api/icons/v1/png_71/bank-71.png"}, {"rating": 3, "user_ratings_total": 42, "name": "SBI Sector 10 A Gurgaon", "reference": "ChIJPQFBOfUXDTkRtbj6dOdwxHQ", "geometry": {"location": {"lat": 28.4417212, "lng": 77.008663}, "viewport": {"northeast": {"lat": 28.4430106302915, "lng": 77.01009143029151}, "southwest": {"lat": 28.4403126697085, "lng": 77.0073934697085}}}, "opening_hours": {"open_now": true}, "place_id": "ChIJPQFBOfUXDTkRtbj6dOdwxHQ", "plus_code": {"global_code": "7JWVC2R5+MF", "compound_code": "C2R5+MF Gurugram, Haryana, India"}, "vicinity": "49, Khandsa Road, market of sector 10A, Sector 10A, Gurugram", "photos": [{"photo_reference": "CmRaAAAAQJF2we_QniAmKNRxBpnkAQ5IrV_CvbJlsL4ULDsWYDFa31ym6JOZ8BoJl7CjnFpFGr1wPlRZGxu_4bMK_9ZETpxgXUHBCNVcS90W6klLxREmYKeIKHx7XIcOijO_KnP6EhC_2fbx-_0ovjYBr97JYvHvGhTm7imtktL49fG9QbcIa7FhW_ugfA", "width": 5184, "html_attributions": ["<a href=\"https://maps.google.com/maps/contrib/111551685111420076275\">Aman Pandey</a>"], "height": 3456}], "scope": "GOOGLE", "business_status": "OPERATIONAL", "types": ["bank", "finance", "point_of_interest", "establishment"], "icon": "https://maps.gstatic.com/mapfiles/place_api/icons/v1/png_71/bank-71.png"}, {"rating": 4.1, "user_ratings_total": 8, "name": "Axis Bank", "reference": "ChIJkbhP_oIXDTkRfcl1RmXybg4", "geometry": {"location": {"lat": 28.4611156, "lng": 76.99748480000001}, "viewport": {"northeast": {"lat": 28.4625119302915, "lng": 76.99900333029152}, "southwest": {"lat": 28.4598139697085, "lng": 76.99630536970851}}}, "opening_hours": {"open_now": true}, "place_id": "ChIJkbhP_oIXDTkRfcl1RmXybg4", "plus_code": {"global_code": "7JWRFX6W+CX", "compound_code": "FX6W+CX Gurugram, Haryana, India"}, "vicinity": "Ground Floor and Basement, SCO No 201, Sector 9, Gurugram", "photos": [{"photo_reference": "CmRaAAAAmKLtNLdrFeTiVBzfFBaAzwrwoH4bkDO14uf6fbPBibirzRmKzx2nKqtFee3nO2CJeOrNSTdgqw_3N0GfZT2RRKOb40YOg8izer2vKp8S1o6Po1WsP3iX1Aw3rfL8oPq6EhCg3Of_UslL4ALcYIo0MaS8GhTlYOLBGG5kJuGYy-AgclzDqGcaFQ", "width": 3472, "html_attributions": ["<a href=\"https://maps.google.com/maps/contrib/104428491586353450890\">VS Gaming Style</a>"], "height": 4624}], "scope": "GOOGLE", "business_status": "OPERATIONAL", "types": ["bank", "finance", "point_of_interest", "establishment"], "icon": "https://maps.gstatic.com/mapfiles/place_api/icons/v1/png_71/bank-71.png"}, {"rating": 3.7, "user_ratings_total": 17, "name": "Allahabad Bank", "reference": "ChIJZWZTwpwXDTkR-RNrOD2D4Oo", "geometry": {"location": {"lat": 28.461419, "lng": 76.9973072}, "viewport": {"northeast": {"lat": 28.46283033029151, "lng": 76.99884218029149}, "southwest": {"lat": 28.4601323697085, "lng": 76.99614421970848}}}, "opening_hours": {"open_now": true}, "place_id": "ChIJZWZTwpwXDTkR-RNrOD2D4Oo", "plus_code": {"global_code": "7JWRFX6W+HW", "compound_code": "FX6W+HW Gurugram, Haryana, India"}, "vicinity": "Sector 9, Gurugram", "photos": [{"photo_reference": "CmRaAAAAq5w_hajOa_vr9tJTtAeXSMTqEW6k_zywULOlmbA41y39TUfMXoKuzW7sk1tVmZgbkhMnumqFEIKIGTPmU3LoT84rzPkU56K0NC5knpMVOuj1IVHQMUHv9oUH2UVYRtYGEhCtuVsU4vjOOY6Xaq-ikrf_GhSDMknYCbdtsIG4sBOphqNFCSEyCg", "width": 3472, "html_attributions": ["<a href=\"https://maps.google.com/maps/contrib/104428491586353450890\">VS Gaming Style</a>"], "height": 4624}], "scope": "GOOGLE", "business_status": "OPERATIONAL", "types": ["bank", "finance", "point_of_interest", "establishment"], "icon": "https://maps.gstatic.com/mapfiles/place_api/icons/v1/png_71/bank-71.png"}, {"rating": 5, "user_ratings_total": 1, "name": "Axis Bank ATM", "reference": "ChIJkZ2HJyEYDTkRMgJgIA8ODqQ", "geometry": {"location": {"lat": 28.448039, "lng": 77.013268}, "viewport": {"northeast": {"lat": 28.4493465802915, "lng": 77.01458538029149}, "southwest": {"lat": 28.4466486197085, "lng": 77.01188741970849}}}, "opening_hours": {"open_now": true}, "place_id": "ChIJkZ2HJyEYDTkRMgJgIA8ODqQ", "plus_code": {"global_code": "7JWVC2X7+68", "compound_code": "C2X7+68 Gurugram, Haryana, India"}, "vicinity": "Shop No, 834, Shivaji Park Road, Gurugram", "photos": [{"photo_reference": "CmRaAAAAp37CAsaMxVJM2ijG5hzDTmWpEZekB9DFMwA8ZPg7RY3elDO75g8JdymNMCDxYgnYxUMXy-DjYrwRk24qUypXhZF0_VuqLqTWP6cOO_cV0IyjtKV0Lx7lQR0VnKfZ2R9BEhA1sdSbPWaOnR8fZdPljgF0GhRpJ1UjG6EltyxEcdumLZxjylfE7w", "width": 1088, "html_attributions": ["<a href=\"https://maps.google.com/maps/contrib/117271646594368450086\">Aayush Rajput</a>"], "height": 1920}], "scope": "GOOGLE", "business_status": "OPERATIONAL", "types": ["atm", "bank", "finance", "point_of_interest", "establishment"], "icon": "https://maps.gstatic.com/mapfiles/place_api/icons/v1/png_71/atm-71.png"}, {"rating": 3.5, "user_ratings_total": 23, "name": "Punjab National Bank", "reference": "ChIJ4fsUZ_QXDTkRJlbE2zRWkcA", "geometry": {"location": {"lat": 28.43912, "lng": 77.005978}, "viewport": {"northeast": {"lat": 28.4404915302915, "lng": 77.00729613029151}, "southwest": {"lat": 28.4377935697085, "lng": 77.0045981697085}}}, "opening_hours": {"open_now": true}, "place_id": "ChIJ4fsUZ_QXDTkRJlbE2zRWkcA", "plus_code": {"global_code": "7JWVC2Q4+J9", "compound_code": "C2Q4+J9 Gurugram, Haryana, India"}, "vicinity": "5, Khandsa Road, Sector 10A, Gurugram", "photos": [{"photo_reference": "CmRaAAAANICL2CDPCVUed0gTphYPLW9EHnRlkJJCWMFRmjYrR1x2lEuvp4sLP3C3uSQQSwoQhfUnjDWXjJNI2Z4CWOuPMFAS5T5w7Y0tXpEnbx7L8diBRklNMUM7hQjAn5c5D9y6EhDBcNn-IQDhUMYErihHFX9rGhQhFZvDMRPW-_-35gVnMj2cZNTJ0Q", "width": 828, "html_attributions": ["<a href=\"https://maps.google.com/maps/contrib/115170645975108307092\">Prerna Desai</a>"], "height": 693}], "scope": "GOOGLE", "business_status": "OPERATIONAL", "types": ["bank", "finance", "point_of_interest", "establishment"], "icon": "https://maps.gstatic.com/mapfiles/place_api/icons/v1/png_71/bank-71.png"}, {"rating": 1, "user_ratings_total": 3, "name": "HDFC Bank ATM", "reference": "ChIJYRjbpcUZDTkRUQRlOuSaess", "geometry": {"location": {"lat": 28.4379897, "lng": 76.9981876}, "viewport": {"northeast": {"lat": 28.4392123302915, "lng": 76.9994433802915}, "southwest": {"lat": 28.4365143697085, "lng": 76.99674541970849}}}, "opening_hours": {"open_now": true}, "place_id": "ChIJYRjbpcUZDTkRUQRlOuSaess", "plus_code": {"global_code": "7JWRCXQX+57", "compound_code": "CXQX+57 Gurugram, Haryana, India"}, "vicinity": "House No 56, Gali Number 3, Anjna Colony, Sector 37, Gurugram", "scope": "GOOGLE", "business_status": "OPERATIONAL", "types": ["atm", "bank", "finance", "point_of_interest", "establishment"], "icon": "https://maps.gstatic.com/mapfiles/place_api/icons/v1/png_71/atm-71.png"}, {"rating": 3.3, "user_ratings_total": 18, "name": "Bank of Baroda - Sector 10 Branch", "reference": "ChIJbQ9PZvQXDTkRPMWNj5oSgx0", "geometry": {"location": {"lat": 28.4389976, "lng": 77.0058648}, "viewport": {"northeast": {"lat": 28.4402053302915, "lng": 77.00746218029151}, "southwest": {"lat": 28.4375073697085, "lng": 77.00476421970849}}}, "opening_hours": {"open_now": true}, "place_id": "ChIJbQ9PZvQXDTkRPMWNj5oSgx0", "plus_code": {"global_code": "7JWVC2Q4+H8", "compound_code": "C2Q4+H8 Gurugram, Haryana, India"}, "vicinity": "SCO-1, Khandav Palace, Davgur, Khandsa Road, Sector 10A, Gurugram", "photos": [{"photo_reference": "CmRaAAAAgz9lt4jJYI8JO0O8AoeyBHTov3MHtipCPRbnEgW9HV101Bv-Amx_LEb-syObl41cBUbF4DNJmaW-kPeiSyhKBX7aG-TJGFdFetRI3IWbxmECbDQk7NeUhLaiZsY8UtAxEhDiO7r4J5_khHczokgdu7Y2GhTJritTX1cNA-cBED8F56TJm5aosw", "width": 2284, "html_attributions": ["<a href=\"https://maps.google.com/maps/contrib/111551685111420076275\">Aman Pandey</a>"], "height": 2910}], "scope": "GOOGLE", "business_status": "OPERATIONAL", "types": ["atm", "bank", "finance", "point_of_interest", "establishment"], "icon": "https://maps.gstatic.com/mapfiles/place_api/icons/v1/png_71/bank-71.png"}, {"rating": 4.3, "user_ratings_total": 6, "name": "IndusInd Bank", "reference": "ChIJ45so-4oXDTkRevoTA3hipwU", "geometry": {"location": {"lat": 28.4390225, "lng": 77.0059261}, "viewport": {"northeast": {"lat": 28.4402294802915, "lng": 77.00750198029151}, "southwest": {"lat": 28.43753151970849, "lng": 77.00480401970849}}}, "opening_hours": {"open_now": true}, "place_id": "ChIJ45so-4oXDTkRevoTA3hipwU", "plus_code": {"global_code": "7JWVC2Q4+J9", "compound_code": "C2Q4+J9 Gurugram, Haryana, India"}, "vicinity": "2, Khandsa Road, Sector 10A, Gurugram", "photos": [{"photo_reference": "CmRaAAAAsLvzBO-SVRVmr5l9nGY5w4NIivD3nzFp9Ted5-9fRCtiKs3aYCF0LxMeWH7Er7O1SY374GL93m3jpNv2ZN_CfP1jez80LHmoszEgciri4dtBvyekee1gZ51xzZwlv57_EhCAPE__TujMmcZf09wXktQEGhRU4KgDfsGDDhqI6xR8l8JYQiipuQ", "width": 3008, "html_attributions": ["<a href=\"https://maps.google.com/maps/contrib/110888774824295282578\">Shiv Kumar</a>"], "height": 4016}], "scope": "GOOGLE", "business_status": "OPERATIONAL", "types": ["bank", "finance", "point_of_interest", "establishment"], "icon": "https://maps.gstatic.com/mapfiles/place_api/icons/v1/png_71/bank-71.png"}]}