{"status": "OK", "next_page_token": "AcnaJv1a9coZomBdP3vW7ACUaoTSQB_pZ9Fd6mfgggyfiG-a6ZQT0ySq0-KMRZhYRHEhDdjbsEv1FYIhN8-iTiSQglC9_E8JADk1salF7F_IBPMk3tnulk9g_6NC_bQJvGkjpL0tGujkH8IPs6k8qlplP3nwJrU1aBTSY5fMeBQDD_3gKP0NVgfHkUvpuaBoyCHYDS8-TONVRAgs_lvzZfNI3xFQj-9FKVNjrRhlY8my3pxz2nqNUHVrm3W7NNKkOsHR2BoiMUVeZWXFwwjfJUrn3iOTrnlyZhFuw_HcE7W4-MOvI8OpPF5TpUH6q2EjEM5YrH20Hkn-Gjx0guGrVFmdfbU4Yn3_k-_rg5vSvizre157OLbIejFGCH9X8EQfZ_6o0KMkk1oQltHMhGQJFrTVjThwgJmJOI6FKsXPgH5LUrw5ZAwL1e1xqnEUEMahikw7craXO-PzSRi5BCiMN-TShuxMd15K9j2OlcL2ht9i9Rda61kpwQNozgngOrUxFwXG4eZcNrt_riv3HzM67IOBU1kHEePVB0oXKYmZhGv5Ul--YMkoOS84xRJsEFYilJnv6hiGXEzzpHPaEP8KZ3aixedfFGIw7kfi_OFs2_oLQ6SUbGSoGwupHOwXJFs4A5D8", "html_attributions": [], "results": [{"name": "ICICI BANK ATM", "reference": "ChIJcdgnXZYXDTkRmRiLmQ0HXxw", "geometry": {"location": {"lat": 28.4483655, "lng": 76.9982144}, "viewport": {"northeast": {"lat": 28.4498401802915, "lng": 76.99949293029151}, "southwest": {"lat": 28.4471422197085, "lng": 76.99679496970849}}}, "opening_hours": {"open_now": true}, "place_id": "ChIJcdgnXZYXDTkRmRiLmQ0HXxw", "plus_code": {"global_code": "7JWRCXXX+87", "compound_code": "CXXX+87 Gurugram, Haryana, India"}, "vicinity": "Shop no 4 Nikhil Complex Patodi Road Main Chowk Kadipur, Sector 10, Gurugram", "scope": "GOOGLE", "business_status": "OPERATIONAL", "types": ["bank", "finance", "point_of_interest", "establishment"], "icon": "https://maps.gstatic.com/mapfiles/place_api/icons/v1/png_71/bank-71.png"}, {"name": "ICICI BANK ATM", "reference": "ChIJE4j6YG0XDTkRRuGZTS6_-Ss", "geometry": {"location": {"lat": 28.450489, "lng": 77.0027618}, "viewport": {"northeast": {"lat": 28.4518856302915, "lng": 77.00408403029151}, "southwest": {"lat": 28.44918766970849, "lng": 77.0013860697085}}}, "opening_hours": {"open_now": true}, "place_id": "ChIJE4j6YG0XDTkRRuGZTS6_-Ss", "plus_code": {"global_code": "7JWVF223+54", "compound_code": "F223+54 Gurugram, Haryana, India"}, "vicinity": "Shop No - 20, Pataudi Road, Shiv Nagar, Gurugram", "scope": "GOOGLE", "business_status": "OPERATIONAL", "types": ["bank", "finance", "point_of_interest", "establishment"], "icon": "https://maps.gstatic.com/mapfiles/place_api/icons/v1/png_71/bank-71.png"}, {"rating": 3.9, "user_ratings_total": 14, "name": "SBI Branch Sector 10", "reference": "ChIJu7t2RY8XDTkRxaviaNkvwDI", "geometry": {"location": {"lat": 28.4528502, "lng": 77.0038424}, "viewport": {"northeast": {"lat": 28.4541966802915, "lng": 77.0051911302915}, "southwest": {"lat": 28.4514987197085, "lng": 77.00249316970849}}}, "place_id": "ChIJu7t2RY8XDTkRxaviaNkvwDI", "plus_code": {"global_code": "7JWVF233+4G", "compound_code": "F233+4G Gurugram, Haryana, India"}, "vicinity": "10, Sector Road, Kadipur Village, Sector 10, Gurugram", "photos": [{"photo_reference": "CmRaAAAA3OJYTxbBwJ99NHLpXS55Jxr8WSF64_sy1cWwOOp1U1O3z5iPu9jB_hyXsz5uLlXL0n7oH986tOLXOQ0O4DsivAahkIfYdmfFJZGyjZs4zQX8hovHMKtWqn9Jsa2CPV6oEhAvQs1Dqw1pOIaMtRSgnoBmGhRBgg-wfmxkaHqbFa20gHNN0s8vMQ", "width": 1920, "html_attributions": ["<a href=\"https://maps.google.com/maps/contrib/110089086765293095216\">Navneen Yadav</a>"], "height": 1080}], "scope": "GOOGLE", "business_status": "OPERATIONAL", "types": ["bank", "finance", "point_of_interest", "establishment"], "icon": "https://maps.gstatic.com/mapfiles/place_api/icons/v1/png_71/bank-71.png"}, {"name": "HDFC Bank ATM", "reference": "ChIJC-8JM0cXDTkRqZ9zLhYlCbs", "geometry": {"location": {"lat": 28.44923, "lng": 77.00574999999999}, "viewport": {"northeast": {"lat": 28.4505661302915, "lng": 77.0070908802915}, "southwest": {"lat": 28.4478681697085, "lng": 77.00439291970848}}}, "opening_hours": {"open_now": true}, "place_id": "ChIJC-8JM0cXDTkRqZ9zLhYlCbs", "plus_code": {"global_code": "7JWVC2X4+M7", "compound_code": "C2X4+M7 Gurugram, Haryana, India"}, "vicinity": "No 1039/1/22, Main, Kadipur Road, Shiv Nagar, Gurugram", "scope": "GOOGLE", "business_status": "OPERATIONAL", "types": ["atm", "bank", "finance", "point_of_interest", "establishment"], "icon": "https://maps.gstatic.com/mapfiles/place_api/icons/v1/png_71/atm-71.png"}, {"name": "ICICI BANK ATM", "reference": "ChIJCSTCdE4XDTkRY_VghzpqClU", "geometry": {"location": {"lat": 28.44403239999999, "lng": 77.0008288}, "viewport": {"northeast": {"lat": 28.4454581802915, "lng": 77.0022494802915}, "southwest": {"lat": 28.4427602197085, "lng": 76.99955151970849}}}, "opening_hours": {"open_now": true}, "place_id": "ChIJCSTCdE4XDTkRY_VghzpqClU", "plus_code": {"global_code": "7JWVC2V2+J8", "compound_code": "C2V2+J8 Gurugram, Haryana, India"}, "vicinity": "Sco-8, Sector 10A, Gurugram", "scope": "GOOGLE", "business_status": "OPERATIONAL", "types": ["bank", "finance", "point_of_interest", "establishment"], "icon": "https://maps.gstatic.com/mapfiles/place_api/icons/v1/png_71/bank-71.png"}, {"rating": 3.2, "user_ratings_total": 6, "name": "Axis Bank ATM", "reference": "ChIJgY3eVpIXDTkRxy5QYk_TARI", "geometry": {"location": {"lat": 28.44500809999999, "lng": 76.9952844}, "viewport": {"northeast": {"lat": 28.4463566302915, "lng": 76.9966791302915}, "southwest": {"lat": 28.44365866970849, "lng": 76.99398116970849}}}, "opening_hours": {"open_now": true}, "place_id": "ChIJgY3eVpIXDTkRxy5QYk_TARI", "plus_code": {"global_code": "7JWRCXWW+24", "compound_code": "CXWW+24 Gurugram, Haryana, India"}, "vicinity": "B/257, Saraswati Enclave, Sector 10, Gurugram", "scope": "GOOGLE", "business_status": "OPERATIONAL", "types": ["atm", "bank", "finance", "point_of_interest", "establishment"], "icon": "https://maps.gstatic.com/mapfiles/place_api/icons/v1/png_71/atm-71.png"}, {"name": "ICICI BANK ATM", "reference": "ChIJ9bXUMgEXDTkR7ERDeB1uLGk", "geometry": {"location": {"lat": 28.446194, "lng": 76.9935351}, "viewport": {"northeast": {"lat": 28.4477604802915, "lng": 76.99476113029151}, "southwest": {"lat": 28.44506251970849, "lng": 76.99206316970849}}}, "opening_hours": {"open_now": true}, "place_id": "ChIJ9bXUMgEXDTkR7ERDeB1uLGk", "plus_code": {"global_code": "7JWRCXWV+FC", "compound_code": "CXWV+FC Gurugram, Haryana, India"}, "vicinity": "H.No 13/2 Patoudi Road, Near Haily Mandi Rly Station, Gurugram", "scope": "GOOGLE", "business_status": "OPERATIONAL", "types": ["bank", "finance", "point_of_interest", "establishment"], "icon": "https://maps.gstatic.com/mapfiles/place_api/icons/v1/png_71/bank-71.png"}, {"name": "ICICI BANK ATM", "reference": "ChIJGS6s6-cXDTkR5-oY-IUfOsU", "geometry": {"location": {"lat": 28.4573288, "lng": 76.9992218}, "viewport": {"northeast": {"lat": 28.4586076302915, "lng": 77.00056763029151}, "southwest": {"lat": 28.4559096697085, "lng": 76.99786966970849}}}, "opening_hours": {"open_now": true}, "place_id": "ChIJGS6s6-cXDTkR5-oY-IUfOsU", "plus_code": {"global_code": "7JWRFX4X+WM", "compound_code": "FX4X+WM Gurugram, Haryana, India"}, "vicinity": "Shop No. 1, H. No. 157, opp. Sec. 10, Main, Basai Road, Vishwakarma Colony, Gurugram", "scope": "GOOGLE", "business_status": "OPERATIONAL", "types": ["bank", "finance", "point_of_interest", "establishment"], "icon": "https://maps.gstatic.com/mapfiles/place_api/icons/v1/png_71/bank-71.png"}, {"name": "Axis Bank ATM", "reference": "ChIJwz4AagoXDTkRbVYih0hOBq8", "geometry": {"location": {"lat": 28.4459317, "lng": 76.99168619999999}, "viewport": {"northeast": {"lat": 28.4472693302915, "lng": 76.9930410802915}, "southwest": {"lat": 28.44457136970849, "lng": 76.9903431197085}}}, "opening_hours": {"open_now": true}, "place_id": "ChIJwz4AagoXDTkRbVYih0hOBq8", "plus_code": {"global_code": "7JWRCXWR+9M", "compound_code": "CXWR+9M Saraswati Enclave, Sector 10B, Sector 37, Gurugram, Haryana, India"}, "vicinity": "opposite Kadipur Industrial Area, 6, Khasra No 33/20, opposite Kadipur Industrial Area, Pataudi Road, Saraswati Enclave, Faridabad", "scope": "GOOGLE", "business_status": "OPERATIONAL", "types": ["atm", "bank", "finance", "point_of_interest", "establishment"], "icon": "https://maps.gstatic.com/mapfiles/place_api/icons/v1/png_71/atm-71.png"}, {"rating": 4.2, "user_ratings_total": 5, "name": "Toshani", "reference": "ChIJVaDcHFsXDTkROOK9z9KDLFg", "geometry": {"location": {"lat": 28.444891, "lng": 77.0082455}, "viewport": {"northeast": {"lat": 28.4462028802915, "lng": 77.00964833029151}, "southwest": {"lat": 28.4435049197085, "lng": 77.00695036970849}}}, "opening_hours": {"open_now": true}, "place_id": "ChIJVaDcHFsXDTkROOK9z9KDLFg", "plus_code": {"global_code": "7JWVC2V5+X7", "compound_code": "C2V5+X7 Gurugram, Haryana, India"}, "vicinity": "Ho.No.578 Sector 10A Daze Digital Private Limited, Gurugram", "photos": [{"photo_reference": "CmRaAAAAJD3axrb74OE25ZlR3ptE8r2Dx_yd-qUZ84ke9CR0mSiMqi2i3jf1J-1IQukpQ73tObNCf_BlUgSY5zcAMVUgfTmDgoOdpOOMDp9oz2aodH-MDJ65DZTZCIvV0TCCXKlOEhCRpf7s0CwJ-utiyXKn8TOtGhSr9LVCqTqJiGX4efsZ9c9kwPN-hw", "width": 770, "html_attributions": ["<a href=\"https://maps.google.com/maps/contrib/117927012544392376156\">Toshani</a>"], "height": 471}], "scope": "GOOGLE", "business_status": "OPERATIONAL", "types": ["atm", "bank", "finance", "point_of_interest", "establishment"], "icon": "https://maps.gstatic.com/mapfiles/place_api/icons/v1/png_71/generic_business-71.png"}, {"name": "ICICI BANK ATM", "reference": "ChIJD9jvbaQZDTkR4Sv-dLpnJMM", "geometry": {"location": {"lat": 28.44837789999999, "lng": 77.01107689999999}, "viewport": {"northeast": {"lat": 28.4496732302915, "lng": 77.0124217302915}, "southwest": {"lat": 28.4469752697085, "lng": 77.0097237697085}}}, "opening_hours": {"open_now": true}, "place_id": "ChIJD9jvbaQZDTkR4Sv-dLpnJMM", "plus_code": {"global_code": "7JWVC2X6+9C", "compound_code": "C2X6+9C Gurugram, Haryana, India"}, "vicinity": "Near, 610/20, Shivaji Park, Main Market, Street Number 6, Gandhi Nagar Chowk, Gurugram", "scope": "GOOGLE", "business_status": "OPERATIONAL", "types": ["bank", "finance", "point_of_interest", "establishment"], "icon": "https://maps.gstatic.com/mapfiles/place_api/icons/v1/png_71/bank-71.png"}, {"rating": 5, "user_ratings_total": 1, "name": "SBI ATM", "reference": "ChIJ8yWll5kXDTkRla3QsBZNFeo", "geometry": {"location": {"lat": 28.4596243, "lng": 76.9971248}, "viewport": {"northeast": {"lat": 28.4609851802915, "lng": 76.99851188029149}, "southwest": {"lat": 28.4582872197085, "lng": 76.99581391970848}}}, "place_id": "ChIJ8yWll5kXDTkRla3QsBZNFeo", "plus_code": {"global_code": "7JWRFX5W+RR", "compound_code": "FX5W+RR Gurugram, Haryana, India"}, "vicinity": "Sector 9, Gurugram", "scope": "GOOGLE", "business_status": "OPERATIONAL", "types": ["bank", "finance", "point_of_interest", "establishment"], "icon": "https://maps.gstatic.com/mapfiles/place_api/icons/v1/png_71/bank-71.png"}, {"name": "HDFC Bank ATM", "reference": "ChIJ16ZNp0UXDTkRiWSBLzaJXuk", "geometry": {"location": {"lat": 28.4574834, "lng": 76.9914802}, "viewport": {"northeast": {"lat": 28.4587916802915, "lng": 76.9928280802915}, "southwest": {"lat": 28.4560937197085, "lng": 76.9901301197085}}}, "opening_hours": {"open_now": true}, "place_id": "ChIJ16ZNp0UXDTkRiWSBLzaJXuk", "plus_code": {"global_code": "7JWRFX4R+XH", "compound_code": "FX4R+XH Gurugram, Haryana, India"}, "vicinity": "near Bala Hospital, Khasra No 654645, Bhawani Enclave Basai Chowk, near Bala Hospital, Gurugram", "photos": [{"photo_reference": "CmRaAAAAsPzKtA4DZBe-4HlzloY0DhDrhsw4T0oSTORKbswF7bYxAPcOcNzVpPMY7A7N2Ydxfazv_1ToUGnQd4zQUDYI10jXvSa4OX3KfKW8Mgwkw6Bgov1DanqrOifkwDBDT8T0EhDdCAdto9OU6N2zw22Ibx-DGhT08jm_u2xhHV1pCj83dy55VanCyA", "width": 250, "html_attributions": ["<a href=\"https://maps.google.com/maps/contrib/109010048214533756242\">HDFC Bank ATM</a>"], "height": 250}], "scope": "GOOGLE", "business_status": "OPERATIONAL", "types": ["atm", "bank", "finance", "point_of_interest", "establishment"], "icon": "https://maps.gstatic.com/mapfiles/place_api/icons/v1/png_71/atm-71.png"}, {"rating": 3.4, "user_ratings_total": 26, "name": "Kotak Mahindra Bank", "reference": "ChIJR26I_fQXDTkRNh0bgZsgOKQ", "geometry": {"location": {"lat": 28.4422225, "lng": 77.0089591}, "viewport": {"northeast": {"lat": 28.4436040302915, "lng": 77.0102638802915}, "southwest": {"lat": 28.4409060697085, "lng": 77.00756591970848}}}, "opening_hours": {"open_now": true}, "place_id": "ChIJR26I_fQXDTkRNh0bgZsgOKQ", "plus_code": {"global_code": "7JWVC2R5+VH", "compound_code": "C2R5+VH Gurugram, Haryana, India"}, "vicinity": "SCO - 90, Sector 10A, Market, Gurugram", "photos": [{"photo_reference": "CmRaAAAAg8uhWyB6DpBy_0dyxx7h_tfXqmIofTRB8PWhVmL_YVmiDSla9HOfLd6JVzucvxM5gh_g9IHf-o2qBVnSQDj8fXaNLR8uQkA1t1Dklaf4NWAYh55Ob5EZf76161EPGkdKEhDFSJU983ujt4Ll5vZX73XrGhSs2gOOTPFvxOW4xuhg7Kp1HjwLQg", "width": 1920, "html_attributions": ["<a href=\"https://maps.google.com/maps/contrib/117341765945930589072\">Kapil Singh Tomar</a>"], "height": 1080}], "scope": "GOOGLE", "business_status": "OPERATIONAL", "types": ["bank", "atm", "finance", "point_of_interest", "establishment"], "icon": "https://maps.gstatic.com/mapfiles/place_api/icons/v1/png_71/bank-71.png"}, {"rating": 4.8, "user_ratings_total": 8, "name": "Union Bank Of India", "reference": "ChIJq9GTN_UXDTkRWpUAVndzfv8", "geometry": {"location": {"lat": 28.442077, "lng": 77.0088349}, "viewport": {"northeast": {"lat": 28.4434616302915, "lng": 77.01013548029151}, "southwest": {"lat": 28.4407636697085, "lng": 77.0074375197085}}}, "opening_hours": {"open_now": true}, "place_id": "ChIJq9GTN_UXDTkRWpUAVndzfv8", "plus_code": {"global_code": "7JWVC2R5+RG", "compound_code": "C2R5+RG Gurugram, Haryana, India"}, "vicinity": "SCO-93, Huda Market, Sec-10A, Gurugram", "photos": [{"photo_reference": "CmRaAAAAFvqjhbaNlBE_3CDh5FU7WaPkwatqzHdirh5fpzFtEcSLkER16mFOtBz1CaCc7Qn95RZEBxiatu_CnyrC8OMqNXJ9LEzlsVhK2FsFjw_WPQ8FmE_XeQKEqdTQ6ZuiQe3tEhAe9iGRaJt-bKV0R6rTp5SrGhQ4KtX2Z4Dwfm7Alg-OjVZZa-TGDg", "width": 2829, "html_attributions": ["<a href=\"https://maps.google.com/maps/contrib/112319296455921741728\">Avinash Mehta</a>"], "height": 1768}], "scope": "GOOGLE", "business_status": "OPERATIONAL", "types": ["bank", "finance", "point_of_interest", "establishment"], "icon": "https://maps.gstatic.com/mapfiles/place_api/icons/v1/png_71/bank-71.png"}, {"rating": 3.7, "user_ratings_total": 3, "name": "IDFC FIRST BANK", "reference": "ChIJ4SoDUuIXDTkRY56GJFbT9qM", "geometry": {"location": {"lat": 28.4420413, "lng": 77.0089028}, "viewport": {"northeast": {"lat": 28.4434479802915, "lng": 77.0101734302915}, "southwest": {"lat": 28.4407500197085, "lng": 77.0074754697085}}}, "place_id": "ChIJ4SoDUuIXDTkRY56GJFbT9qM", "plus_code": {"global_code": "7JWVC2R5+RH", "compound_code": "C2R5+RH Gurugram, Haryana, India"}, "vicinity": "SCO 94 Ground Floor, market of sector 10A, Gurugram", "photos": [{"photo_reference": "CmRaAAAAnxJreTE37T2IPGVsmk-WScugHgfS334PnbhB80ECGSSunAyvZ2jdzB9pFdAhZjpkzzhIWNKUc-RP7ZSo3je8ZsxcL1j7Q-Igffqkr0hQMBcxw34429LsvNMeR6y5ASOeEhD75O07dKf1KvfDYQfSZd5wGhQ50nB0vze1Iey50foK1rh-Ki3KIA", "width": 3000, "html_attributions": ["<a href=\"https://maps.google.com/maps/contrib/106932617805237640627\">IDFC FIRST BANK</a>"], "height": 4000}], "scope": "GOOGLE", "business_status": "OPERATIONAL", "types": ["bank", "finance", "point_of_interest", "establishment"], "icon": "https://maps.gstatic.com/mapfiles/place_api/icons/v1/png_71/bank-71.png"}, {"rating": 3, "user_ratings_total": 1, "name": "Bank of Baroda", "reference": "ChIJmxULUKAZDTkRFPn2qo5cfJE", "geometry": {"location": {"lat": 28.453373, "lng": 77.012311}, "viewport": {"northeast": {"lat": 28.4547309802915, "lng": 77.0136669302915}, "southwest": {"lat": 28.45203301970849, "lng": 77.0109689697085}}}, "place_id": "ChIJmxULUKAZDTkRFPn2qo5cfJE", "plus_code": {"global_code": "7JWVF236+8W", "compound_code": "F236+8W Gurugram, Haryana, India"}, "vicinity": "Gandhi Nagar, Hansi", "scope": "GOOGLE", "business_status": "OPERATIONAL", "types": ["bank", "finance", "point_of_interest", "establishment"], "icon": "https://maps.gstatic.com/mapfiles/place_api/icons/v1/png_71/bank-71.png"}, {"name": "Axis Bank ATM", "reference": "ChIJ1zrfuBsXDTkRD3325W4Zx2A", "geometry": {"location": {"lat": 28.461125, "lng": 76.99745}, "viewport": {"northeast": {"lat": 28.46253413029151, "lng": 76.9989783302915}, "southwest": {"lat": 28.4598361697085, "lng": 76.99628036970849}}}, "opening_hours": {"open_now": true}, "place_id": "ChIJ1zrfuBsXDTkRD3325W4Zx2A", "plus_code": {"global_code": "7JWRFX6W+CX", "compound_code": "FX6W+CX Gurugram, Haryana, India"}, "vicinity": "Ground Floor and Basement, SCO No 201, Sector 9, Gurugram", "scope": "GOOGLE", "business_status": "OPERATIONAL", "types": ["atm", "bank", "finance", "point_of_interest", "establishment"], "icon": "https://maps.gstatic.com/mapfiles/place_api/icons/v1/png_71/atm-71.png"}, {"name": "ICICI BANK ATM", "reference": "ChIJQ_f-y6kXDTkRGVZf5dOexoA", "geometry": {"location": {"lat": 28.4578609, "lng": 76.9906616}, "viewport": {"northeast": {"lat": 28.4592668802915, "lng": 76.9920481802915}, "southwest": {"lat": 28.4565689197085, "lng": 76.98935021970848}}}, "opening_hours": {"open_now": true}, "place_id": "ChIJQ_f-y6kXDTkRGVZf5dOexoA", "plus_code": {"global_code": "7JWRFX5R+47", "compound_code": "FX5R+47 Gurugram, Haryana, India"}, "vicinity": "Plot No 391, near Balaji Hospital, Basai Chowk, Bhawani Enclave, Sector 9, Gurugram", "scope": "GOOGLE", "business_status": "OPERATIONAL", "types": ["bank", "finance", "point_of_interest", "establishment"], "icon": "https://maps.gstatic.com/mapfiles/place_api/icons/v1/png_71/bank-71.png"}, {"rating": 3, "user_ratings_total": 3, "name": "G4S Branch. Sector 10", "reference": "ChIJ91E8-_QXDTkRakqTr12OrSM", "geometry": {"location": {"lat": 28.4403256, "lng": 77.00721229999999}, "viewport": {"northeast": {"lat": 28.4417226802915, "lng": 77.0084954302915}, "southwest": {"lat": 28.4390247197085, "lng": 77.0057974697085}}}, "place_id": "ChIJ91E8-_QXDTkRakqTr12OrSM", "plus_code": {"global_code": "7JWVC2R4+4V", "compound_code": "C2R4+4V Gurugram, Haryana, India"}, "vicinity": "23, Khandsa Road, Raj Nagar, Shivji Park Colony, Sector 10A, Gurugram", "scope": "GOOGLE", "business_status": "OPERATIONAL", "types": ["bank", "finance", "point_of_interest", "establishment"], "icon": "https://maps.gstatic.com/mapfiles/place_api/icons/v1/png_71/bank-71.png"}]}