{"status": "OK", "html_attributions": [], "results": [{"rating": 4.1, "user_ratings_total": 8, "name": "AU SMALL FINANCE BANK LIMITED", "reference": "ChIJ__8__JEiDTkRGNltlgSPudw", "geometry": {"location": {"lat": 28.4064715, "lng": 77.0446628}, "viewport": {"northeast": {"lat": 28.40796733029151, "lng": 77.0460755802915}, "southwest": {"lat": 28.4052693697085, "lng": 77.0433776197085}}}, "opening_hours": {"open_now": true}, "place_id": "ChIJ__8__JEiDTkRGNltlgSPudw", "plus_code": {"global_code": "7JWVC24V+HV", "compound_code": "C24V+HV Gurugram, Haryana, India"}, "vicinity": "Vatika Business Park, Block 1, Sohna - Gurgaon Road, Sector 49, Gurugram", "scope": "GOOGLE", "business_status": "OPERATIONAL", "types": ["bank", "finance", "point_of_interest", "establishment"], "icon": "https://maps.gstatic.com/mapfiles/place_api/icons/v1/png_71/bank-71.png"}, {"rating": 3.8, "user_ratings_total": 10, "name": "HDFC Bank ATM", "reference": "ChIJ---2q_AiDTkRiOOeHWXGBGw", "geometry": {"location": {"lat": 28.4064715, "lng": 77.0446628}, "viewport": {"northeast": {"lat": 28.40796733029151, "lng": 77.0460755802915}, "southwest": {"lat": 28.4052693697085, "lng": 77.0433776197085}}}, "opening_hours": {"open_now": true}, "place_id": "ChIJ---2q_AiDTkRiOOeHWXGBGw", "plus_code": {"global_code": "7JWVC24V+HV", "compound_code": "C24V+HV Gurugram, Haryana, India"}, "vicinity": "Vatika Business Park, Block 1, Sohna - Gurgaon Road, Badshahpur, Sector 49, Gurugram", "photos": [{"photo_reference": "CmRaAAAAvi2TWosBJwyQSzsdWANvUF9CTsEqW_5nqS-xVBUaiToyuxaeBw9yUWNW5JsZ4qOrVzDQmaI4UL1oeyeNtYtXla8N8TB0WvUZPqBvMbfKq8oyLlWFhBqbtsEUybSU1O1REhAY2unY7Eff0q1w6vmJDzkEGhRPFSXn-7KO_OCDEKOUALEVeyPnHA", "width": 660, "html_attributions": ["<a href=\"https://maps.google.com/maps/contrib/104233310860894288031\">Atul Dwivedi</a>"], "height": 330}], "scope": "GOOGLE", "business_status": "OPERATIONAL", "types": ["atm", "bank", "finance", "point_of_interest", "establishment"], "icon": "https://maps.gstatic.com/mapfiles/place_api/icons/v1/png_71/atm-71.png"}, {"name": "Axis Bank ATM", "reference": "ChIJW-yDclwjDTkRVXrqbxkItUU", "geometry": {"location": {"lat": 28.4154099, "lng": 77.03962}, "viewport": {"northeast": {"lat": 28.4168148802915, "lng": 77.04108053029151}, "southwest": {"lat": 28.4141169197085, "lng": 77.03838256970849}}}, "opening_hours": {"open_now": true}, "place_id": "ChIJW-yDclwjDTkRVXrqbxkItUU", "plus_code": {"global_code": "7JWVC28Q+5R", "compound_code": "C28Q+5R Gurugram, Haryana, India"}, "vicinity": "SN 5A, 5B, 6A & 7, Universal Trade Tower, Main, Sohna Road, Sector 49, Gurugram", "scope": "GOOGLE", "business_status": "OPERATIONAL", "types": ["atm", "bank", "finance", "point_of_interest", "establishment"], "icon": "https://maps.gstatic.com/mapfiles/place_api/icons/v1/png_71/atm-71.png"}, {"name": "Bank of Baroda (E Dena)", "reference": "ChIJXZirV1AjDTkRywktKuwR-Wo", "geometry": {"location": {"lat": 28.4152709, "lng": 77.04190299999999}, "viewport": {"northeast": {"lat": 28.4166464802915, "lng": 77.0433672802915}, "southwest": {"lat": 28.41394851970849, "lng": 77.0406693197085}}}, "place_id": "ChIJXZirV1AjDTkRywktKuwR-Wo", "plus_code": {"global_code": "7JWVC28R+4Q", "compound_code": "C28R+4Q Gurugram, Haryana, India"}, "vicinity": "Universal Trade Tower, Unit No 8 To 12 Ground, Sohna Road, Gurugram", "scope": "GOOGLE", "business_status": "OPERATIONAL", "types": ["bank", "finance", "point_of_interest", "establishment"], "icon": "https://maps.gstatic.com/mapfiles/place_api/icons/v1/png_71/bank-71.png"}, {"rating": 4, "user_ratings_total": 11, "name": "Jana Small Finance Bank", "reference": "ChIJxa7sO5IiDTkRgffCHNVWqhQ", "geometry": {"location": {"lat": 28.4050492, "lng": 77.0430099}, "viewport": {"northeast": {"lat": 28.4064090302915, "lng": 77.0444254802915}, "southwest": {"lat": 28.4037110697085, "lng": 77.04172751970849}}}, "opening_hours": {"open_now": true}, "place_id": "ChIJxa7sO5IiDTkRgffCHNVWqhQ", "plus_code": {"global_code": "7JWVC24V+26", "compound_code": "C24V+26 Gurugram, Haryana, India"}, "vicinity": "Ground Floor, Shop no. 11 & 12 & 12 A , Park View Bestech Business Towers, Sohna Road, Gurugram", "photos": [{"photo_reference": "CmRaAAAAtarD7S3iO5y8s8La6KQj2v-gRHKx902SVeUvXzzAf67Dn-kdyZkEHcTsIR9PCDo6Gk6qm8DmuWVdrEg-TqH4aEixD0S-mACZnh2y9GYg690a0-qX2TRsfq0v3FRWF7h5EhBghwLrHVpictcXwyYdV3i8GhQI9qKelClUQZq9SrU_Kc-eNcsHhw", "width": 4032, "html_attributions": ["<a href=\"https://maps.google.com/maps/contrib/108005217076504226500\">Anil Mehndiratta</a>"], "height": 3024}], "scope": "GOOGLE", "business_status": "OPERATIONAL", "types": ["bank", "finance", "point_of_interest", "establishment"], "icon": "https://maps.gstatic.com/mapfiles/place_api/icons/v1/png_71/bank-71.png"}, {"rating": 3, "user_ratings_total": 22, "name": "Kotak Mahindra Bank", "reference": "ChIJ__8_AZIiDTkRRZW52Ar3Ybg", "geometry": {"location": {"lat": 28.4060291, "lng": 77.0451078}, "viewport": {"northeast": {"lat": 28.4073615302915, "lng": 77.0463226302915}, "southwest": {"lat": 28.4046635697085, "lng": 77.04362466970849}}}, "opening_hours": {"open_now": true}, "place_id": "ChIJ__8_AZIiDTkRRZW52Ar3Ybg", "plus_code": {"global_code": "7JWVC24W+C2", "compound_code": "C24W+C2 Gurugram, Haryana, India"}, "vicinity": "Vatika Business Park Block 2, Block W, Sector 49, Gurugram", "photos": [{"photo_reference": "CmRaAAAAw_3DP1GiUkK2XVg33q5EPQbr7dsCzlwKZimCQqYPaQlsBIhfvp-Ut7sSMm6Db8KV9XFg6lnoFTUVJkrRGoteZW3CxJjALSF17_GH5UQntZZR1iYgaOz8z16GA9Un-P-2EhD9u5TX8L92zs7l1kQclJeNGhSHzRG9HPygDxIQFQ0eXwWBzGvAfA", "width": 4160, "html_attributions": ["<a href=\"https://maps.google.com/maps/contrib/111413184259622491731\">Amit Arora</a>"], "height": 2340}], "scope": "GOOGLE", "business_status": "OPERATIONAL", "types": ["bank", "finance", "point_of_interest", "establishment"], "icon": "https://maps.gstatic.com/mapfiles/place_api/icons/v1/png_71/bank-71.png"}, {"rating": 3.7, "user_ratings_total": 25, "name": "\u092c\u0948\u0902\u0915 \u0911\u092b\u093c \u092c\u0921\u093c\u094c\u0926\u093e", "reference": "ChIJ8wZSBJIiDTkRzvsSWeaB-J4", "geometry": {"location": {"lat": 28.405427, "lng": 77.044528}, "viewport": {"northeast": {"lat": 28.4067611802915, "lng": 77.0457904302915}, "southwest": {"lat": 28.4040632197085, "lng": 77.0430924697085}}}, "opening_hours": {"open_now": true}, "place_id": "ChIJ8wZSBJIiDTkRzvsSWeaB-J4", "plus_code": {"global_code": "7JWVC24V+5R", "compound_code": "C24V+5R Gurugram, Haryana, India"}, "vicinity": "Vatika Business Park, Sohnar,Unit No.6, Tower B, Sohna - Gurgaon Road, Sector 49, Gurugram", "photos": [{"photo_reference": "CmRaAAAAn51NLJTpbX7G3tcOLC0uqEhTvgXr-RS_X8eCPBaMF3X1jglFB33VoTAtGpzZAuMBU2OVBGxWxz_f6WH1Y6ZkPyNPuiGLxcbbJmXE_IluR2Z-2ZQJTpOF99ueVJrdmMhGEhC-7qHWrxjc1cnkovcRGT_-GhQ7l1I1U5icq_OtkvxnbtimnAIQBQ", "width": 2048, "html_attributions": ["<a href=\"https://maps.google.com/maps/contrib/115760039691376019195\">Akash Gaurav</a>"], "height": 1152}], "scope": "GOOGLE", "business_status": "OPERATIONAL", "types": ["atm", "bank", "finance", "point_of_interest", "establishment"], "icon": "https://maps.gstatic.com/mapfiles/place_api/icons/v1/png_71/bank-71.png"}, {"name": "Axis Bank ATM", "reference": "ChIJCQja5G0jDTkRC5CtMgVs3fU", "geometry": {"location": {"lat": 28.4045798, "lng": 77.0431791}, "viewport": {"northeast": {"lat": 28.4059339302915, "lng": 77.0445578802915}, "southwest": {"lat": 28.40323596970849, "lng": 77.04185991970849}}}, "opening_hours": {"open_now": true}, "place_id": "ChIJCQja5G0jDTkRC5CtMgVs3fU", "plus_code": {"global_code": "7JWVC23V+R7", "compound_code": "C23V+R7 Gurugram, Haryana, India"}, "vicinity": "Bestech Business Tower, Shop No 4 & 5, Sector 48, Gurugram", "scope": "GOOGLE", "business_status": "OPERATIONAL", "types": ["atm", "bank", "finance", "point_of_interest", "establishment"], "icon": "https://maps.gstatic.com/mapfiles/place_api/icons/v1/png_71/atm-71.png"}, {"name": "ICICI BANK ATM", "reference": "ChIJqT8fk3IjDTkRdaGki1QU7CE", "geometry": {"location": {"lat": 28.4043428, "lng": 77.04304359999999}, "viewport": {"northeast": {"lat": 28.4057116802915, "lng": 77.0445147302915}, "southwest": {"lat": 28.4030137197085, "lng": 77.04181676970848}}}, "opening_hours": {"open_now": true}, "place_id": "ChIJqT8fk3IjDTkRdaGki1QU7CE", "plus_code": {"global_code": "7JWVC23V+P6", "compound_code": "C23V+P6 Gurugram, Haryana, India"}, "vicinity": "Bestech Business Tower, Shop No-2 ,3, Sohna Road, sec, Gurugram", "scope": "GOOGLE", "business_status": "OPERATIONAL", "types": ["bank", "finance", "point_of_interest", "establishment"], "icon": "https://maps.gstatic.com/mapfiles/place_api/icons/v1/png_71/bank-71.png"}, {"name": "Axis Bank ATM", "reference": "ChIJPy4M8j09DTkR-akdg2nrRAY", "geometry": {"location": {"lat": 28.4039009, "lng": 77.0377414}, "viewport": {"northeast": {"lat": 28.4052593302915, "lng": 77.0391189302915}, "southwest": {"lat": 28.4025613697085, "lng": 77.03642096970849}}}, "opening_hours": {"open_now": true}, "place_id": "ChIJPy4M8j09DTkR-akdg2nrRAY", "plus_code": {"global_code": "7JWVC23Q+H3", "compound_code": "C23Q+H3 Gurugram, Haryana, India"}, "vicinity": "near Nepali Hotel, Khasra No 129/9 Anjana Colony, near Nepali Hotel, Dhani, Gurugram", "scope": "GOOGLE", "business_status": "OPERATIONAL", "types": ["atm", "bank", "finance", "point_of_interest", "establishment"], "icon": "https://maps.gstatic.com/mapfiles/place_api/icons/v1/png_71/atm-71.png"}, {"rating": 5, "user_ratings_total": 1, "name": "AU Small Finance Bank", "reference": "ChIJIyD_wPQjDTkRASsUTbRO4D8", "geometry": {"location": {"lat": 28.416562, "lng": 77.04133449999999}, "viewport": {"northeast": {"lat": 28.4179409802915, "lng": 77.04265273029151}, "southwest": {"lat": 28.4152430197085, "lng": 77.0399547697085}}}, "opening_hours": {"open_now": true}, "place_id": "ChIJIyD_wPQjDTkRASsUTbRO4D8", "plus_code": {"global_code": "7JWVC28R+JG", "compound_code": "C28R+JG Gurugram, Haryana, India"}, "vicinity": "GF 5, 6, 7 Ninex City Mart, Sohna Road, Sector 49, Gurugram", "photos": [{"photo_reference": "CmRZAAAA-SWMPrD19ct4ZYdBPvT3I0vU9sgiCo7J4tRALuWjXVqQwvV38nGFJxA4NQw_En54XRhuy4soOwJuHCLHKhPRjkLnTVaKyYXZLKAtFz9eUrSQnlPQ4PY-chbeFG71xpbuEhCUtMENK-oi1cA_Y7aMCQUzGhRHJ6pT09TjR7BgV4-heeSnzfdlNA", "width": 4160, "html_attributions": ["<a href=\"https://maps.google.com/maps/contrib/114305203585357317930\">Parvez Khan</a>"], "height": 2340}], "scope": "GOOGLE", "business_status": "OPERATIONAL", "types": ["bank", "finance", "point_of_interest", "establishment"], "icon": "https://maps.gstatic.com/mapfiles/place_api/icons/v1/png_71/bank-71.png"}, {"name": "RBL Bank Ltd - Ninex Mall Gurgaon Branch", "reference": "ChIJddvRt3sjDTkRaqeopYkCvQk", "geometry": {"location": {"lat": 28.4168449, "lng": 77.0412127}, "viewport": {"northeast": {"lat": 28.4181256302915, "lng": 77.0425565302915}, "southwest": {"lat": 28.4154276697085, "lng": 77.0398585697085}}}, "opening_hours": {"open_now": true}, "place_id": "ChIJddvRt3sjDTkRaqeopYkCvQk", "plus_code": {"global_code": "7JWVC28R+PF", "compound_code": "C28R+PF Gurugram, Haryana, India"}, "vicinity": "Shop No 22 & 24, GF, Ninex City Mart Mall, Sohna Road, Gurugram", "scope": "GOOGLE", "business_status": "OPERATIONAL", "types": ["bank", "finance", "point_of_interest", "establishment"], "icon": "https://maps.gstatic.com/mapfiles/place_api/icons/v1/png_71/bank-71.png"}, {"name": "ICICI BANK ATM", "reference": "ChIJqewW4HEjDTkRAIPYAjOD9Pc", "geometry": {"location": {"lat": 28.4092865, "lng": 77.048439}, "viewport": {"northeast": {"lat": 28.4107714302915, "lng": 77.04978568029149}, "southwest": {"lat": 28.4080734697085, "lng": 77.04708771970849}}}, "opening_hours": {"open_now": true}, "place_id": "ChIJqewW4HEjDTkRAIPYAjOD9Pc", "plus_code": {"global_code": "7JWVC25X+P9", "compound_code": "C25X+P9 Gurugram, Haryana, India"}, "vicinity": "opp. Govt School, Icici Bank Ltd. - Plot No-48, Vpo, opp. Govt School, Tikri, Sector 48, Gurugram", "scope": "GOOGLE", "business_status": "OPERATIONAL", "types": ["bank", "finance", "point_of_interest", "establishment"], "icon": "https://maps.gstatic.com/mapfiles/place_api/icons/v1/png_71/bank-71.png"}, {"name": "Uva Point Distributer", "reference": "ChIJ362ogJwiDTkRGdmApEk0PYc", "geometry": {"location": {"lat": 28.417559, "lng": 77.0420793}, "viewport": {"northeast": {"lat": 28.41886353029151, "lng": 77.0434415802915}, "southwest": {"lat": 28.4161655697085, "lng": 77.0407436197085}}}, "place_id": "ChIJ362ogJwiDTkRGdmApEk0PYc", "plus_code": {"global_code": "7JWVC29R+2R", "compound_code": "C29R+2R Gurugram, Haryana, India"}, "vicinity": "Block S, Uppal Southend, Sector 49, Gurugram", "scope": "GOOGLE", "business_status": "OPERATIONAL", "types": ["bank", "finance", "point_of_interest", "establishment"], "icon": "https://maps.gstatic.com/mapfiles/place_api/icons/v1/png_71/bank-71.png"}, {"rating": 2.9, "user_ratings_total": 30, "name": "State Bank of India", "reference": "ChIJkxESnpoiDTkR5sPN1_XCO-o", "geometry": {"location": {"lat": 28.4182002, "lng": 77.0381951}, "viewport": {"northeast": {"lat": 28.4194931802915, "lng": 77.03956313029151}, "southwest": {"lat": 28.4167952197085, "lng": 77.03686516970849}}}, "opening_hours": {"open_now": true}, "place_id": "ChIJkxESnpoiDTkR5sPN1_XCO-o", "plus_code": {"global_code": "7JWVC29Q+77", "compound_code": "C29Q+77 Gurugram, Haryana, India"}, "vicinity": "IRIS Tech Park, Unit No.1, 2 & 3, Ground, Sohna Road, Gurugram", "photos": [{"photo_reference": "CmRaAAAABD6Hdgm5VmpagWqT9cI12LbGPJPqTHh0VfnHCxmgdYz3bJPKduyTjplET1dHdgQ-oPzf_giiF3T8pFLYV0LPe7Ro1URMOydhKu3-24gZlAm7BWET5VUXyfIFyMjdJSZ4EhA3YWiBiJzucCLE0tGXGV2TGhQJtmZZUroOGs502DupseQWZKO7ng", "width": 4640, "html_attributions": ["<a href=\"https://maps.google.com/maps/contrib/112725760996041334599\">Manmohit Basia</a>"], "height": 3480}], "scope": "GOOGLE", "business_status": "OPERATIONAL", "types": ["bank", "finance", "point_of_interest", "establishment"], "icon": "https://maps.gstatic.com/mapfiles/place_api/icons/v1/png_71/bank-71.png"}, {"name": "INDIAN BANK", "reference": "ChIJXZNJlJ4iDTkRnygS6haQEXY", "geometry": {"location": {"lat": 28.4185, "lng": 77.038}, "viewport": {"northeast": {"lat": 28.4199143802915, "lng": 77.0392130802915}, "southwest": {"lat": 28.41721641970849, "lng": 77.03651511970848}}}, "place_id": "ChIJXZNJlJ4iDTkRnygS6haQEXY", "plus_code": {"global_code": "7JWVC29Q+96", "compound_code": "C29Q+96 Gurugram, Haryana, India"}, "vicinity": "Unit No 4,Welldone Tech Park, Sector 48, Gurugram", "scope": "GOOGLE", "business_status": "OPERATIONAL", "types": ["bank", "finance", "point_of_interest", "establishment"], "icon": "https://maps.gstatic.com/mapfiles/place_api/icons/v1/png_71/bank-71.png"}, {"rating": 5, "user_ratings_total": 3, "name": "Om Communication", "reference": "ChIJF5giMqMiDTkR7wHASApj0kE", "geometry": {"location": {"lat": 28.410624, "lng": 77.0297307}, "viewport": {"northeast": {"lat": 28.4119774302915, "lng": 77.0311188302915}, "southwest": {"lat": 28.4092794697085, "lng": 77.0284208697085}}}, "opening_hours": {"open_now": true}, "place_id": "ChIJF5giMqMiDTkR7wHASApj0kE", "plus_code": {"global_code": "7JWVC26H+6V", "compound_code": "C26H+6V Gurugram, Haryana, India"}, "vicinity": "CD Marg, Ward No 26, Near Vega School, Behrampur Village, Behrampur Road, Fazilpur Jharsa, Sector 71, Fazilpur, Behrampur Village, Sector 71, Gurugram", "photos": [{"photo_reference": "CmRaAAAA3svHVnxUV2ASH9a3SBMWSlSQBA0sMgXqNoW9inSOZTN5GFGCLgRJASNnZu6dFGAvGjePit36ip1oeNDK5rcMrEB6XPq_6PYycQBSj_GnUWvW5qi8Fh6QBNaNOzbvSyWeEhBwRZS1E8LLP9ip6krei8cjGhSQnKl7y1KYwmNdQ-0GEsvknG24EQ", "width": 1280, "html_attributions": ["<a href=\"https://maps.google.com/maps/contrib/101765123319465154438\">SANDEEP TANWAR</a>"], "height": 956}], "scope": "GOOGLE", "business_status": "OPERATIONAL", "types": ["bank", "finance", "point_of_interest", "establishment"], "icon": "https://maps.gstatic.com/mapfiles/place_api/icons/v1/png_71/bank-71.png"}, {"rating": 4.9, "user_ratings_total": 99, "name": "Federal Bank", "reference": "ChIJ66LnM6MiDTkRP-_T-VZz_g0", "geometry": {"location": {"lat": 28.410625, "lng": 77.0295446}, "viewport": {"northeast": {"lat": 28.4119430802915, "lng": 77.0307788302915}, "southwest": {"lat": 28.4092451197085, "lng": 77.02808086970849}}}, "opening_hours": {"open_now": true}, "place_id": "ChIJ66LnM6MiDTkRP-_T-VZz_g0", "plus_code": {"global_code": "7JWVC26H+6R", "compound_code": "C26H+6R Gurugram, Haryana, India"}, "vicinity": "Ward Number 26, Gurugram", "photos": [{"photo_reference": "CmRaAAAA8XwsKGkKz73b42PgLRoALgYk-4r1ZtgeOztGIJOGX8TauxLoUMTldl_DjAR0lYxSSHOw45iJcnsfuZ3NK_NbeDEx-CQjxUIYVcH5hKJElKw85x8egmHo53CXKP0iP8bYEhALqkOkEpdInaujasmXGRKjGhT7vGX6CVyWTfFYz7XUG_bDdQDMOQ", "width": 4160, "html_attributions": ["<a href=\"https://maps.google.com/maps/contrib/109177586411887648529\">ankit Raj lamaura</a>"], "height": 3120}], "scope": "GOOGLE", "business_status": "OPERATIONAL", "types": ["bank", "finance", "point_of_interest", "establishment"], "icon": "https://maps.gstatic.com/mapfiles/place_api/icons/v1/png_71/bank-71.png"}, {"name": "ICICI BANK ATM", "reference": "ChIJeT2S81AjDTkRf0NUfdKyqOQ", "geometry": {"location": {"lat": 28.4100052, "lng": 77.0293885}, "viewport": {"northeast": {"lat": 28.4113796802915, "lng": 77.0307943302915}, "southwest": {"lat": 28.4086817197085, "lng": 77.02809636970848}}}, "opening_hours": {"open_now": true}, "place_id": "ChIJeT2S81AjDTkRf0NUfdKyqOQ", "plus_code": {"global_code": "7JWVC26H+2Q", "compound_code": "C26H+2Q Gurugram, Haryana, India"}, "vicinity": "Property At Axis A Building, Safexpress, Sec.71 Village Fazilpura, Sohna Road, Jharsa, Gurugram", "scope": "GOOGLE", "business_status": "OPERATIONAL", "types": ["bank", "finance", "point_of_interest", "establishment"], "icon": "https://maps.gstatic.com/mapfiles/place_api/icons/v1/png_71/bank-71.png"}, {"rating": 2.3, "user_ratings_total": 3, "name": "HDFC Bank", "reference": "ChIJqVrzyzYjDTkRCsfIOf48Dc4", "geometry": {"location": {"lat": 28.411977, "lng": 77.0508548}, "viewport": {"northeast": {"lat": 28.4134026802915, "lng": 77.0522030802915}, "southwest": {"lat": 28.4107047197085, "lng": 77.04950511970848}}}, "opening_hours": {"open_now": true}, "place_id": "ChIJqVrzyzYjDTkRCsfIOf48Dc4", "plus_code": {"global_code": "7JWVC362+Q8", "compound_code": "C362+Q8 Gurugram, Haryana, India"}, "vicinity": "No 102, UG Flr, The Paradise Mall, Uppal Southend, Sector 49, Gurugram", "photos": [{"photo_reference": "CmRaAAAAewrjplEIPHslWUSvcMPjKOApLUdZR8j8eG1ZxRqZeEHLe4oYVfqSTEfxW1fiHg9MTBM1T9fxgDl71RUYleiq2-dsSP8_uDjw_1IC-FUN6paJen-xOrD6G2W5I-zFL7TfEhAu4fYfWpc5SdJtHtFtUVZ0GhREX76pQZuiANZxXcY0ITuEKG3n-g", "width": 250, "html_attributions": ["<a href=\"https://maps.google.com/maps/contrib/111397609277012336323\">HDFC Bank</a>"], "height": 250}], "scope": "GOOGLE", "business_status": "OPERATIONAL", "types": ["bank", "finance", "point_of_interest", "establishment"], "icon": "https://maps.gstatic.com/mapfiles/place_api/icons/v1/png_71/bank-71.png"}]}