{"status": "OK", "next_page_token": "AcnaJv03ObJsGiHezB2s1_vpIwXtSYxIBwae14Oys-GgeFrtPuBRvdj1JrGmekNAsJBV0Ocx4g01rRZpHinBcK24Q_c7cNew0mPC46PEywhugqsOOturEJ6MhwPOyCnyXi1Xi-Uq-Sen-3nDgdI_yChhDluRgt2CfN9HohIhBXsFKiLqvMhJM5eEu4oARn5JHbHG-BXN-1Rkl-LPE-YWf4LseAd1bjasBQWjx_k30EJHtEVwcr_N-C18yl06-A07UOAe4XiHaB5E20qe4_y2nhtMT-ZWuTkYikwn9-NzEj4WRZ45jYg5t3Uzf_3HkxYqKXIx0EFolH8gebRWpkFPBGYIJa9muxc3PPX6575zbmxPEKr9s2ySgvzIDMxAC3yLyxn3c4mT3snlw5RxWdlmqOiTpx1xNyiMfyCfx-dBBVIe46VzKTTFMpr8xVKkdruBrWghcnBXKm4mknlX9VjYEr_MbjjN2ljr-3yddIJJ22q1seihik1_H5T5QIaZrsRf1DwYxZr56lf9R0tQ8YOoxWNivfrlagQt3G5rVnKk0K-gqB614Kl-ztTnWHn3HDj5jdRB51J5xrP14lGQH7htc61TEsNK3RmRu9oRvzVVpMzlB3B7uHnvIHsqtwu7BE4Pb5HP", "html_attributions": [], "results": [{"rating": 3.7, "user_ratings_total": 6, "name": "Oriental Bank of Commerce", "reference": "ChIJ4Swzjw_iDDkRrd-OHqB96DA", "geometry": {"location": {"lat": 28.54215469999999, "lng": 77.2038456}, "viewport": {"northeast": {"lat": 28.5435327302915, "lng": 77.20520138029151}, "southwest": {"lat": 28.54083476970849, "lng": 77.20250341970849}}}, "opening_hours": {"open_now": true}, "place_id": "ChIJ4Swzjw_iDDkRrd-OHqB96DA", "plus_code": {"global_code": "7JWVG6R3+VG", "compound_code": "G6R3+VG New Delhi, Delhi, India"}, "vicinity": "59-B & 63, Sarv Priya Vihar, Vijay Mandal Enclave, Kalu Sarai, New Delhi", "photos": [{"photo_reference": "CmRaAAAAq1yATezgGtpn4awV4SwjFrMEczpDP8uHN4muMzUpmEuaEkMNKPdFE_D2JIco5Ou1P98DEyuNGdNUIvd2CdmAwx2cp_DNrMPC9RmfBijqJQ79otIEi7QHud8ZQWxkFZUKEhCRErz277QLKcKAwOuQY9tCGhRl0wTN_LnD7nTMHIUHfuMnyqwutw", "width": 1920, "html_attributions": ["<a href=\"https://maps.google.com/maps/contrib/116931435063978071536\">K.T S Prabhu</a>"], "height": 2560}], "scope": "GOOGLE", "business_status": "OPERATIONAL", "types": ["bank", "finance", "point_of_interest", "establishment"], "icon": "https://maps.gstatic.com/mapfiles/place_api/icons/v1/png_71/bank-71.png"}, {"name": "Axis Bank ATM", "reference": "ChIJW28NyRLiDDkRtyGM-Q-kcxk", "geometry": {"location": {"lat": 28.5526446, "lng": 77.2084261}, "viewport": {"northeast": {"lat": 28.5541932802915, "lng": 77.20934508029151}, "southwest": {"lat": 28.5514953197085, "lng": 77.2066471197085}}}, "opening_hours": {"open_now": true}, "place_id": "ChIJW28NyRLiDDkRtyGM-Q-kcxk", "plus_code": {"global_code": "7JWVH635+39", "compound_code": "H635+39 New Delhi, Delhi, India"}, "vicinity": "E 6, Ground Floor and Mezzanine Floor, Hauz Khas, New Delhi", "scope": "GOOGLE", "business_status": "OPERATIONAL", "types": ["atm", "bank", "finance", "point_of_interest", "establishment"], "icon": "https://maps.gstatic.com/mapfiles/place_api/icons/v1/png_71/atm-71.png"}, {"rating": 2.7, "user_ratings_total": 20, "name": "Axis Bank", "reference": "ChIJbVf6gwviDDkRmc7i5IfdB6g", "geometry": {"location": {"lat": 28.5526441, "lng": 77.20842700000001}, "viewport": {"northeast": {"lat": 28.5539465302915, "lng": 77.20974178029151}, "southwest": {"lat": 28.55124856970849, "lng": 77.2070438197085}}}, "opening_hours": {"open_now": true}, "place_id": "ChIJbVf6gwviDDkRmc7i5IfdB6g", "plus_code": {"global_code": "7JWVH635+39", "compound_code": "H635+39 New Delhi, Delhi, India"}, "vicinity": "E 6, Ground Floor and Mezzanine Floor, Hauz Khas, New Delhi", "photos": [{"photo_reference": "CmRaAAAAaYaGREyL-7MdLDjJM6013M2J_3kHyJIP-sJgQbqI1EGKqFyZre_tAteAxwErHvBgaQD0rkrLa6xtGB7kEUEjfxtHXUNLc2zAQhLxyBUoHpsF8ec0Wpzga7n72ExSuReAEhDJ_oZWGtT-rFkSc1eAaHzFGhRjP1PZROjAC-HgPa_ZUGZb5DeX9w", "width": 4000, "html_attributions": ["<a href=\"https://maps.google.com/maps/contrib/102537105279421533831\">Karan</a>"], "height": 3000}], "scope": "GOOGLE", "business_status": "OPERATIONAL", "types": ["bank", "finance", "point_of_interest", "establishment"], "icon": "https://maps.gstatic.com/mapfiles/place_api/icons/v1/png_71/bank-71.png"}, {"rating": 4, "user_ratings_total": 1, "name": "YES Bank ATM", "reference": "ChIJ80Gqz3PiDDkRqPH-8XxpAYM", "geometry": {"location": {"lat": 28.5577811, "lng": 77.2022272}, "viewport": {"northeast": {"lat": 28.5591197802915, "lng": 77.2036294302915}, "southwest": {"lat": 28.55642181970849, "lng": 77.2009314697085}}}, "opening_hours": {"open_now": true}, "place_id": "ChIJ80Gqz3PiDDkRqPH-8XxpAYM", "plus_code": {"global_code": "7JWVH652+4V", "compound_code": "H652+4V New Delhi, Delhi, India"}, "vicinity": "S/7, Deccan Chronicle Holdings Ltd, Green Park, New Delhi", "photos": [{"photo_reference": "CmRaAAAA3KQOFfr34NpZB-vo3HePgebMtFsl2IaVVraS9Ct5OlNHW7pGbrhD5-GivaIPw2U1EAifOHUcpKPzRpbVHSCw1tF2RyotV8SANTGwh7uPlIh7oFVy8lnsMi2CsKu5gRnjEhA_YCF6pwVnffagMNHtcAHEGhSCYcFVULU3vHesPDBKZM7f1XzZww", "width": 400, "html_attributions": ["<a href=\"https://maps.google.com/maps/contrib/112483326803756872168\">YES Bank ATM</a>"], "height": 400}], "scope": "GOOGLE", "business_status": "OPERATIONAL", "types": ["atm", "bank", "finance", "point_of_interest", "establishment"], "icon": "https://maps.gstatic.com/mapfiles/place_api/icons/v1/png_71/atm-71.png"}, {"rating": 4.1, "user_ratings_total": 14, "name": "Central Bank Of India", "reference": "ChIJ5yxDZnLiDDkR44lO9EAx564", "geometry": {"location": {"lat": 28.5568105, "lng": 77.2048465}, "viewport": {"northeast": {"lat": 28.5581169302915, "lng": 77.2061783802915}, "southwest": {"lat": 28.55541896970849, "lng": 77.20348041970848}}}, "opening_hours": {"open_now": true}, "place_id": "ChIJ5yxDZnLiDDkR44lO9EAx564", "plus_code": {"global_code": "7JWVH643+PW", "compound_code": "H643+PW New Delhi, Delhi, India"}, "vicinity": "Sri Aurobindo Marg, Block D, Green Park, New Delhi", "photos": [{"photo_reference": "CmRaAAAAkz11xpYzvLI0lkIhEZAt1tMWrkrvM-gztAxEsilYalT5TR7paaxjsOb2rT1UEa1uNw36oaCoqV5qttTNIjhfEUA-N4YdNlfo3ZRUbtVZB41h0ELovDJbh875OHn-yRRlEhClWmVQGQKbOmiaDlh5JupRGhTY0CTVp6j7jEgvmfGhTlzB333iog", "width": 4608, "html_attributions": ["<a href=\"https://maps.google.com/maps/contrib/102503620277848655519\">Alok Bansal</a>"], "height": 3456}], "scope": "GOOGLE", "business_status": "OPERATIONAL", "types": ["bank", "finance", "point_of_interest", "establishment"], "icon": "https://maps.gstatic.com/mapfiles/place_api/icons/v1/png_71/bank-71.png"}, {"rating": 2, "user_ratings_total": 1, "name": "YES Bank ATM", "reference": "ChIJzdHY0O7iDDkRylZNkBeSjkY", "geometry": {"location": {"lat": 28.5564225, "lng": 77.20589369999999}, "viewport": {"northeast": {"lat": 28.5578362802915, "lng": 77.2072580302915}, "southwest": {"lat": 28.55513831970849, "lng": 77.20456006970849}}}, "opening_hours": {"open_now": true}, "place_id": "ChIJzdHY0O7iDDkRylZNkBeSjkY", "plus_code": {"global_code": "7JWVH644+H9", "compound_code": "H644+H9 New Delhi, Delhi, India"}, "vicinity": "Ground, A/2A, Green Park, New Delhi", "photos": [{"photo_reference": "CmRaAAAA0HqxP1nQRcPh28wv8ix38BLl0paXqEjHKz5KRbvhF0zHvuyMUQLD-JqqKsYXOD8krXkLH88C1DSmu0mCdM_oNcJ69kWG51e8vPwTYRy8iadgVmyn7hcq21Uo_SYkO5K2EhDMccqI4I8N6dmmkM1yTfpnGhRcPUUvLCgzncF1OZ27FTFOpCN8mg", "width": 400, "html_attributions": ["<a href=\"https://maps.google.com/maps/contrib/114401274155363885180\">YES Bank ATM</a>"], "height": 400}], "scope": "GOOGLE", "business_status": "OPERATIONAL", "types": ["atm", "bank", "finance", "point_of_interest", "establishment"], "icon": "https://maps.gstatic.com/mapfiles/place_api/icons/v1/png_71/atm-71.png"}, {"name": "HDFC Bank ATM", "reference": "ChIJP6aRIBPiDDkR-YjkVbEgHPY", "geometry": {"location": {"lat": 28.552535, "lng": 77.208958}, "viewport": {"northeast": {"lat": 28.5537698302915, "lng": 77.21022338029151}, "southwest": {"lat": 28.5510718697085, "lng": 77.20752541970849}}}, "opening_hours": {"open_now": true}, "place_id": "ChIJP6aRIBPiDDkR-YjkVbEgHPY", "plus_code": {"global_code": "7JWVH635+2H", "compound_code": "H635+2H New Delhi, Delhi, India"}, "vicinity": "A24, Hauz Khas, New Delhi", "scope": "GOOGLE", "business_status": "OPERATIONAL", "types": ["atm", "bank", "finance", "point_of_interest", "establishment"], "icon": "https://maps.gstatic.com/mapfiles/place_api/icons/v1/png_71/atm-71.png"}, {"rating": 3.3, "user_ratings_total": 64, "name": "State Bank of India IIT Delhi", "reference": "ChIJOyV6SvYdDTkRbhAGJT3PJ-A", "geometry": {"location": {"lat": 28.5438988, "lng": 77.19322509999999}, "viewport": {"northeast": {"lat": 28.5452123302915, "lng": 77.19446593029151}, "southwest": {"lat": 28.5425143697085, "lng": 77.1917679697085}}}, "opening_hours": {"open_now": true}, "place_id": "ChIJOyV6SvYdDTkRbhAGJT3PJ-A", "plus_code": {"global_code": "7JWVG5VV+H7", "compound_code": "G5VV+H7 New Delhi, Delhi, India"}, "vicinity": "IIT Delhi Main Road, Hauz Khas Market, New Delhi", "photos": [{"photo_reference": "CmRaAAAABLNnWKE-1KJck-udw9qZ6KzCwv8mVkNH6vG7tO6Rw0cBvdlmeLLZU4ZxWhugpXP-Z1D88C34_HmG9MmN7y51sRd9aXf-Sb8zk-epsANX-VyXip5I4HGNwP5JeHd2oOJUEhB176081TlWQgBBjkgrC5POGhQWMwz7dFZPaO8Anh8166f_DK_hUA", "width": 4032, "html_attributions": ["<a href=\"https://maps.google.com/maps/contrib/113442096513967372580\">Anish Khan</a>"], "height": 3024}], "scope": "GOOGLE", "business_status": "OPERATIONAL", "types": ["atm", "bank", "finance", "point_of_interest", "establishment"], "icon": "https://maps.gstatic.com/mapfiles/place_api/icons/v1/png_71/bank-71.png"}, {"rating": 2.2, "user_ratings_total": 6, "name": "HDFC Bank", "reference": "ChIJm5KvhwviDDkRhQjJdnh1hvU", "geometry": {"location": {"lat": 28.5541486, "lng": 77.20844079999999}, "viewport": {"northeast": {"lat": 28.5554876302915, "lng": 77.2098238302915}, "southwest": {"lat": 28.5527896697085, "lng": 77.20712586970849}}}, "opening_hours": {"open_now": true}, "place_id": "ChIJm5KvhwviDDkRhQjJdnh1hvU", "plus_code": {"global_code": "7JWVH635+M9", "compound_code": "H635+M9 New Delhi, Delhi, India"}, "vicinity": "No A, 24, Hauz Khas Road, \u0939\u094c\u091c\u093c \u0916\u093e\u0938, \u0928\u0908 \u0926\u093f\u0932\u094d\u0932\u0940", "photos": [{"photo_reference": "CmRaAAAAkncbSje3TJ-27kA2Shu0Og4l3VpiyecCA-BESaGFdGefPkAVbBQH5Bpyuh3Exnj15KQlwIrLJs4_7BYG9mnRFTPIvvZEu5STCwWrQ8IzQqX54dMTIXaQkDYSt3EJOSnIEhD8NkrHiuHk_llZJc8Td0aOGhRXt84oLNGLbxAw9UhdPUquT07Ccg", "width": 3456, "html_attributions": ["<a href=\"https://maps.google.com/maps/contrib/113521486541147031634\">Anuj Maurya</a>"], "height": 4608}], "scope": "GOOGLE", "business_status": "OPERATIONAL", "types": ["bank", "finance", "point_of_interest", "establishment"], "icon": "https://maps.gstatic.com/mapfiles/place_api/icons/v1/png_71/bank-71.png"}, {"rating": 2.3, "user_ratings_total": 4, "name": "HDFC Bank ATM", "reference": "ChIJaXiZnPYdDTkRFval5STEXfQ", "geometry": {"location": {"lat": 28.545876, "lng": 77.19083429999999}, "viewport": {"northeast": {"lat": 28.5471634302915, "lng": 77.19201263029152}, "southwest": {"lat": 28.54446546970849, "lng": 77.18931466970851}}}, "opening_hours": {"open_now": true}, "place_id": "ChIJaXiZnPYdDTkRFval5STEXfQ", "plus_code": {"global_code": "7JWVG5WR+98", "compound_code": "G5WR+98 New Delhi, Delhi, India"}, "vicinity": "HDFC Bank ATM, Jia Sarai, Hauz Khas, New Delhi", "photos": [{"photo_reference": "CmRaAAAAIRS9H8Iqjpe9n7DkJDS6vm1g4LSirZcQY3_a1g9uiwHf4CwKTKf1jjSjHCgthRNTOaoFQngOqavgXJusrpcP-g8eaxB8YE9et97OUZU6imuEzZCpgCk275M_4cr8nfIPEhBPTaSK9R7LXVRYAMQ7GwTOGhSPq174SI4cyWW8kwZ4lsrsoIjP4Q", "width": 3120, "html_attributions": ["<a href=\"https://maps.google.com/maps/contrib/102224558849772723573\">Sachin Karki Red</a>"], "height": 4160}], "scope": "GOOGLE", "business_status": "OPERATIONAL", "types": ["atm", "bank", "finance", "point_of_interest", "establishment"], "icon": "https://maps.gstatic.com/mapfiles/place_api/icons/v1/png_71/atm-71.png"}, {"rating": 3.7, "user_ratings_total": 3, "name": "Karnatka Bank", "reference": "ChIJVVVVhXHiDDkROo4uwDt0u_M", "geometry": {"location": {"lat": 28.55777089999999, "lng": 77.2052183}, "viewport": {"northeast": {"lat": 28.5591108302915, "lng": 77.2065904302915}, "southwest": {"lat": 28.5564128697085, "lng": 77.20389246970849}}}, "opening_hours": {"open_now": true}, "place_id": "ChIJVVVVhXHiDDkROo4uwDt0u_M", "plus_code": {"global_code": "7JWVH654+43", "compound_code": "H654+43 New Delhi, Delhi, India"}, "vicinity": "Block C, Green Park Extension, Green Park, New Delhi", "photos": [{"photo_reference": "CmRaAAAAflfT1m38Lejy6LhFk5eB1C7FE6zwYp1Gmzl0Wv05Zip_4tvTteCRtsmXjrxckWfCvgb8X5RKQcN7KjOzAY98rlyHd8ak_gL7g4UWrZtgSmXV1bos37bs1ycf5VG8L-e4EhCLA_Gcu24rw29ht8bbZMX8GhQUE6UPN1RhS1sCGPxI-jg9Vsg0qg", "width": 3120, "html_attributions": ["<a href=\"https://maps.google.com/maps/contrib/118250154912613796013\">Shashank Shekhar</a>"], "height": 4160}], "scope": "GOOGLE", "business_status": "OPERATIONAL", "types": ["bank", "finance", "point_of_interest", "establishment"], "icon": "https://maps.gstatic.com/mapfiles/place_api/icons/v1/png_71/bank-71.png"}, {"rating": 3.2, "user_ratings_total": 9, "name": "Canara Bank", "reference": "ChIJQXtvdnLiDDkRVIW_0VjFUko", "geometry": {"location": {"lat": 28.5575094, "lng": 77.2059582}, "viewport": {"northeast": {"lat": 28.5588670802915, "lng": 77.20726363029151}, "southwest": {"lat": 28.5561691197085, "lng": 77.2045656697085}}}, "place_id": "ChIJQXtvdnLiDDkRVIW_0VjFUko", "plus_code": {"global_code": "7JWVH654+29", "compound_code": "H654+29 New Delhi, Delhi, India"}, "vicinity": "9, Community Centre, Gulmohar Enclave, Yusuf Sarai, New Delhi", "photos": [{"photo_reference": "CmRaAAAAyvI28SQn0GYSqqBRzWtsVL0bKj4zITz7bhuLYbsb38czT3o_lUQfYEczNq8GqSsL-T-tl0vSJahEwUcdeeBaQ0HL9MpilMlR1A3oFpCoixDOnnZjt6beWaCW3Btvb7qNEhBcxH9bOmrSWax5zrwZzEp_GhR7yTFp95h0O6xQbxfljQHXWgR9Gg", "width": 3120, "html_attributions": ["<a href=\"https://maps.google.com/maps/contrib/118250154912613796013\">Shashank Shekhar</a>"], "height": 4160}], "scope": "GOOGLE", "business_status": "OPERATIONAL", "types": ["bank", "finance", "point_of_interest", "establishment"], "icon": "https://maps.gstatic.com/mapfiles/place_api/icons/v1/png_71/bank-71.png"}, {"rating": 3, "user_ratings_total": 19, "name": "Corporation Bank", "reference": "ChIJRzgBd3LiDDkRxyaWsQpo_YU", "geometry": {"location": {"lat": 28.557575, "lng": 77.206012}, "viewport": {"northeast": {"lat": 28.5589490802915, "lng": 77.2073032302915}, "southwest": {"lat": 28.5562511197085, "lng": 77.2046052697085}}}, "opening_hours": {"open_now": true}, "place_id": "ChIJRzgBd3LiDDkRxyaWsQpo_YU", "plus_code": {"global_code": "7JWVH654+2C", "compound_code": "H654+2C New Delhi, Delhi, India"}, "vicinity": "S-24, Sri Aurobindo Marg, Green Park Extension, New Delhi", "photos": [{"photo_reference": "CmRaAAAA4hzW679GeFWXm9RMkGmkSFbzNyhKpd_7MwlAFfaz6mR0cMaF803Sy2Tlb0mrUDzDTOE6o-x-7DuyNe7nzng89W8rxxGd11YaaX5Oc306QResucTmE2JSKdz94Esjx3f5EhBgNobMA4BKe1yOuhHUT4j8GhQqKAp01oeKCqQD9SxfbgjnnnrzOw", "width": 4608, "html_attributions": ["<a href=\"https://maps.google.com/maps/contrib/116888889030604677897\">Nitin Chandra</a>"], "height": 3456}], "scope": "GOOGLE", "business_status": "OPERATIONAL", "types": ["bank", "finance", "point_of_interest", "establishment"], "icon": "https://maps.gstatic.com/mapfiles/place_api/icons/v1/png_71/bank-71.png"}, {"rating": 3.8, "user_ratings_total": 12, "name": "HDFC Bank", "reference": "ChIJ7QpwcnbiDDkR0mh9oyaqL40", "geometry": {"location": {"lat": 28.5592831, "lng": 77.1988217}, "viewport": {"northeast": {"lat": 28.5606416302915, "lng": 77.2001358302915}, "southwest": {"lat": 28.5579436697085, "lng": 77.1974378697085}}}, "opening_hours": {"open_now": true}, "place_id": "ChIJ7QpwcnbiDDkR0mh9oyaqL40", "plus_code": {"global_code": "7JWVH55X+PG", "compound_code": "H55X+PG New Delhi, Delhi, India"}, "vicinity": "opposite Deer Park, B 6/3, Safdarjung Enclave, New Delhi", "photos": [{"photo_reference": "CmRaAAAAtavz6LcwrKGssP7JdzibW_Yy5KBV1QW34ELiDF6t7_3L2w7TuQi6qQ64n6xuxsbAHA7KRIU3aM3HB8WfxIaJ2Qu2hbh-xf_pxT62Xpz2TBhyo0hIL4c_3Oe-UnMMuMp9EhAnF5ftXEoOqZ3GV0bDRL5mGhQEeSijDWyJYNgBQbG7GlaDhe1Apg", "width": 4160, "html_attributions": ["<a href=\"https://maps.google.com/maps/contrib/103192494427934492193\">Ravish Agrawal</a>"], "height": 3120}], "scope": "GOOGLE", "business_status": "OPERATIONAL", "types": ["bank", "finance", "point_of_interest", "establishment"], "icon": "https://maps.gstatic.com/mapfiles/place_api/icons/v1/png_71/bank-71.png"}, {"rating": 1.5, "user_ratings_total": 18, "name": "State Bank of India", "reference": "ChIJC9DXxRXiDDkRxj9S6tMMZLc", "geometry": {"location": {"lat": 28.552073, "lng": 77.2107262}, "viewport": {"northeast": {"lat": 28.5533680302915, "lng": 77.2122813302915}, "southwest": {"lat": 28.5506700697085, "lng": 77.20958336970848}}}, "place_id": "ChIJC9DXxRXiDDkRxj9S6tMMZLc", "plus_code": {"global_code": "7JWVH626+R7", "compound_code": "H626+R7 New Delhi, Delhi, India"}, "vicinity": "118, Asian Games Village Complex, Shahpur Jat, New Delhi", "scope": "GOOGLE", "business_status": "OPERATIONAL", "types": ["bank", "finance", "point_of_interest", "establishment"], "icon": "https://maps.gstatic.com/mapfiles/place_api/icons/v1/png_71/bank-71.png"}, {"rating": 3.4, "user_ratings_total": 10, "name": "Punjab & Sind Bank", "reference": "ChIJlQfd823iDDkRO5QLmoISAJA", "geometry": {"location": {"lat": 28.5580704, "lng": 77.2064802}, "viewport": {"northeast": {"lat": 28.5594120802915, "lng": 77.20788518029151}, "southwest": {"lat": 28.5567141197085, "lng": 77.2051872197085}}}, "opening_hours": {"open_now": true}, "place_id": "ChIJlQfd823iDDkRO5QLmoISAJA", "plus_code": {"global_code": "7JWVH654+6H", "compound_code": "H654+6H New Delhi, Delhi, India"}, "vicinity": "S-16, Green Park Extension, New Delhi", "photos": [{"photo_reference": "CmRaAAAA2j8bU12ndqTM79IaUcqQZOHH7Y4ugiP9nNMCGjvsDsOjtaznF8R3PJcCj4HRtfio21WBxYdIJbIrkKu5FeZcvZVDz9dEk32PS_ciidF8ExXbj6BXZZigwqIvnpvYooyXEhCm6qgtM7thja1iFKvj4YCxGhSpnAoCpKVGhHt0KXyz3VeJsL4dSQ", "width": 2974, "html_attributions": ["<a href=\"https://maps.google.com/maps/contrib/116888889030604677897\">Nitin Chandra</a>"], "height": 1468}], "scope": "GOOGLE", "business_status": "OPERATIONAL", "types": ["bank", "finance", "point_of_interest", "establishment"], "icon": "https://maps.gstatic.com/mapfiles/place_api/icons/v1/png_71/bank-71.png"}, {"rating": 2.3, "user_ratings_total": 71, "name": "ICICI Bank Green Park, New Delhi - Branch & ATM", "reference": "ChIJ1Ychmpr9DDkRGwxx4bsUyYk", "geometry": {"location": {"lat": 28.5597127, "lng": 77.203868}, "viewport": {"northeast": {"lat": 28.5609903302915, "lng": 77.2051985302915}, "southwest": {"lat": 28.55829236970849, "lng": 77.20250056970849}}}, "opening_hours": {"open_now": true}, "place_id": "ChIJ1Ychmpr9DDkRGwxx4bsUyYk", "plus_code": {"global_code": "7JWVH653+VG", "compound_code": "H653+VG New Delhi, Delhi, India"}, "vicinity": "S - 26, 27, 28, Veera Towers, Ground Floor, Green Park Extension, New Delhi", "photos": [{"photo_reference": "CmRaAAAA9rwDbby7UmhBjWPLCmvJh048iccFQwLe0t0GPjRBJnVj0x8BeMqD8qpWni1MejNVuAy3-KfSbxdBNbqX9InUOuWVAz5sU3kx8A1nrF_d2mUbFDgnqX71K38hTQiYQePHEhD1S44XdIqD4XYJeoyKryXvGhQze2o2_pHq07ThCbteG_veUdJvUg", "width": 4160, "html_attributions": ["<a href=\"https://maps.google.com/maps/contrib/118250154912613796013\">Shashank Shekhar</a>"], "height": 3120}], "scope": "GOOGLE", "business_status": "OPERATIONAL", "types": ["bank", "atm", "finance", "point_of_interest", "establishment"], "icon": "https://maps.gstatic.com/mapfiles/place_api/icons/v1/png_71/bank-71.png"}, {"rating": 2.2, "user_ratings_total": 5, "name": "Kotak Mahindra Bank", "reference": "ChIJn5XotXbiDDkR1Qd5hvUq84I", "geometry": {"location": {"lat": 28.559975, "lng": 77.19996499999999}, "viewport": {"northeast": {"lat": 28.5613353302915, "lng": 77.20131733029149}, "southwest": {"lat": 28.55863736970849, "lng": 77.19861936970848}}}, "opening_hours": {"open_now": true}, "place_id": "ChIJn5XotXbiDDkR1Qd5hvUq84I", "plus_code": {"global_code": "7JWVH55X+XX", "compound_code": "H55X+XX New Delhi, Delhi, India"}, "vicinity": "ING Vysya Bank (now Kotak, New Delhi", "scope": "GOOGLE", "business_status": "OPERATIONAL", "types": ["bank", "finance", "point_of_interest", "establishment"], "icon": "https://maps.gstatic.com/mapfiles/place_api/icons/v1/png_71/bank-71.png"}, {"rating": 1, "user_ratings_total": 2, "name": "YES Bank ATM", "reference": "ChIJAQBwZwviDDkR9fdyiSv34j4", "geometry": {"location": {"lat": 28.5422363, "lng": 77.2071639}, "viewport": {"northeast": {"lat": 28.5435441302915, "lng": 77.2085076302915}, "southwest": {"lat": 28.5408461697085, "lng": 77.2058096697085}}}, "opening_hours": {"open_now": true}, "place_id": "ChIJAQBwZwviDDkR9fdyiSv34j4", "plus_code": {"global_code": "7JWVG6R4+VV", "compound_code": "G6R4+VV New Delhi, Delhi, India"}, "vicinity": "Shop No 11, DDA MARKET, Sarvapriya Vihar, New Delhi", "photos": [{"photo_reference": "CmRaAAAAw4eaZWSKYcg5-WSFYrlkg5uVUvGB_U6Z_-JbJC2RmQwJToDXTF6rmo477TN99rWL0WO3_F94i7nFLAGCZxhnalnEODQu8gVCxBlM7L7Lyxdwcn18uyPVvVBkrWg-noR7EhBoqHp17tKlybiO99gyOhfuGhRl3frjE2cTusJfqX4zZJBjPTCHZQ", "width": 400, "html_attributions": ["<a href=\"https://maps.google.com/maps/contrib/104296672699286707401\">YES Bank ATM</a>"], "height": 400}], "scope": "GOOGLE", "business_status": "OPERATIONAL", "types": ["atm", "bank", "finance", "point_of_interest", "establishment"], "icon": "https://maps.gstatic.com/mapfiles/place_api/icons/v1/png_71/atm-71.png"}, {"rating": 3.6, "user_ratings_total": 9, "name": "Bank of India", "reference": "ChIJR_un4hPiDDkRl4Pai3VvuiM", "geometry": {"location": {"lat": 28.5477138, "lng": 77.211399}, "viewport": {"northeast": {"lat": 28.5490480802915, "lng": 77.2128203802915}, "southwest": {"lat": 28.5463501197085, "lng": 77.2101224197085}}}, "opening_hours": {"open_now": true}, "place_id": "ChIJR_un4hPiDDkRl4Pai3VvuiM", "plus_code": {"global_code": "7JWVG6X6+3H", "compound_code": "G6X6+3H New Delhi, Delhi, India"}, "vicinity": "7, Panchsheel Shopping Centre, Panchsheel, New Delhi", "photos": [{"photo_reference": "CmRaAAAAAVeQ5tv4FGmaGY23jQt_GCpYiTEalFyJiX6H1mS5_rLpJ3u110hgcsiaRgBv9OZnB4zFKfhcsirMZ51YJgnE_2p9QrAxkUx2Wrgqo3Gbg6QXYUQMsss-yQI4FYK-oTjYEhCBklu66aK07_Kfv0FWnhL7GhRQypfkIMl4HzjqW8ZCk2qhnWvetg", "width": 4608, "html_attributions": ["<a href=\"https://maps.google.com/maps/contrib/112663554201917121199\">Anurag Gupta</a>"], "height": 3456}], "scope": "GOOGLE", "business_status": "OPERATIONAL", "types": ["bank", "finance", "point_of_interest", "establishment"], "icon": "https://maps.gstatic.com/mapfiles/place_api/icons/v1/png_71/bank-71.png"}]}