{"status": "OK", "html_attributions": [], "results": [{"rating": 3.3, "user_ratings_total": 8, "name": "Canara Bank", "reference": "ChIJuxcfasJHDTkR2WlqticzpNI", "geometry": {"location": {"lat": 28.2314503, "lng": 76.801533}, "viewport": {"northeast": {"lat": 28.2327355802915, "lng": 76.80288173029152}, "southwest": {"lat": 28.2300376197085, "lng": 76.8001837697085}}}, "opening_hours": {"open_now": true}, "place_id": "ChIJuxcfasJHDTkR2WlqticzpNI", "plus_code": {"global_code": "7JWR6RJ2+HJ", "compound_code": "6RJ2+HJ Mao, Haryana, India"}, "vicinity": "Near Hero Honda Factory, Industrial Area Dharuhera", "scope": "GOOGLE", "business_status": "OPERATIONAL", "types": ["bank", "finance", "point_of_interest", "establishment"], "icon": "https://maps.gstatic.com/mapfiles/place_api/icons/v1/png_71/bank-71.png"}, {"rating": 4.5, "user_ratings_total": 6, "name": "Allahabad Bank", "reference": "ChIJOXQPLt9HDTkRcYMEoQ7JiGo", "geometry": {"location": {"lat": 28.2178369, "lng": 76.7975074}, "viewport": {"northeast": {"lat": 28.21914033029151, "lng": 76.79885613029151}, "southwest": {"lat": 28.2164423697085, "lng": 76.7961581697085}}}, "opening_hours": {"open_now": true}, "place_id": "ChIJOXQPLt9HDTkRcYMEoQ7JiGo", "plus_code": {"global_code": "7JWR6Q9X+42", "compound_code": "6Q9X+42 Dharuhera, Haryana, India"}, "vicinity": "Dharuhera", "scope": "GOOGLE", "business_status": "OPERATIONAL", "types": ["bank", "finance", "point_of_interest", "establishment"], "icon": "https://maps.gstatic.com/mapfiles/place_api/icons/v1/png_71/bank-71.png"}, {"rating": 3, "user_ratings_total": 2, "name": "Malpura punjab national bank", "reference": "ChIJDdSh1NxHDTkRwPaaigBglqc", "geometry": {"location": {"lat": 28.2271915, "lng": 76.7996373}, "viewport": {"northeast": {"lat": 28.2286752802915, "lng": 76.80099898029151}, "southwest": {"lat": 28.2259773197085, "lng": 76.7983010197085}}}, "place_id": "ChIJDdSh1NxHDTkRwPaaigBglqc", "plus_code": {"global_code": "7JWR6QGX+VV", "compound_code": "6QGX+VV Malpura, Haryana, India"}, "vicinity": "Malpura", "photos": [{"photo_reference": "CmRaAAAA2IP_TjUEWF11YtbvCZu8s6KsE6ufhNwzQooHO_k7VkC8nq5JzN8apT4LTD6ToJ4yCz4lBsiWP5R3SHxq8puMuYKx__qmGUdMEDRF7qeGfZCCea2Vg5htg4vBj9JHUsQfEhAxs684Jk8ClTtc3wmdiZs6GhS9EhQ22YtPBNUhyhYz3ZfdGWB6Sw", "width": 2336, "html_attributions": ["<a href=\"https://maps.google.com/maps/contrib/102452432269808608308\">Balgobind Kumar</a>"], "height": 4160}], "scope": "GOOGLE", "business_status": "OPERATIONAL", "types": ["bank", "finance", "point_of_interest", "establishment"], "icon": "https://maps.gstatic.com/mapfiles/place_api/icons/v1/png_71/bank-71.png"}, {"rating": 5, "user_ratings_total": 1, "name": "Axis Bank ATM", "reference": "ChIJHXe5ncFHDTkRnyn6pvK9wgs", "geometry": {"location": {"lat": 28.2312076, "lng": 76.8042481}, "viewport": {"northeast": {"lat": 28.2325317802915, "lng": 76.80563928029152}, "southwest": {"lat": 28.2298338197085, "lng": 76.8029413197085}}}, "opening_hours": {"open_now": true}, "place_id": "ChIJHXe5ncFHDTkRnyn6pvK9wgs", "plus_code": {"global_code": "7JWR6RJ3+FM", "compound_code": "6RJ3+FM Mao, Haryana, India"}, "vicinity": "opposite Hero Honda Factory, Ground Floor Dharuhera, opposite Hero Honda Factory, Gurugram", "scope": "GOOGLE", "business_status": "OPERATIONAL", "types": ["atm", "bank", "finance", "point_of_interest", "establishment"], "icon": "https://maps.gstatic.com/mapfiles/place_api/icons/v1/png_71/atm-71.png"}, {"name": "ICICI BANK ATM", "reference": "ChIJ19dC1E1HDTkR_y1KRC5MUDM", "geometry": {"location": {"lat": 28.21849629999999, "lng": 76.7962646}, "viewport": {"northeast": {"lat": 28.2198651802915, "lng": 76.7975174302915}, "southwest": {"lat": 28.21716721970849, "lng": 76.79481946970849}}}, "opening_hours": {"open_now": true}, "place_id": "ChIJ19dC1E1HDTkR_y1KRC5MUDM", "plus_code": {"global_code": "7JWR6Q9W+9G", "compound_code": "6Q9W+9G Dharuhera, Haryana, India"}, "vicinity": "Varuna Integrated Logistics P Ltd, 8.9 milestone Delhi Jaipur Highway, NH8, Village, Khijuri", "scope": "GOOGLE", "business_status": "OPERATIONAL", "types": ["bank", "finance", "point_of_interest", "establishment"], "icon": "https://maps.gstatic.com/mapfiles/place_api/icons/v1/png_71/bank-71.png"}, {"name": "CANARA BANK - GENERAL BRANCH", "reference": "ChIJ3fs0-fJHDTkRCwopYvOZdPw", "geometry": {"location": {"lat": 28.2315623, "lng": 76.80191239999999}, "viewport": {"northeast": {"lat": 28.2329119802915, "lng": 76.8033036302915}, "southwest": {"lat": 28.2302140197085, "lng": 76.80060566970849}}}, "place_id": "ChIJ3fs0-fJHDTkRCwopYvOZdPw", "plus_code": {"global_code": "7JWR6RJ2+JQ", "compound_code": "6RJ2+JQ Dharuhera, Haryana, India"}, "vicinity": "C/O HERO MOTOCORP LTD, 69TH KM STONE, Delhi - Jaipur Expressway, Dharuhera", "scope": "GOOGLE", "business_status": "OPERATIONAL", "types": ["bank", "finance", "point_of_interest", "establishment"], "icon": "https://maps.gstatic.com/mapfiles/place_api/icons/v1/png_71/bank-71.png"}]}