{"status": "OK", "html_attributions": [], "results": [{"rating": 3.7, "user_ratings_total": 3, "name": "Axis Bank ATM", "reference": "ChIJdXcPcSZMETkRtcY127cOhyE", "geometry": {"location": {"lat": 28.3721653, "lng": 76.88757389999999}, "viewport": {"northeast": {"lat": 28.3735300802915, "lng": 76.8889040802915}, "southwest": {"lat": 28.3708321197085, "lng": 76.88620611970848}}}, "opening_hours": {"open_now": true}, "place_id": "ChIJdXcPcSZMETkRtcY127cOhyE", "plus_code": {"global_code": "7JWR9VCQ+V2", "compound_code": "9VCQ+V2 Manesar, Gurugram, Haryana, India"}, "vicinity": "Main Entrance Dhana Sector 8 Near Maruti Gate No 2, Manesar", "photos": [{"photo_reference": "CmRaAAAAFKidkVTE5LpWkZ9mGRHAUsF9pbAhOiwQDr4xqe_NOjfRC3px806itVJkLhJ6e3a1BGYeBRUaDuhqFSWvUKQVhnxbUwd7rp2ZQWhJ9YYo4q0rURzFWPAVGZPTiXIBD2GmEhAeghE9RCHT-4C_LCmrji6LGhSsM1p2XtUS26g1KwHi7Y43suR3AQ", "width": 3000, "html_attributions": ["<a href=\"https://maps.google.com/maps/contrib/100003491414005382621\">Ashok vishwakarma</a>"], "height": 4000}], "scope": "GOOGLE", "business_status": "OPERATIONAL", "types": ["atm", "bank", "finance", "point_of_interest", "establishment"], "icon": "https://maps.gstatic.com/mapfiles/place_api/icons/v1/png_71/atm-71.png"}, {"rating": 2, "user_ratings_total": 2, "name": "Axis Bank ATM", "reference": "ChIJGRY40LLbDTkREG1yM1Hg6t4", "geometry": {"location": {"lat": 28.3692728, "lng": 76.8884934}, "viewport": {"northeast": {"lat": 28.3705907802915, "lng": 76.88984168029151}, "southwest": {"lat": 28.36789281970849, "lng": 76.88714371970849}}}, "opening_hours": {"open_now": true}, "place_id": "ChIJGRY40LLbDTkREG1yM1Hg6t4", "plus_code": {"global_code": "7JWR9V9Q+P9", "compound_code": "9V9Q+P9 Manesar, Gurugram, Haryana, India"}, "vicinity": "adjacent OBC Branch, Shop No 1 IMT Manesar, adjacent OBC Branch, Sector 8 Road, Manesar", "scope": "GOOGLE", "business_status": "OPERATIONAL", "types": ["atm", "bank", "finance", "point_of_interest", "establishment"], "icon": "https://maps.gstatic.com/mapfiles/place_api/icons/v1/png_71/atm-71.png"}, {"rating": 5, "user_ratings_total": 1, "name": "HDFC Bank ATM", "reference": "ChIJPano3Jo_DTkRXGyTcbfGrrI", "geometry": {"location": {"lat": 28.37154, "lng": 76.87894}, "viewport": {"northeast": {"lat": 28.3728891802915, "lng": 76.8802734802915}, "southwest": {"lat": 28.3701912197085, "lng": 76.87757551970849}}}, "opening_hours": {"open_now": true}, "place_id": "ChIJPano3Jo_DTkRXGyTcbfGrrI", "plus_code": {"global_code": "7JWR9VCH+JH", "compound_code": "9VCH+JH Gurugram, Haryana, India"}, "vicinity": "Plot No 102 Manesar, Sector 8 Near OBC Branch, Western Peripheral Expressway", "scope": "GOOGLE", "business_status": "OPERATIONAL", "types": ["atm", "bank", "finance", "point_of_interest", "establishment"], "icon": "https://maps.gstatic.com/mapfiles/place_api/icons/v1/png_71/atm-71.png"}, {"name": "ICICI BANK ATM", "reference": "ChIJkfvw1jE_DTkRbecNK5HrSFc", "geometry": {"location": {"lat": 28.3763308, "lng": 76.8870697}, "viewport": {"northeast": {"lat": 28.3775533802915, "lng": 76.8883987302915}, "southwest": {"lat": 28.3748554197085, "lng": 76.88570076970849}}}, "opening_hours": {"open_now": true}, "place_id": "ChIJkfvw1jE_DTkRbecNK5HrSFc", "plus_code": {"global_code": "7JWR9VGP+GR", "compound_code": "9VGP+GR Gurugram, Haryana, India"}, "vicinity": "Numbardar Market, Main Market Road, Village-Aliyar, Sector 8, Imt Manesar, Gurugram", "scope": "GOOGLE", "business_status": "OPERATIONAL", "types": ["bank", "finance", "point_of_interest", "establishment"], "icon": "https://maps.gstatic.com/mapfiles/place_api/icons/v1/png_71/bank-71.png"}, {"rating": 5, "user_ratings_total": 1, "name": "OBC ATM", "reference": "ChIJ-7k9llY_DTkRmDC5Gsgn8Aw", "geometry": {"location": {"lat": 28.3750684, "lng": 76.8897787}, "viewport": {"northeast": {"lat": 28.3764669302915, "lng": 76.89114843029151}, "southwest": {"lat": 28.37376896970849, "lng": 76.88845046970849}}}, "place_id": "ChIJ-7k9llY_DTkRmDC5Gsgn8Aw", "plus_code": {"global_code": "7JWR9VGQ+2W", "compound_code": "9VGQ+2W Gurugram, Haryana, India"}, "vicinity": "357, opposite plot, Sector 8 Road, Imt Manesar, Gurugram", "scope": "GOOGLE", "business_status": "OPERATIONAL", "types": ["bank", "finance", "point_of_interest", "establishment"], "icon": "https://maps.gstatic.com/mapfiles/place_api/icons/v1/png_71/bank-71.png"}, {"name": "Axis Bank ATM", "reference": "ChIJazzVssY_DTkR8kX8EDndYwA", "geometry": {"location": {"lat": 28.37614, "lng": 76.89056099999999}, "viewport": {"northeast": {"lat": 28.3774498802915, "lng": 76.8919098302915}, "southwest": {"lat": 28.3747519197085, "lng": 76.88921186970849}}}, "opening_hours": {"open_now": true}, "place_id": "ChIJazzVssY_DTkR8kX8EDndYwA", "plus_code": {"global_code": "7JWR9VGR+F6", "compound_code": "9VGR+F6 Gurugram, Haryana, India"}, "vicinity": "near Industrial Area, House No 202 Bans Haria, Manesar, near Industrial Area, Gurugram", "scope": "GOOGLE", "business_status": "OPERATIONAL", "types": ["atm", "bank", "finance", "point_of_interest", "establishment"], "icon": "https://maps.gstatic.com/mapfiles/place_api/icons/v1/png_71/atm-71.png"}, {"name": "Fino Payment Bank", "reference": "ChIJSTpHmJM_DTkRZ5rUV7AxpX4", "geometry": {"location": {"lat": 28.3737309, "lng": 76.8926331}, "viewport": {"northeast": {"lat": 28.3750870802915, "lng": 76.8939986802915}, "southwest": {"lat": 28.3723891197085, "lng": 76.8913007197085}}}, "opening_hours": {"open_now": true}, "place_id": "ChIJSTpHmJM_DTkRZ5rUV7AxpX4", "plus_code": {"global_code": "7JWR9VFV+F3", "compound_code": "9VFV+F3 Gurugram, Haryana, India"}, "vicinity": "Bans Haria, Aliyar, Imt Manesar, Gurugram", "scope": "GOOGLE", "business_status": "OPERATIONAL", "types": ["bank", "finance", "point_of_interest", "establishment"], "icon": "https://maps.gstatic.com/mapfiles/place_api/icons/v1/png_71/bank-71.png"}, {"rating": 5, "user_ratings_total": 2, "name": "Megha Money Transfer", "reference": "ChIJq6qqLl0-DTkR2-GzB3OuKns", "geometry": {"location": {"lat": 28.3737309, "lng": 76.89263319999999}, "viewport": {"northeast": {"lat": 28.3750870802915, "lng": 76.8939986802915}, "southwest": {"lat": 28.3723891197085, "lng": 76.8913007197085}}}, "opening_hours": {"open_now": true}, "place_id": "ChIJq6qqLl0-DTkR2-GzB3OuKns", "plus_code": {"global_code": "7JWR9VFV+F3", "compound_code": "9VFV+F3 Gurugram, Haryana, India"}, "vicinity": "Bans Haria, Imt Manesar, Gurugram", "scope": "GOOGLE", "business_status": "OPERATIONAL", "types": ["bank", "finance", "point_of_interest", "establishment"], "icon": "https://maps.gstatic.com/mapfiles/place_api/icons/v1/png_71/bank-71.png"}, {"name": "Shri Balaji Communication", "reference": "ChIJIWDSPl0-DTkRrHX-mzrD4pE", "geometry": {"location": {"lat": 28.3730863, "lng": 76.8934941}, "viewport": {"northeast": {"lat": 28.37446308029151, "lng": 76.8948672802915}, "southwest": {"lat": 28.3717651197085, "lng": 76.8921693197085}}}, "place_id": "ChIJIWDSPl0-DTkRrHX-mzrD4pE", "plus_code": {"global_code": "7JWR9VFV+69", "compound_code": "9VFV+69 Gurugram, Haryana, India"}, "vicinity": "Bans Haria, Imt Manesar, Gurugram", "scope": "GOOGLE", "business_status": "OPERATIONAL", "types": ["bank", "finance", "point_of_interest", "establishment"], "icon": "https://maps.gstatic.com/mapfiles/place_api/icons/v1/png_71/bank-71.png"}]}