{"status": "OK", "html_attributions": [], "results": [{"rating": 4.7, "user_ratings_total": 6, "name": "Hancharahalli", "reference": "ChIJcUMp-TMFrjsR2O2ypD4ZyE0", "geometry": {"location": {"lat": 13.093657, "lng": 77.750528}, "viewport": {"northeast": {"lat": 13.0950101802915, "lng": 77.7518825802915}, "southwest": {"lat": 13.0923122197085, "lng": 77.74918461970849}}}, "place_id": "ChIJcUMp-TMFrjsR2O2ypD4ZyE0", "plus_code": {"global_code": "7J5V3QV2+F6", "compound_code": "3QV2+F6 Hancharahalli, Karnataka, India"}, "vicinity": "India", "scope": "GOOGLE", "business_status": "OPERATIONAL", "types": ["bus_station", "transit_station", "point_of_interest", "establishment"], "icon": "https://maps.gstatic.com/mapfiles/place_api/icons/v1/png_71/bus-71.png"}, {"name": "Kattugollahalli", "reference": "ChIJOYPljMwarjsR_ZtCa35NVvs", "geometry": {"location": {"lat": 13.094372, "lng": 77.74285499999999}, "viewport": {"northeast": {"lat": 13.0957213802915, "lng": 77.7442027802915}, "southwest": {"lat": 13.0930234197085, "lng": 77.7415048197085}}}, "place_id": "ChIJOYPljMwarjsR_ZtCa35NVvs", "plus_code": {"global_code": "7J5V3PVV+P4", "compound_code": "3PVV+P4 Bengaluru, Karnataka, India"}, "vicinity": "Bengaluru", "scope": "GOOGLE", "business_status": "OPERATIONAL", "types": ["bus_station", "transit_station", "point_of_interest", "establishment"], "icon": "https://maps.gstatic.com/mapfiles/place_api/icons/v1/png_71/bus-71.png"}, {"rating": 5, "user_ratings_total": 3, "name": "Hancharahalli Gate", "reference": "ChIJB3rNmcsarjsRcBKMhDypA2M", "geometry": {"location": {"lat": 13.09179, "lng": 77.74163999999999}, "viewport": {"northeast": {"lat": 13.0931285802915, "lng": 77.74302108029151}, "southwest": {"lat": 13.0904306197085, "lng": 77.7403231197085}}}, "place_id": "ChIJB3rNmcsarjsRcBKMhDypA2M", "plus_code": {"global_code": "7J5V3PRR+PM", "compound_code": "3PRR+PM Kodigehalli, Karnataka, India"}, "vicinity": "India", "scope": "GOOGLE", "business_status": "OPERATIONAL", "types": ["bus_station", "transit_station", "point_of_interest", "establishment"], "icon": "https://maps.gstatic.com/mapfiles/place_api/icons/v1/png_71/bus-71.png"}]}