{"status": "OK", "html_attributions": [], "results": [{"rating": 4.5, "user_ratings_total": 8, "name": "Samethanahalli Old Stop", "reference": "ChIJ--H4hYAOrjsR1a9K-UPxCmw", "geometry": {"location": {"lat": 12.979897, "lng": 77.791485}, "viewport": {"northeast": {"lat": 12.9812832302915, "lng": 77.7928515302915}, "southwest": {"lat": 12.9785852697085, "lng": 77.7901535697085}}}, "place_id": "ChIJ--H4hYAOrjsR1a9K-UPxCmw", "plus_code": {"global_code": "7J4VXQHR+XH", "compound_code": "XQHR+XH Samethanahalli, Karnataka, India"}, "vicinity": "National Highway 207, Thirumalashettyhally, Samethanahalli", "scope": "GOOGLE", "business_status": "OPERATIONAL", "types": ["bus_station", "transit_station", "point_of_interest", "establishment"], "icon": "https://maps.gstatic.com/mapfiles/place_api/icons/v1/png_71/bus-71.png"}, {"rating": 4.6, "user_ratings_total": 11, "name": "Koraluru", "reference": "ChIJ3Q0vQmcOrjsR8yNfs9sevso", "geometry": {"location": {"lat": 12.997823, "lng": 77.783968}, "viewport": {"northeast": {"lat": 12.9991430802915, "lng": 77.78535368029151}, "southwest": {"lat": 12.9964451197085, "lng": 77.7826557197085}}}, "place_id": "ChIJ3Q0vQmcOrjsR8yNfs9sevso", "plus_code": {"global_code": "7J4VXQXM+4H", "compound_code": "XQXM+4H Appajipura, Karnataka, India"}, "vicinity": "India", "photos": [{"photo_reference": "ATtYBwKn5XKtrcUjUbutsvINKKPc11VIylo00_PRm00mYUmnFGtDO6jXFbUTQSl9qlux-VZ19dON8W8F69_qJbOo0wvbJH6i6OG3jod9dUocUSn04VEypV3HCcT_Z4mec7Z5KNRgXmdQNhziVXn2F98i9pMe8FbJBgSg7SoSWwa7A-5rG6iS", "width": 1536, "html_attributions": ["<a href=\"https://maps.google.com/maps/contrib/106751845234829927136\">Fojeirul Hoque</a>"], "height": 2048}], "scope": "GOOGLE", "business_status": "OPERATIONAL", "types": ["bus_station", "transit_station", "point_of_interest", "establishment"], "icon": "https://maps.gstatic.com/mapfiles/place_api/icons/v1/png_71/bus-71.png"}, {"rating": 3.7, "user_ratings_total": 105, "name": "Channasandra", "reference": "ChIJKS9ELXMOrjsRVWuwKWzvluk", "geometry": {"location": {"lat": 12.983322, "lng": 77.768153}, "viewport": {"northeast": {"lat": 12.9847110302915, "lng": 77.7694951302915}, "southwest": {"lat": 12.9820130697085, "lng": 77.7667971697085}}}, "place_id": "ChIJKS9ELXMOrjsRVWuwKWzvluk", "plus_code": {"global_code": "7J4VXQM9+87", "compound_code": "XQM9+87 Bengaluru, Karnataka, India"}, "vicinity": "India", "photos": [{"photo_reference": "ATtYBwJGUaQg7lCAFI3-nRRunR88N8KNifCbwf6TwJAWZUsR2Wruh3ZTbPDGL6-lqVV9r0XTKD2GoVdr_12CgHnz-JEN33HqD0OLfJzscsPha3WNejx67peXggxzwVwfCK704ovlT5nfLpRGokV-6LVyqnlQcFO0GskUob7xX6PHsovwEi8O", "width": 4160, "html_attributions": ["<a href=\"https://maps.google.com/maps/contrib/101247487827512508050\">Lokesh Loke</a>"], "height": 3120}], "scope": "GOOGLE", "business_status": "OPERATIONAL", "types": ["bus_station", "transit_station", "point_of_interest", "establishment"], "icon": "https://maps.gstatic.com/mapfiles/place_api/icons/v1/png_71/bus-71.png"}]}