{"status": "OK", "html_attributions": [], "results": [{"rating": 5, "user_ratings_total": 1, "name": "Bettahalli", "reference": "ChIJZ30SBcIDrjsR_Ywm2jIB5fY", "geometry": {"location": {"lat": 13.182279, "lng": 77.820188}, "viewport": {"northeast": {"lat": 13.1836373302915, "lng": 77.8215780802915}, "southwest": {"lat": 13.1809393697085, "lng": 77.8188801197085}}}, "place_id": "ChIJZ30SBcIDrjsR_Ywm2jIB5fY", "plus_code": {"global_code": "7J5V5RJC+W3", "compound_code": "5RJC+W3 Bettahalli, Karnataka, India"}, "vicinity": "India", "photos": [{"photo_reference": "ATtYBwLzlRENuq4v3qKoxg0SYZqhpTgiQWwnvfn1PmacDXikaV5qmMQSTXH5lE6UrrveNPg70cOTNIN5iRJ2xUop3yTULDd3WRZCcb6a_sxQKmcdbOWsQ-Bh7wede05lhR1yvAArDPjkBgvQ4NKKVHfmEnIvitrK7UdJmqKfD97OVYMVtmj_", "width": 3120, "html_attributions": ["<a href=\"https://maps.google.com/maps/contrib/105940178300756020255\">Manjunath BN</a>"], "height": 4160}], "scope": "GOOGLE", "business_status": "OPERATIONAL", "types": ["bus_station", "transit_station", "point_of_interest", "establishment"], "icon": "https://maps.gstatic.com/mapfiles/place_api/icons/v1/png_71/bus-71.png"}, {"rating": 4.5, "user_ratings_total": 8, "name": "Sulibele", "reference": "ChIJ4STDVrsDrjsRHZaYxvoK1C0", "geometry": {"location": {"lat": 13.186816, "lng": 77.802905}, "viewport": {"northeast": {"lat": 13.1881651802915, "lng": 77.80425698029151}, "southwest": {"lat": 13.1854672197085, "lng": 77.8015590197085}}}, "place_id": "ChIJ4STDVrsDrjsRHZaYxvoK1C0", "plus_code": {"global_code": "7J5V5RP3+P5", "compound_code": "5RP3+P5 Sulibele, Karnataka, India"}, "vicinity": "India", "photos": [{"photo_reference": "ATtYBwLLpVmGvsc-Wm1TGYn9QQg8rwSyiibSENYPjveDjlDyUtPpfb8AweOCFS87Re2wA-Ru4CjAbwMCln3G9Lbv-Yu6LGnL-GTlAfNBLyJCIjrIOWwNWQlPGNAIvA5NF9fzm6Gw7d1SxdlTIzvfyD1VAx9lrgkABf638ezfIICZ5Mix6HI4", "width": 640, "html_attributions": ["<a href=\"https://maps.google.com/maps/contrib/114216928620235917776\">Salman Pasha S</a>"], "height": 640}], "scope": "GOOGLE", "business_status": "OPERATIONAL", "types": ["bus_station", "transit_station", "point_of_interest", "establishment"], "icon": "https://maps.gstatic.com/mapfiles/place_api/icons/v1/png_71/bus-71.png"}, {"name": "Ankanahalli", "reference": "ChIJO3KjPlMCrjsRH0Ut7C62p_E", "geometry": {"location": {"lat": 13.204332, "lng": 77.798458}, "viewport": {"northeast": {"lat": 13.2056735802915, "lng": 77.7998239302915}, "southwest": {"lat": 13.2029756197085, "lng": 77.79712596970849}}}, "place_id": "ChIJO3KjPlMCrjsRH0Ut7C62p_E", "plus_code": {"global_code": "7J5V6Q3X+P9", "compound_code": "6Q3X+P9 Ankonahally, Karnataka, India"}, "vicinity": "India", "scope": "GOOGLE", "business_status": "OPERATIONAL", "types": ["bus_station", "transit_station", "point_of_interest", "establishment"], "icon": "https://maps.gstatic.com/mapfiles/place_api/icons/v1/png_71/bus-71.png"}]}