{"status": "OK", "html_attributions": [], "results": [{"rating": 3, "user_ratings_total": 3, "name": "Chikka Maskal", "reference": "ChIJ3UB8Lv02rjsR1Akq8C5qJas", "geometry": {"location": {"lat": 12.919714, "lng": 77.330545}, "viewport": {"northeast": {"lat": 12.9210522802915, "lng": 77.3318656802915}, "southwest": {"lat": 12.9183543197085, "lng": 77.3291677197085}}}, "place_id": "ChIJ3UB8Lv02rjsR1Akq8C5qJas", "plus_code": {"global_code": "7J4VW89J+V6", "compound_code": "W89J+V6 Chikkamaskal, Karnataka, India"}, "vicinity": "India", "scope": "GOOGLE", "business_status": "OPERATIONAL", "types": ["bus_station", "transit_station", "point_of_interest", "establishment"], "icon": "https://maps.gstatic.com/mapfiles/place_api/icons/v1/png_71/bus-71.png"}, {"rating": 4.7, "user_ratings_total": 3, "name": "Byregowdanapalya Cross", "reference": "ChIJjfcQ3_o2rjsRo208gb0q8JQ", "geometry": {"location": {"lat": 12.918969, "lng": 77.323711}, "viewport": {"northeast": {"lat": 12.9203150802915, "lng": 77.3250594802915}, "southwest": {"lat": 12.9176171197085, "lng": 77.32236151970848}}}, "place_id": "ChIJjfcQ3_o2rjsRo208gb0q8JQ", "plus_code": {"global_code": "7J4VW89F+HF", "compound_code": "W89F+HF Veerapura, Karnataka, India"}, "vicinity": "India", "photos": [{"photo_reference": "ATtYBwKSXW5pAfJBY7Vc2fb5svJVcO5LxAbC2D0CA3eaSwTZVJHNgnw7-e1_yCf9YgT--QbBgYABXFvm-_fZdHo3cUJ1Y0rqbFYMi7hUXo6F7ji6-nHPoyLxCqccTecB_LFnyQ5HWsuRaReaFXEij_vyEX1RDAiKaywCHuBg0CZeghVEySBO", "width": 1080, "html_attributions": ["<a href=\"https://maps.google.com/maps/contrib/106203990489855706220\">YOGESH GOWDA</a>"], "height": 1440}], "scope": "GOOGLE", "business_status": "OPERATIONAL", "types": ["bus_station", "transit_station", "point_of_interest", "establishment"], "icon": "https://maps.gstatic.com/mapfiles/place_api/icons/v1/png_71/bus-71.png"}, {"rating": 1, "user_ratings_total": 1, "name": "Guddaiahnapalya", "reference": "ChIJJ1Eg5Og2rjsRtvgUI4ZHgw8", "geometry": {"location": {"lat": 12.927319, "lng": 77.318542}, "viewport": {"northeast": {"lat": 12.9286690802915, "lng": 77.31989308029151}, "southwest": {"lat": 12.9259711197085, "lng": 77.3171951197085}}}, "place_id": "ChIJJ1Eg5Og2rjsRtvgUI4ZHgw8", "plus_code": {"global_code": "7J4VW8G9+WC", "compound_code": "W8G9+WC Chikkamaskal, Karnataka, India"}, "vicinity": "India", "scope": "GOOGLE", "business_status": "OPERATIONAL", "types": ["bus_station", "transit_station", "point_of_interest", "establishment"], "icon": "https://maps.gstatic.com/mapfiles/place_api/icons/v1/png_71/bus-71.png"}]}