{"status": "OK", "next_page_token": "ATtYBwL_H6MJz_rAnO7VoupTZuV-ef4ZOq0lQ1Cli5QJW6v_xi5kxCCR5I3EWQ2Af-fx5W8PnAtBYKeOYF5e0CWhr4tM-E9_tdh7DGV1vr-mz0mKt1NhfalcHsEALv7RHRvtPjqH9goyE0cvKYY1FJ-8XhWo1fMYrZLqhaGOoFzp9d8pYdprdiFh4-hw0InNbQbbaWbBhc825y1GiepmWfsF721kkxV2BQnPZGylsjagNHqbtUHW7QBm8jBqVDb2k6cPvsvXHUDz-Sglwcax-VzsssZACq-V1mgv5vuVmEOVDkYonlZF1bjslgrmoEjW9gbtLQlDtol_5B7GVHEACMECnZKaltVOL2fvqwzQ7oKViIl_BpaK1WzIF6WSaVY62t3pkYuB9ZNQ8655ddn_WVlJnhJM3_hCb7cQt-7vxru_m-v2NjqnxrxRdrN5Hxf29bMxdySV_35OMRaBX1fQBgi61MKE6n1QEmxrUEo83sARRl77_VYImGfGs3ajL2ZKDn97z702XP6uVjyXbVlwmkGw6X1tU6y3NJ6H51rbpz2xt0yf0IMMHVkm3N8CmroutmX6arlLcHy3RVRuArA9wHFt6FsE8BMLoml1R2hlT0kQcFe3-0AkBl5FtysjLjnoyMPWMkQ5xQ", "html_attributions": [], "results": [{"rating": 4.5, "user_ratings_total": 14, "name": "SBI e Corner", "reference": "ChIJhdXD5R54AjoR4dSFS2ANW5Y", "geometry": {"location": {"lat": 22.5909143, "lng": 88.32064849999999}, "viewport": {"northeast": {"lat": 22.5922682802915, "lng": 88.32193523029149}, "southwest": {"lat": 22.5895703197085, "lng": 88.31923726970848}}}, "opening_hours": {"open_now": true}, "place_id": "ChIJhdXD5R54AjoR4dSFS2ANW5Y", "plus_code": {"global_code": "7MJCH8RC+97", "compound_code": "H8RC+97 Howrah, West Bengal, India"}, "vicinity": "Kadam Tala, Howrah", "photos": [{"photo_reference": "ATtYBwLZSFPB07RmCSWWo05gmbTlnof8cLFTvhqxQrG9Uf-CaDvktad6ASvr-wvsVtW9Dir0bQ_DiTPXft9VaqEjst-CfQRd-OiwMzNclstOJAGEfGOCTSuAFKkf-9kH5jLWv7F1fbXS4xCYXCa4vMqfYV09IDkw10tUO-rnncEa1GihTUQI", "width": 3264, "html_attributions": ["<a href=\"https://maps.google.com/maps/contrib/112064850890401431017\">Mousumi Das</a>"], "height": 2448}], "scope": "GOOGLE", "business_status": "OPERATIONAL", "types": ["bank", "finance", "point_of_interest", "establishment"], "icon": "https://maps.gstatic.com/mapfiles/place_api/icons/v1/png_71/bank-71.png"}, {"rating": 3.3, "user_ratings_total": 12, "name": "Axis Bank", "reference": "ChIJLVqdt453AjoR0lfN8JLLpbY", "geometry": {"location": {"lat": 22.5857973, "lng": 88.3302258}, "viewport": {"northeast": {"lat": 22.5871462802915, "lng": 88.3315747802915}, "southwest": {"lat": 22.5844483197085, "lng": 88.3288768197085}}}, "opening_hours": {"open_now": false}, "place_id": "ChIJLVqdt453AjoR0lfN8JLLpbY", "plus_code": {"global_code": "7MJCH8PJ+83", "compound_code": "H8PJ+83 Howrah, West Bengal, India"}, "vicinity": "No 333/1/1, Ground & 1st Floor, Kali Babur Bazar, Howrah", "photos": [{"photo_reference": "ATtYBwKlXwtt0pg4V0LfQHAT1wkz9bLj70PwADaCed1JVNiAcsrgvx3qLP5mZfm5t1u9WfxcUwiOEZd1Eb0sRBiNT2Hc3m8XP5u9XqFTJ0FJuu0Nr-I5diQ3ng_IVuRe0bAYKBQpFRwfN3xqSo849q3Q9EdrkQq8rVUuX42oFrh7Uf1TbncH", "width": 1200, "html_attributions": ["<a href=\"https://maps.google.com/maps/contrib/114222575874332867167\">SUKANTA DAS</a>"], "height": 1600}], "scope": "GOOGLE", "business_status": "OPERATIONAL", "types": ["bank", "finance", "point_of_interest", "establishment"], "icon": "https://maps.gstatic.com/mapfiles/place_api/icons/v1/png_71/bank-71.png"}, {"rating": 3.4, "user_ratings_total": 8, "name": "Axis Bank ATM", "reference": "ChIJd2R08Ix3AjoRaZYRnOeXsEM", "geometry": {"location": {"lat": 22.5858025, "lng": 88.3302241}, "viewport": {"northeast": {"lat": 22.5872107302915, "lng": 88.3316597302915}, "southwest": {"lat": 22.5845127697085, "lng": 88.3289617697085}}}, "opening_hours": {"open_now": true}, "place_id": "ChIJd2R08Ix3AjoRaZYRnOeXsEM", "plus_code": {"global_code": "7MJCH8PJ+83", "compound_code": "H8PJ+83 Howrah, West Bengal, India"}, "vicinity": "No 333/1/1, Ground & 1st Floor, Kali Babur Bazar, Howrah", "photos": [{"photo_reference": "ATtYBwK-SeQo5Zyj7b1aWVD4IiJD4a6sXibpEyzDCsN4BMKXWGx0qW58vA1HZf7-r52qq9k37q21FW8Mggll2GRiJZMDImk2-1sjpjGff5HhL018iE0USyTK0WgJkibHfpEyhv_7-eri2ib1Zohhfjj1QpFLd1-8kZBEUHToWHRCILRMDS-j", "width": 3120, "html_attributions": ["<a href=\"https://maps.google.com/maps/contrib/111082198575260209318\">SANJAY CHANDA</a>"], "height": 4160}], "scope": "GOOGLE", "business_status": "OPERATIONAL", "types": ["atm", "bank", "finance", "point_of_interest", "establishment"], "icon": "https://maps.gstatic.com/mapfiles/place_api/icons/v1/png_71/atm-71.png"}, {"rating": 2.8, "user_ratings_total": 10, "name": "HDFC Bank ATM", "reference": "ChIJpe3RK-x4AjoR3LrRnQZ1GoM", "geometry": {"location": {"lat": 22.5689417, "lng": 88.31827280000002}, "viewport": {"northeast": {"lat": 22.5702685302915, "lng": 88.31968308029151}, "southwest": {"lat": 22.5675705697085, "lng": 88.31698511970849}}}, "opening_hours": {"open_now": true}, "place_id": "ChIJpe3RK-x4AjoR3LrRnQZ1GoM", "plus_code": {"global_code": "7MJCH899+H8", "compound_code": "H899+H8 Howrah, West Bengal, India"}, "vicinity": "171, Satragachi, Shivpur, Howrah", "photos": [{"photo_reference": "ATtYBwImma0TZmOe_948Lr4wCcbfhoAV5HB4QGKxSjPljt1OKcAaYViQg2RipR8k1_RIu361fvnckIaICSBaFK8raTS9xMHRh4nD-co5ArvArMx9gdJNF_CgL43ZKNf9wSyxYi7dLpFdnKdm_dZ6VpMsLQulkFzKTVt5tFwKUQ8eFWgrg4Nr", "width": 300, "html_attributions": ["<a href=\"https://maps.google.com/maps/contrib/110190136804388397362\">HDFC Bank ATM</a>"], "height": 300}], "scope": "GOOGLE", "business_status": "OPERATIONAL", "types": ["atm", "bank", "finance", "point_of_interest", "establishment"], "icon": "https://maps.gstatic.com/mapfiles/place_api/icons/v1/png_71/atm-71.png"}, {"rating": 3.7, "user_ratings_total": 23, "name": "IDBI Bank", "reference": "ChIJFwfoAY13AjoRxJq-Tz3iDZQ", "geometry": {"location": {"lat": 22.5847137, "lng": 88.3311835}, "viewport": {"northeast": {"lat": 22.5860466302915, "lng": 88.3325991802915}, "southwest": {"lat": 22.5833486697085, "lng": 88.32990121970849}}}, "opening_hours": {"open_now": false}, "place_id": "ChIJFwfoAY13AjoRxJq-Tz3iDZQ", "plus_code": {"global_code": "7MJCH8MJ+VF", "compound_code": "H8MJ+VF Howrah, West Bengal, India"}, "vicinity": "240, Panchanantala Road, Kadam Tala, Howrah", "photos": [{"photo_reference": "ATtYBwI5eyPXkLRR05aHvR0fERA-OJGMzGp8bVbt_YTF0YntelYe64qyl0wBKD340MJrKrhKMdCxv3psdcpTAJcXgzBc7BE0zaK7o6gfUU9I3Hb-FD1JuGt1DJ4EQRFHg9svA8kz7uBWsDmB8e2HklkFggMLPHwa7Zxy_THn_V1y8a_yQmx4", "width": 3000, "html_attributions": ["<a href=\"https://maps.google.com/maps/contrib/101120582842116967275\">Arghyadeep Ghosh</a>"], "height": 4000}], "scope": "GOOGLE", "business_status": "OPERATIONAL", "types": ["atm", "bank", "finance", "point_of_interest", "establishment"], "icon": "https://maps.gstatic.com/mapfiles/place_api/icons/v1/png_71/bank-71.png"}, {"rating": 3.8, "user_ratings_total": 8, "name": "Paschim Banga Gramin Bank", "reference": "ChIJ3bPc8D14AjoRLvDFVMupP5s", "geometry": {"location": {"lat": 22.58674, "lng": 88.3100742}, "viewport": {"northeast": {"lat": 22.5881035802915, "lng": 88.3113878802915}, "southwest": {"lat": 22.5854056197085, "lng": 88.30868991970848}}}, "opening_hours": {"open_now": false}, "place_id": "ChIJ3bPc8D14AjoRLvDFVMupP5s", "plus_code": {"global_code": "7MJCH8P6+M2", "compound_code": "H8P6+M2 Howrah, West Bengal, India"}, "vicinity": "HRBC Housing Estate, Howrah", "photos": [{"photo_reference": "ATtYBwJ7fOYCjl0z1UonU0mB_RzSjkR5xljn64Gtgxka5JSDCNI0hOAnFjoC9qUS_J4IcrzyW3K4BGS83hOSWQNEj4YASHuU54ujN-rKEYMRTWQSAjQCndZgKvHbszeL7IsjRK0ktw-8NI9h8ftqcjGuzDpmrhDLO8SumWYwVqT21oUd3MUK", "width": 4000, "html_attributions": ["<a href=\"https://maps.google.com/maps/contrib/107043356652083039721\">Abhijit Mukherjee</a>"], "height": 2000}], "scope": "GOOGLE", "business_status": "OPERATIONAL", "types": ["bank", "finance", "point_of_interest", "establishment"], "icon": "https://maps.gstatic.com/mapfiles/place_api/icons/v1/png_71/bank-71.png"}, {"name": "HDFC Bank ATM", "reference": "ChIJfxrgAY13AjoRQP-yRPJoUsw", "geometry": {"location": {"lat": 22.58471, "lng": 88.331221}, "viewport": {"northeast": {"lat": 22.5860472802915, "lng": 88.33261863029149}, "southwest": {"lat": 22.5833493197085, "lng": 88.32992066970849}}}, "opening_hours": {"open_now": true}, "place_id": "ChIJfxrgAY13AjoRQP-yRPJoUsw", "plus_code": {"global_code": "7MJCH8MJ+VF", "compound_code": "H8MJ+VF Howrah, West Bengal, India"}, "vicinity": "70, Despran Sasmal Rd, Panchanantala, Howrah", "scope": "GOOGLE", "business_status": "OPERATIONAL", "types": ["atm", "bank", "finance", "point_of_interest", "establishment"], "icon": "https://maps.gstatic.com/mapfiles/place_api/icons/v1/png_71/atm-71.png"}, {"rating": 3, "user_ratings_total": 2, "name": "HDFC Bank", "reference": "ChIJAxjgAY13AjoRy9OnQQvGJ_c", "geometry": {"location": {"lat": 22.584712, "lng": 88.331221}, "viewport": {"northeast": {"lat": 22.5860492302915, "lng": 88.3326189302915}, "southwest": {"lat": 22.58335126970849, "lng": 88.3299209697085}}}, "opening_hours": {"open_now": false}, "place_id": "ChIJAxjgAY13AjoRy9OnQQvGJ_c", "plus_code": {"global_code": "7MJCH8MJ+VF", "compound_code": "H8MJ+VF Howrah, West Bengal, India"}, "vicinity": "70, Despran Sasmal Rd, Panchanantala, Howrah", "photos": [{"photo_reference": "ATtYBwKTyNt1HTGSacRG3icIPRk8ew9b4AMoZG_QU5_DKD-t0Dz6wbuikXZO-kkE_oqODSLVp_C5beTlzjOpQ5ZgN6XwcVBHVW6cyBOG81reFdCnTceYBOyxGZicVEoV1lu5zCfbCov8YV0xfu67sbXe-DIbyVGdJsTwzkDIS49lN4ETq2Wo", "width": 1000, "html_attributions": ["<a href=\"https://maps.google.com/maps/contrib/109174371872878524686\">HDFC Bank</a>"], "height": 563}], "scope": "GOOGLE", "business_status": "OPERATIONAL", "types": ["bank", "finance", "point_of_interest", "establishment"], "icon": "https://maps.gstatic.com/mapfiles/place_api/icons/v1/png_71/bank-71.png"}, {"rating": 3.6, "user_ratings_total": 11, "name": "Vijaya Bank", "reference": "ChIJkQIs4I13AjoRXcCidqMKC7Q", "geometry": {"location": {"lat": 22.5815013, "lng": 88.332358}, "viewport": {"northeast": {"lat": 22.5828124802915, "lng": 88.3337772302915}, "southwest": {"lat": 22.5801145197085, "lng": 88.33107926970848}}}, "place_id": "ChIJkQIs4I13AjoRXcCidqMKC7Q", "plus_code": {"global_code": "7MJCH8JJ+JW", "compound_code": "H8JJ+JW Howrah, West Bengal, India"}, "vicinity": "33, Grand Trunk Road, Bangabasi, Howrah Railway Station, Kadam Tala, Howrah", "photos": [{"photo_reference": "ATtYBwI9AsVNzFeLL7cxPe7OxTeooTIdTKXbR_fyAJdzOYPoRMWeInrvBSorLTki2LzNRt3OhHRp6Ox6ezmVJMoPwjkQ48LrANTsGKs3t5N2o5-Szr1Rcf552J0OqCjNWtOiZ44-SfTe8lzyx-4qfKh-hLPzdydceZSIXEQuN_HGefGzdLbU", "width": 1536, "html_attributions": ["<a href=\"https://maps.google.com/maps/contrib/106717742389905130120\">Hirak Chatterjee</a>"], "height": 2048}], "scope": "GOOGLE", "business_status": "OPERATIONAL", "types": ["atm", "bank", "finance", "point_of_interest", "establishment"], "icon": "https://maps.gstatic.com/mapfiles/place_api/icons/v1/png_71/bank-71.png"}, {"rating": 3.5, "user_ratings_total": 21, "name": "Shibpur Co-operative Bank", "reference": "ChIJCQRoDix4AjoRMIJ2QwOErM0", "geometry": {"location": {"lat": 22.5684977, "lng": 88.3186331}, "viewport": {"northeast": {"lat": 22.5698352302915, "lng": 88.32001623029151}, "southwest": {"lat": 22.5671372697085, "lng": 88.3173182697085}}}, "opening_hours": {"open_now": false}, "place_id": "ChIJCQRoDix4AjoRMIJ2QwOErM0", "plus_code": {"global_code": "7MJCH899+9F", "compound_code": "H899+9F Howrah, West Bengal, India"}, "vicinity": "Shibpur Road, Shibtala, Shibpur, Howrah", "scope": "GOOGLE", "business_status": "OPERATIONAL", "types": ["bank", "finance", "point_of_interest", "establishment"], "icon": "https://maps.gstatic.com/mapfiles/place_api/icons/v1/png_71/bank-71.png"}, {"rating": 3.5, "user_ratings_total": 6, "name": "Arohan Micro Finance", "reference": "ChIJe8OoFRl4AjoRd5es8-gANws", "geometry": {"location": {"lat": 22.5915295, "lng": 88.3177363}, "viewport": {"northeast": {"lat": 22.5928764802915, "lng": 88.31909113029151}, "southwest": {"lat": 22.59017851970849, "lng": 88.31639316970849}}}, "opening_hours": {"open_now": false}, "place_id": "ChIJe8OoFRl4AjoRd5es8-gANws", "plus_code": {"global_code": "7MJCH8R9+J3", "compound_code": "H8R9+J3 Howrah, West Bengal, India"}, "vicinity": "Block A, Bantra, Ichapur, Howrah", "scope": "GOOGLE", "business_status": "OPERATIONAL", "types": ["bank", "finance", "point_of_interest", "establishment"], "icon": "https://maps.gstatic.com/mapfiles/place_api/icons/v1/png_71/bank-71.png"}, {"rating": 3.2, "user_ratings_total": 9, "name": "Punjab and Sind Bank", "reference": "ChIJrcd04Y13AjoRbBOCHpRS9Ts", "geometry": {"location": {"lat": 22.5817118, "lng": 88.3325547}, "viewport": {"northeast": {"lat": 22.5830318302915, "lng": 88.33395998029151}, "southwest": {"lat": 22.5803338697085, "lng": 88.3312620197085}}}, "opening_hours": {"open_now": false}, "place_id": "ChIJrcd04Y13AjoRbBOCHpRS9Ts", "plus_code": {"global_code": "7MJCH8JM+M2", "compound_code": "H8JM+M2 Howrah, West Bengal, India"}, "vicinity": "22, Grand Trunk Road, Howrah Railway Station, Kadam Tala, Howrah", "photos": [{"photo_reference": "ATtYBwKvSoOkwDQNDNupm21gFMIGxr_j2_rwd9KDyzqU5JWynlcbMwNlRz1S27IAlp_XhmU7C5kaH8D66naETVwmiD6mo7IzldvRkjlYZSvxSBjIiOYpSu5tLT1Nf0Ck1d4yoIxjCnjH1nYfNGLmVddc-49q29sCAoVtL9Zpb8CPJntgVL4C", "width": 2048, "html_attributions": ["<a href=\"https://maps.google.com/maps/contrib/106717742389905130120\">Hirak Chatterjee</a>"], "height": 1536}], "scope": "GOOGLE", "business_status": "OPERATIONAL", "types": ["bank", "finance", "point_of_interest", "establishment"], "icon": "https://maps.gstatic.com/mapfiles/place_api/icons/v1/png_71/bank-71.png"}, {"rating": 3.5, "user_ratings_total": 22, "name": "United Bank Of India & ATM UBI", "reference": "ChIJNXETNhl4AjoRVodTqszobLI", "geometry": {"location": {"lat": 22.5916617, "lng": 88.3187143}, "viewport": {"northeast": {"lat": 22.5930640302915, "lng": 88.32007278029151}, "southwest": {"lat": 22.5903660697085, "lng": 88.31737481970849}}}, "opening_hours": {"open_now": false}, "place_id": "ChIJNXETNhl4AjoRVodTqszobLI", "plus_code": {"global_code": "7MJCH8R9+MF", "compound_code": "H8R9+MF Howrah, West Bengal, India"}, "vicinity": "4/1, New HIT Road, Block A, Bantra, Ichapur, Howrah", "photos": [{"photo_reference": "ATtYBwKHgnqVt9MsQCHlNDBssVG2FECo1a0Gmpyng56yQ6zv2l1Qm4XoPYpAgQ0tpwtsb9N4RqXXlYrdel7cS348hZEAMKX4IZHDahdErn9dG37ugBN6RPoloxDpyguK2yuR9cnJAyD69sTu4PUrtZNPMjB_2ehvLyaAWfz3t4ATPdrpzbrE", "width": 3840, "html_attributions": ["<a href=\"https://maps.google.com/maps/contrib/102389612779965966720\">Santosh Kumar</a>"], "height": 2160}], "scope": "GOOGLE", "business_status": "OPERATIONAL", "types": ["bank", "finance", "point_of_interest", "establishment"], "icon": "https://maps.gstatic.com/mapfiles/place_api/icons/v1/png_71/bank-71.png"}, {"rating": 2.6, "user_ratings_total": 9, "name": "UCO Bank", "reference": "ChIJDd9FLId3AjoR7EUAI6tymCc", "geometry": {"location": {"lat": 22.5695695, "lng": 88.3258173}, "viewport": {"northeast": {"lat": 22.5709071302915, "lng": 88.3272131302915}, "southwest": {"lat": 22.5682091697085, "lng": 88.32451516970849}}}, "opening_hours": {"open_now": false}, "place_id": "ChIJDd9FLId3AjoR7EUAI6tymCc", "plus_code": {"global_code": "7MJCH89G+R8", "compound_code": "H89G+R8 Howrah, West Bengal, India"}, "vicinity": "near Aloka Cinema, No 170, Sushomaloy, near Aloka Cinema, Grand Trunk Road, Howrah", "photos": [{"photo_reference": "ATtYBwKGlIFRcWirYYElPzE5OTAJTuQ9gCFNXQlsE5ggilefHi9UEkuPggVMFMqBwXe4LU58UO6djjraGN8PtClCTw0-cpME3jg7Oi4ebgGdc2k8BmhSqCByPvHMoCu2lTg0DXpi63LaCnIrvgWB4sjFbqnjbB-ucNL4szstNS-ilIAD0W56", "width": 1080, "html_attributions": ["<a href=\"https://maps.google.com/maps/contrib/100889692613318553061\">UCO Bank</a>"], "height": 1350}], "scope": "GOOGLE", "business_status": "OPERATIONAL", "types": ["bank", "atm", "finance", "point_of_interest", "establishment"], "icon": "https://maps.gstatic.com/mapfiles/place_api/icons/v1/png_71/bank-71.png"}, {"rating": 4.4, "user_ratings_total": 5, "name": "Bank of India - Kadamtala Branch", "reference": "ChIJyz4IbBl4AjoRhTM8NFbQBRM", "geometry": {"location": {"lat": 22.5920544, "lng": 88.3181579}, "viewport": {"northeast": {"lat": 22.5933695802915, "lng": 88.31950218029151}, "southwest": {"lat": 22.59067161970849, "lng": 88.31680421970849}}}, "opening_hours": {"open_now": false}, "place_id": "ChIJyz4IbBl4AjoRhTM8NFbQBRM", "plus_code": {"global_code": "7MJCH8R9+R7", "compound_code": "H8R9+R7 Howrah, West Bengal, India"}, "vicinity": "19/4, New HIT Road, Bantra, Ichapur, Howrah", "photos": [{"photo_reference": "ATtYBwIEveZXA1usn8OZBOLT01fGXklM9ML7PrE6QGZi7ymptN2NE1uOgvtQu3_j3mS_4MNuJ7njjWSjpDpiSSowrdFEkU8V0-Hnp6dlBmkazIwbJZnEm-N3EdgQif8z33nxtlyCRbfq1sRKM6gT_3m3G_CnQPoKMDhG0waA6YOyrpOU7I_Z", "width": 4008, "html_attributions": ["<a href=\"https://maps.google.com/maps/contrib/110784852404466063250\">sayantan mondal</a>"], "height": 5344}], "scope": "GOOGLE", "business_status": "OPERATIONAL", "types": ["bank", "finance", "point_of_interest", "establishment"], "icon": "https://maps.gstatic.com/mapfiles/place_api/icons/v1/png_71/bank-71.png"}, {"rating": 3.8, "user_ratings_total": 16, "name": "Bank of India - Shibpur Branch", "reference": "ChIJnUB3u4B3AjoRglZ9n5bKRfk", "geometry": {"location": {"lat": 22.5684411, "lng": 88.3246034}, "viewport": {"northeast": {"lat": 22.5697596802915, "lng": 88.32597088029151}, "southwest": {"lat": 22.5670617197085, "lng": 88.32327291970849}}}, "opening_hours": {"open_now": false}, "place_id": "ChIJnUB3u4B3AjoRglZ9n5bKRfk", "plus_code": {"global_code": "7MJCH89F+9R", "compound_code": "H89F+9R Howrah, West Bengal, India"}, "vicinity": "343, 1, Grand Trunk Road, Naora, Shibpur, Howrah", "photos": [{"photo_reference": "ATtYBwKaKXN3vksBfC2WXIqhh62Xlj-zGIO4272qzWBWCitSpXtMVoY3Q9_EhreVr87O7YQdvMDS9VdvtBRH8Bquo9VkePHPT47f4BdI33tVPCl77RAJGRryyZjzs47yj0r1AuHeD8ffbRAGshAPf2Gwy9mkUwWwDlZxWV_Ou_Qdk5gulNGm", "width": 1536, "html_attributions": ["<a href=\"https://maps.google.com/maps/contrib/106717742389905130120\">Hirak Chatterjee</a>"], "height": 2048}], "scope": "GOOGLE", "business_status": "OPERATIONAL", "types": ["bank", "atm", "finance", "point_of_interest", "establishment"], "icon": "https://maps.gstatic.com/mapfiles/place_api/icons/v1/png_71/bank-71.png"}, {"name": "Indian Overseas Bank Howrah Branch", "reference": "ChIJ-zprEr55AjoR9wTwFUWT2PQ", "geometry": {"location": {"lat": 22.5824857, "lng": 88.32297090000002}, "viewport": {"northeast": {"lat": 22.5836269302915, "lng": 88.32426343029151}, "southwest": {"lat": 22.5809289697085, "lng": 88.32156546970849}}}, "opening_hours": {"open_now": false}, "place_id": "ChIJ-zprEr55AjoR9wTwFUWT2PQ", "plus_code": {"global_code": "7MJCH8JF+X5", "compound_code": "H8JF+X5 Howrah, West Bengal, India"}, "vicinity": "123, Netaji Subhash Road, Naora, Shibpur, Howrah", "photos": [{"photo_reference": "ATtYBwIQLy4_pj2NlbHxIl0HLSDFZhXNWJP_V-QaVSfX-CEMVLCxt4cs_kgfzbGjNX-wJf-zBGAYpa88gxgKiCwi_w_WgQeik5J9q-iTo3jPeHD_xVZ6QUpP7vNMptTXPuPY0xIc8a-16qvrf6CSvYIhJ7eJBGXqNAzVLlyqRIPQOkTuin_S", "width": 4608, "html_attributions": ["<a href=\"https://maps.google.com/maps/contrib/110053887007469290508\">govinda sarkar</a>"], "height": 3456}], "scope": "GOOGLE", "business_status": "OPERATIONAL", "types": ["bank", "finance", "point_of_interest", "establishment"], "icon": "https://maps.gstatic.com/mapfiles/place_api/icons/v1/png_71/bank-71.png"}, {"rating": 5, "user_ratings_total": 1, "name": "ICICI BANK ATM", "reference": "ChIJW6KPwIJ5AjoRK_mlTFDR9K8", "geometry": {"location": {"lat": 22.5832075, "lng": 88.3158694}, "viewport": {"northeast": {"lat": 22.58458763029151, "lng": 88.3172234302915}, "southwest": {"lat": 22.5818896697085, "lng": 88.3145254697085}}}, "opening_hours": {"open_now": true}, "place_id": "ChIJW6KPwIJ5AjoRK_mlTFDR9K8", "plus_code": {"global_code": "7MJCH8M8+78", "compound_code": "H8M8+78 Howrah, West Bengal, India"}, "vicinity": "P.O.+ P.S, 127, Netaji Subhash Road, Bantra, Shibpur, Howrah", "scope": "GOOGLE", "business_status": "OPERATIONAL", "types": ["bank", "finance", "point_of_interest", "establishment"], "icon": "https://maps.gstatic.com/mapfiles/place_api/icons/v1/png_71/bank-71.png"}, {"name": "Santra Hut", "reference": "ChIJkdelcbF5AjoRyxHiXr5SL0U", "geometry": {"location": {"lat": 22.5844387, "lng": 88.316526}, "viewport": {"northeast": {"lat": 22.5857722802915, "lng": 88.3178726802915}, "southwest": {"lat": 22.5830743197085, "lng": 88.31517471970848}}}, "opening_hours": {"open_now": true}, "place_id": "ChIJkdelcbF5AjoRyxHiXr5SL0U", "plus_code": {"global_code": "7MJCH8M8+QJ", "compound_code": "H8M8+QJ Howrah, West Bengal, India"}, "vicinity": "Brindaban Mullick Lane, Kadamtala, Bantra, Ichapur, Howrah", "scope": "GOOGLE", "business_status": "OPERATIONAL", "types": ["bank", "finance", "point_of_interest", "establishment"], "icon": "https://maps.gstatic.com/mapfiles/place_api/icons/v1/png_71/bank-71.png"}, {"rating": 2.8, "user_ratings_total": 4, "name": "Nari Pragati Co-operative Bank", "reference": "ChIJNyvUaih4AjoRd6fW0WGQA6k", "geometry": {"location": {"lat": 22.574087, "lng": 88.322698}, "viewport": {"northeast": {"lat": 22.5755137802915, "lng": 88.32409823029153}, "southwest": {"lat": 22.5728158197085, "lng": 88.3214002697085}}}, "place_id": "ChIJNyvUaih4AjoRd6fW0WGQA6k", "plus_code": {"global_code": "7MJCH8FF+J3", "compound_code": "H8FF+J3 Howrah, West Bengal, India"}, "vicinity": "82/1, Nil Ratan Mukherjee Road, Naora, Shibpur, Howrah", "scope": "GOOGLE", "business_status": "OPERATIONAL", "types": ["bank", "finance", "point_of_interest", "establishment"], "icon": "https://maps.gstatic.com/mapfiles/place_api/icons/v1/png_71/bank-71.png"}]}