{"status": "OK", "html_attributions": [], "results": [{"rating": 4.2, "user_ratings_total": 35, "name": "Standard Chartered Bank R G KAR Road Branch Kolkata", "reference": "ChIJn_2qeCR2AjoRs-xeaoteN0Y", "geometry": {"location": {"lat": 22.6028016, "lng": 88.3757411}, "viewport": {"northeast": {"lat": 22.6040712802915, "lng": 88.37712263029151}, "southwest": {"lat": 22.6013733197085, "lng": 88.37442466970849}}}, "opening_hours": {"open_now": false}, "place_id": "ChIJn_2qeCR2AjoRs-xeaoteN0Y", "plus_code": {"global_code": "7MJCJ93G+47", "compound_code": "J93G+47 Kolkata, West Bengal, India"}, "vicinity": "21A, R G Kar Road, Shyam Bazar, Kolkata", "photos": [{"photo_reference": "ATtYBwK37bpVAqilOqmjPQPEN38UoyeR9OnBaWXHISlIZFAV20fEd5xtq8Eazac9rySEQ3uTwKzqmwm3SrmC8UJavj4rFS5mOX78DdB-NbWK2UIt17Y0J_4mHeK63U4Bg-xUP3WFf1KCWPFDyRX4Oj-oMIzby3IZFQ52_cGnKCP0PKnkISoG", "width": 4000, "html_attributions": ["<a href=\"https://maps.google.com/maps/contrib/105263539366587540209\">Arindam Das</a>"], "height": 1844}], "scope": "GOOGLE", "business_status": "OPERATIONAL", "types": ["atm", "bank", "finance", "point_of_interest", "establishment"], "icon": "https://maps.gstatic.com/mapfiles/place_api/icons/v1/png_71/bank-71.png"}, {"rating": 4.3, "user_ratings_total": 7, "name": "Bank Of Baroda", "reference": "ChIJexsJ7Bx2AjoRUVkDi-pRGrI", "geometry": {"location": {"lat": 22.607264, "lng": 88.39118900000001}, "viewport": {"northeast": {"lat": 22.6086608802915, "lng": 88.3923966302915}, "southwest": {"lat": 22.6059629197085, "lng": 88.3896986697085}}}, "opening_hours": {"open_now": false}, "place_id": "ChIJexsJ7Bx2AjoRUVkDi-pRGrI", "plus_code": {"global_code": "7MJCJ94R+WF", "compound_code": "J94R+WF Kolkata, West Bengal, India"}, "vicinity": "Bs, Talapa Belgachia Service Station Belgachia, JK Mitra Road, Tala, Milk Colony, Kolkata", "photos": [{"photo_reference": "ATtYBwLYpVE-U4OINLx7dNCd8ZZjxtewfehmKzPTHdWx8aDd0BJfKvcQ60PFZ8Pl7uKhi_enu15_SuEuyb5kZUtApqVeDGMmIrRaFATqD4-esMUZmyKsNtKndSm224nyI7tw586RvJBDDZ-cLv_aGZ6ugEgpRSneOK0NZDfPWRoHNfQUu2K_", "width": 512, "html_attributions": ["<a href=\"https://maps.google.com/maps/contrib/106978957520156797054\">Bank Of Baroda</a>"], "height": 288}], "scope": "GOOGLE", "business_status": "OPERATIONAL", "types": ["bank", "finance", "point_of_interest", "establishment"], "icon": "https://maps.gstatic.com/mapfiles/place_api/icons/v1/png_71/bank-71.png"}, {"rating": 4.1, "user_ratings_total": 10, "name": "UCO Bank", "reference": "ChIJIcg6EBZ2AjoRq0JtuFOWWdY", "geometry": {"location": {"lat": 22.6005176, "lng": 88.3741629}, "viewport": {"northeast": {"lat": 22.6018734802915, "lng": 88.37539738029152}, "southwest": {"lat": 22.5991755197085, "lng": 88.3726994197085}}}, "opening_hours": {"open_now": false}, "place_id": "ChIJIcg6EBZ2AjoRq0JtuFOWWdY", "plus_code": {"global_code": "7MJCJ92F+6M", "compound_code": "J92F+6M Kolkata, West Bengal, India"}, "vicinity": "No 202, Acharya Prafulla Chandra Road, Shyam Bazar, Kolkata", "photos": [{"photo_reference": "ATtYBwKL8ShHvZ1cUwMDxXo6BMTOEjFHHyn7yC42CJ6bVU0fDUO0Aiq2DdX-YaELQxMc9WLhnJe2JRmS7-0ErsxrJuums3FEfMECKQ2zSk9Gwcjq69yvAy73PD_r0xGHiksY3oyD1E9X7kCEkOLU15FO1nXfVd7Ncd3vc8dHvmF7bYJuQDWT", "width": 1080, "html_attributions": ["<a href=\"https://maps.google.com/maps/contrib/105773263227887720068\">UCO Bank</a>"], "height": 1350}], "scope": "GOOGLE", "business_status": "OPERATIONAL", "types": ["bank", "atm", "finance", "point_of_interest", "establishment"], "icon": "https://maps.gstatic.com/mapfiles/place_api/icons/v1/png_71/bank-71.png"}, {"rating": 1, "user_ratings_total": 2, "name": "SyndicateBank Kolkata Shyam Bazaar Branch", "reference": "ChIJgcDNUOR3AjoRfYbzFHbozIs", "geometry": {"location": {"lat": 22.600105, "lng": 88.378554}, "viewport": {"northeast": {"lat": 22.6014601302915, "lng": 88.37991843029151}, "southwest": {"lat": 22.5987621697085, "lng": 88.3772204697085}}}, "place_id": "ChIJgcDNUOR3AjoRfYbzFHbozIs", "plus_code": {"global_code": "7MJCJ92H+2C", "compound_code": "J92H+2C Kolkata, West Bengal, India"}, "vicinity": "48,1St Floor, Canal West Road, Shyam Bazar, Kolkata", "photos": [{"photo_reference": "ATtYBwJjXOg8xoac2F4kZ0oa4gA_iCbQSLAhY6gdZMxnWwetsS0G-zq9KspmGr_g9TjeLUsGMoGgu-CIstS4QTQoYIL-bWWwEXAQXeOjfdmw37sCje1DLml5USn5Yzv6w-4X98J1haVBrTDFPkG0kZzG6LzFN1RLQRrwDehLd2Vm0pdBM_-k", "width": 3000, "html_attributions": ["<a href=\"https://maps.google.com/maps/contrib/117724390310712250612\">Deep Debnath</a>"], "height": 4000}], "scope": "GOOGLE", "business_status": "OPERATIONAL", "types": ["bank", "finance", "point_of_interest", "establishment"], "icon": "https://maps.gstatic.com/mapfiles/place_api/icons/v1/png_71/bank-71.png"}, {"rating": 3.7, "user_ratings_total": 3, "name": "INDIAN BANK", "reference": "ChIJW1VVRhh2AjoRWuKptsdE8Oc", "geometry": {"location": {"lat": 22.601533, "lng": 88.383867}, "viewport": {"northeast": {"lat": 22.6028819802915, "lng": 88.3852159802915}, "southwest": {"lat": 22.60018401970849, "lng": 88.38251801970848}}}, "place_id": "ChIJW1VVRhh2AjoRWuKptsdE8Oc", "plus_code": {"global_code": "7MJCJ92M+JG", "compound_code": "J92M+JG Baguiati, Kolkata, West Bengal, India"}, "vicinity": "ATGHARA, NEAR CHECK POST,RAJARHAT ROAD,P.O. RAJARHAT GOPALPUR, PS, Baguiati", "scope": "GOOGLE", "business_status": "OPERATIONAL", "types": ["bank", "finance", "point_of_interest", "establishment"], "icon": "https://maps.gstatic.com/mapfiles/place_api/icons/v1/png_71/bank-71.png"}, {"rating": 4.2, "user_ratings_total": 13, "name": "UCO Bank", "reference": "ChIJC6LYish3AjoR1ZzcRw_ihP4", "geometry": {"location": {"lat": 22.59518599999999, "lng": 88.38174500000001}, "viewport": {"northeast": {"lat": 22.5965349802915, "lng": 88.3830939802915}, "southwest": {"lat": 22.59383701970849, "lng": 88.3803960197085}}}, "opening_hours": {"open_now": false}, "place_id": "ChIJC6LYish3AjoR1ZzcRw_ihP4", "plus_code": {"global_code": "7MJCH9WJ+3M", "compound_code": "H9WJ+3M Ultadanga, Kolkata, West Bengal, India"}, "vicinity": "No 140/1 & 140, 4/3, Bidhannagar Road, Ultadanga, Bankura", "photos": [{"photo_reference": "ATtYBwIFr4UNC4YvnbaVGPsnb4R20Gtacow44vn4uBkFrtK73GDUsJGg1P7o8TxjVNKxAj1zlPv1zvZQvceEKlxB0DzzPqdIqpNMhEK9cDu4cYu0ZCfMiFVt5o-nfgBanBUD5y22sBT3Vql7X-STFVKPtZlVYdw98T8AQem4u4R3u6ck-Deq", "width": 1080, "html_attributions": ["<a href=\"https://maps.google.com/maps/contrib/106912272543324241630\">UCO Bank</a>"], "height": 1350}], "scope": "GOOGLE", "business_status": "OPERATIONAL", "types": ["bank", "atm", "finance", "point_of_interest", "establishment"], "icon": "https://maps.gstatic.com/mapfiles/place_api/icons/v1/png_71/bank-71.png"}, {"name": "State Bank of India", "reference": "ChIJy19Kqsp3AjoR5qSBsawC4Vo", "geometry": {"location": {"lat": 22.603929, "lng": 88.376378}, "viewport": {"northeast": {"lat": 22.6053022802915, "lng": 88.37774868029152}, "southwest": {"lat": 22.6026043197085, "lng": 88.3750507197085}}}, "opening_hours": {"open_now": false}, "place_id": "ChIJy19Kqsp3AjoR5qSBsawC4Vo", "plus_code": {"global_code": "7MJCJ93G+HH", "compound_code": "J93G+HH Shyam Bazar, Kolkata, West Bengal, India"}, "vicinity": "No 27, Manmatha Nath Ganguly Road, Shyam Bazar, Bankura", "scope": "GOOGLE", "business_status": "OPERATIONAL", "types": ["bank", "finance", "point_of_interest", "establishment"], "icon": "https://maps.gstatic.com/mapfiles/place_api/icons/v1/png_71/bank-71.png"}, {"rating": 3, "user_ratings_total": 3, "name": "INDIAN BANK", "reference": "ChIJ1R1QGSV2AjoROMCva39cOZY", "geometry": {"location": {"lat": 22.6015799, "lng": 88.37458199999999}, "viewport": {"northeast": {"lat": 22.6028707802915, "lng": 88.37595703029149}, "southwest": {"lat": 22.6001728197085, "lng": 88.37325906970848}}}, "place_id": "ChIJ1R1QGSV2AjoROMCva39cOZY", "plus_code": {"global_code": "7MJCJ92F+JR", "compound_code": "J92F+JR Kolkata, West Bengal, India"}, "vicinity": "3, Bhabnath Sen Street, Shyam Bazar, Kolkata", "photos": [{"photo_reference": "ATtYBwJuqMTR4RZkQVkENKXX6KguHs85gQ57cJbsxzNRcoS9MDoPh3N1Z6YxicwjSL2BrUdEv5CNGccr4MyHf0J5wJE5u3Nwe41R6wRZ8gLWb1xqUJ_oG3jcVK_4FM2qnC3Oe_DfvrEVpL-KEuk0K3eM6T2NR8bHsnUrgnM1LmcrgXYkGKnC", "width": 4000, "html_attributions": ["<a href=\"https://maps.google.com/maps/contrib/100057349351280088336\">SUPRIYA CHATTOPADHYAY</a>"], "height": 3000}], "scope": "GOOGLE", "business_status": "OPERATIONAL", "types": ["bank", "finance", "point_of_interest", "establishment"], "icon": "https://maps.gstatic.com/mapfiles/place_api/icons/v1/png_71/bank-71.png"}, {"name": "CANARA BANK (formerly Syndicate Bank)", "reference": "ChIJ9SVOO0Z3AjoRuKFfat2_EAk", "geometry": {"location": {"lat": 22.6004677, "lng": 88.3742796}, "viewport": {"northeast": {"lat": 22.6017937302915, "lng": 88.37551928029151}, "southwest": {"lat": 22.5990957697085, "lng": 88.3728213197085}}}, "place_id": "ChIJ9SVOO0Z3AjoRuKFfat2_EAk", "plus_code": {"global_code": "7MJCJ92F+5P", "compound_code": "J92F+5P Kolkata, West Bengal, India"}, "vicinity": "GROUND FLOOR, #227D, Acharya Prafulla Chandra Road, Shyam Bazar, Kolkata", "scope": "GOOGLE", "business_status": "OPERATIONAL", "types": ["bank", "finance", "point_of_interest", "establishment"], "icon": "https://maps.gstatic.com/mapfiles/place_api/icons/v1/png_71/bank-71.png"}, {"rating": 4.1, "user_ratings_total": 12, "name": "United Bank of India - Ultadanga Branch", "reference": "ChIJg7E5LTx2AjoRtDOqsJ7oEUU", "geometry": {"location": {"lat": 22.5944313, "lng": 88.3797105}, "viewport": {"northeast": {"lat": 22.5957778302915, "lng": 88.38116338029151}, "southwest": {"lat": 22.59307986970849, "lng": 88.3784654197085}}}, "opening_hours": {"open_now": false}, "place_id": "ChIJg7E5LTx2AjoRtDOqsJ7oEUU", "plus_code": {"global_code": "7MJCH9VH+QV", "compound_code": "H9VH+QV Kolkata, West Bengal, India"}, "vicinity": "35A, Canal West Road, Fariapukur, Shyam Bazar, Kolkata", "photos": [{"photo_reference": "ATtYBwIe3bMXGrGwxLdhN5XoTjJZJ8c0XQzyeUtwbONv-vsbTfsBkSJsPzWguKHRPXzUn-PpLJCK3Ud5MCJKXpEjsQcLnVH2Eykfhb0G2vNW3TZs04pNnkmzF2yRC1gORJnVVOqQKfpzl1KmiyhrVWk9OcWSb6aEVwfIYxanQDnkjB7BF_F1", "width": 1920, "html_attributions": ["<a href=\"https://maps.google.com/maps/contrib/107700535719903163054\">Ravi Kant</a>"], "height": 1080}], "scope": "GOOGLE", "business_status": "OPERATIONAL", "types": ["bank", "atm", "finance", "point_of_interest", "establishment"], "icon": "https://maps.gstatic.com/mapfiles/place_api/icons/v1/png_71/bank-71.png"}, {"name": "Oriental Bank of Commerce", "reference": "ChIJ64gdNyV2AjoRycXjofHGmG0", "geometry": {"location": {"lat": 22.6003167, "lng": 88.3739081}, "viewport": {"northeast": {"lat": 22.60167463029151, "lng": 88.37530448029149}, "southwest": {"lat": 22.5989766697085, "lng": 88.37260651970848}}}, "place_id": "ChIJ64gdNyV2AjoRycXjofHGmG0", "plus_code": {"global_code": "7MJCJ92F+4H", "compound_code": "J92F+4H Kolkata, West Bengal, India"}, "vicinity": "203, Acharya Prafulla Chandra Road, Fariapukur, Shyam Bazar, Kolkata", "scope": "GOOGLE", "business_status": "OPERATIONAL", "types": ["bank", "finance", "point_of_interest", "establishment"], "icon": "https://maps.gstatic.com/mapfiles/place_api/icons/v1/png_71/bank-71.png"}, {"rating": 1, "user_ratings_total": 1, "name": "Bank Of Baroda Five Point Branch", "reference": "ChIJHWR7pyV2AjoRHfo1NnfjNC0", "geometry": {"location": {"lat": 22.6027632, "lng": 88.3741294}, "viewport": {"northeast": {"lat": 22.6041836302915, "lng": 88.3754737802915}, "southwest": {"lat": 22.6014856697085, "lng": 88.37277581970848}}}, "opening_hours": {"open_now": false}, "place_id": "ChIJHWR7pyV2AjoRHfo1NnfjNC0", "plus_code": {"global_code": "7MJCJ93F+4M", "compound_code": "J93F+4M Kolkata, West Bengal, India"}, "vicinity": "Shyam Bazar,, 6A, State Highway 1, Bidhan Sarani, Shyam Bazar, Kolkata", "scope": "GOOGLE", "business_status": "OPERATIONAL", "types": ["bank", "finance", "point_of_interest", "establishment"], "icon": "https://maps.gstatic.com/mapfiles/place_api/icons/v1/png_71/bank-71.png"}, {"rating": 4, "user_ratings_total": 8, "name": "Punjab National Bank", "reference": "ChIJi3Y9GSV2AjoRQpVy9jOSk_0", "geometry": {"location": {"lat": 22.6013402, "lng": 88.37348759999999}, "viewport": {"northeast": {"lat": 22.6027178302915, "lng": 88.37495883029149}, "southwest": {"lat": 22.60001986970849, "lng": 88.37226086970848}}}, "opening_hours": {"open_now": false}, "place_id": "ChIJi3Y9GSV2AjoRQpVy9jOSk_0", "plus_code": {"global_code": "7MJCJ92F+G9", "compound_code": "J92F+G9 Kolkata, West Bengal, India"}, "vicinity": "210, Acharya Prafulla Chandra Road, Shyambazar, Shyam Bazar, Kolkata", "photos": [{"photo_reference": "ATtYBwLFI_4BxtinO-jmdSUKrkFpOoXUsG5EO5DA1EBN9rQbPlkpJKL9XWQ3gSyI5sucGdcpEbOveHOWKi9Vvl015cp6n8lX8P5ZnbZvs5gRjyZwPka8zANhp3B6XuL0cR64cZ7Shj96b6oCJBDo_dXIegJVGUB2YYEvkIbaWpuFSRzIy_wJ", "width": 2080, "html_attributions": ["<a href=\"https://maps.google.com/maps/contrib/103901679628124374497\">Pratik Biswas</a>"], "height": 4608}], "scope": "GOOGLE", "business_status": "OPERATIONAL", "types": ["bank", "finance", "point_of_interest", "establishment"], "icon": "https://maps.gstatic.com/mapfiles/place_api/icons/v1/png_71/bank-71.png"}, {"name": "Bank Of Baroda", "reference": "ChIJ43D3ktB3AjoRLyVs4u9TKGk", "geometry": {"location": {"lat": 22.6028964, "lng": 88.37394499999999}, "viewport": {"northeast": {"lat": 22.6042139302915, "lng": 88.3752960302915}, "southwest": {"lat": 22.60151596970849, "lng": 88.37259806970849}}}, "opening_hours": {"open_now": false}, "place_id": "ChIJ43D3ktB3AjoRLyVs4u9TKGk", "plus_code": {"global_code": "7MJCJ93F+5H", "compound_code": "J93F+5H Kolkata, West Bengal, India"}, "vicinity": "Bata Shop, opposite Bagbazar, 4A, Bhabnath Sen Street, Baghbazar, Kolkata", "scope": "GOOGLE", "business_status": "OPERATIONAL", "types": ["bank", "finance", "point_of_interest", "establishment"], "icon": "https://maps.gstatic.com/mapfiles/place_api/icons/v1/png_71/bank-71.png"}, {"rating": 4.3, "user_ratings_total": 8, "name": "RBL Bank Ltd - Shyambazar, Kolkata Branch", "reference": "ChIJL33UqiB3AjoRFrLEjQbbo8M", "geometry": {"location": {"lat": 22.6011372, "lng": 88.37322909999999}, "viewport": {"northeast": {"lat": 22.6024722302915, "lng": 88.37462253029149}, "southwest": {"lat": 22.5997742697085, "lng": 88.37192456970848}}}, "opening_hours": {"open_now": false}, "place_id": "ChIJL33UqiB3AjoRFrLEjQbbo8M", "plus_code": {"global_code": "7MJCJ92F+F7", "compound_code": "J92F+F7 Kolkata, West Bengal, India"}, "vicinity": "Ground and First Floor, 128B, Bidhan Sarani, Kolkata", "photos": [{"photo_reference": "ATtYBwI2K2u2mUk_MLTCCIA-XxXHkiKVcTXxr0kix4QvHBXTsHdVGesRnmJnDv4xJAXP8bHgP-mbRQy1j8GYeKsurnI_cypYSVc1PC_fgnC_n9Zor-SavvRc043RZPhjWrMwsNtYXlURIS4Mdo7NrRCtD_iEdHcctzMAvzdjGHNH-dHHGnQd", "width": 4032, "html_attributions": ["<a href=\"https://maps.google.com/maps/contrib/100597104776788343410\">Pabitra Mondal</a>"], "height": 3024}], "scope": "GOOGLE", "business_status": "OPERATIONAL", "types": ["bank", "finance", "point_of_interest", "establishment"], "icon": "https://maps.gstatic.com/mapfiles/place_api/icons/v1/png_71/bank-71.png"}, {"rating": 4.2, "user_ratings_total": 16, "name": "Jana Small Finance Bank", "reference": "ChIJGSIalCV2AjoRV6QEmRJegkc", "geometry": {"location": {"lat": 22.6040785, "lng": 88.3745868}, "viewport": {"northeast": {"lat": 22.60542748029151, "lng": 88.3759357802915}, "southwest": {"lat": 22.6027295197085, "lng": 88.37323781970849}}}, "opening_hours": {"open_now": false}, "place_id": "ChIJGSIalCV2AjoRV6QEmRJegkc", "plus_code": {"global_code": "7MJCJ93F+JR", "compound_code": "J93F+JR Kolkata, West Bengal, India"}, "vicinity": "121A, 1st Floor, Bidhan Sarani, Kolkata", "photos": [{"photo_reference": "ATtYBwJ9cJ6LERzxZKGVZejrWi7XX-scic1zxMNEAxY5hCVlFqekWcA1ITPlJZ6oqKzUDwHHgGgbd_ajRnl3Azj9vIbdM_K217STEOruuB5I4bwwW5OenGm_dzLCbLN6obQLbqELtNB9N1PLJL_EIImQaxlzjQZD91e5uqeBYY3LXtOXwbiA", "width": 4608, "html_attributions": ["<a href=\"https://maps.google.com/maps/contrib/115079314741518710746\">Gautam Chatterjee</a>"], "height": 3456}], "scope": "GOOGLE", "business_status": "OPERATIONAL", "types": ["bank", "finance", "point_of_interest", "establishment"], "icon": "https://maps.gstatic.com/mapfiles/place_api/icons/v1/png_71/bank-71.png"}, {"rating": 4.2, "user_ratings_total": 6, "name": "United Bank of India - Shyambazar Market Evening Branch", "reference": "ChIJT32EaCV2AjoRIKlcwMsaMb8", "geometry": {"location": {"lat": 22.6014595, "lng": 88.37312089999999}, "viewport": {"northeast": {"lat": 22.60284783029151, "lng": 88.3744577802915}, "southwest": {"lat": 22.6001498697085, "lng": 88.37175981970849}}}, "opening_hours": {"open_now": false}, "place_id": "ChIJT32EaCV2AjoRIKlcwMsaMb8", "plus_code": {"global_code": "7MJCJ92F+H6", "compound_code": "J92F+H6 Kolkata, West Bengal, India"}, "vicinity": "128/1, Bidhan Sarani, Shyambazar 5 Point Crossing, Kolkata", "scope": "GOOGLE", "business_status": "OPERATIONAL", "types": ["bank", "finance", "point_of_interest", "establishment"], "icon": "https://maps.gstatic.com/mapfiles/place_api/icons/v1/png_71/bank-71.png"}, {"name": "Bank of Baroda (E Dena)", "reference": "ChIJx_lV7mJ3AjoR7LLGxO5WPRI", "geometry": {"location": {"lat": 22.6014875, "lng": 88.3730882}, "viewport": {"northeast": {"lat": 22.6027862302915, "lng": 88.3745971802915}, "southwest": {"lat": 22.6000882697085, "lng": 88.3718992197085}}}, "opening_hours": {"open_now": false}, "place_id": "ChIJx_lV7mJ3AjoR7LLGxO5WPRI", "plus_code": {"global_code": "7MJCJ92F+H6", "compound_code": "J92F+H6 Kolkata, West Bengal, India"}, "vicinity": "83, 1, Bidhan Sarani, Shyam Bazar, Kolkata", "photos": [{"photo_reference": "ATtYBwJU7kXNcN0duOrTNddgBnzoQ2qM8K_qQITk5lTfa48rFdBLKrwzRP1mvEekIrhbFhuzdL1HpFHqCypNCTUvWpA7lLM1YPexeOM9mputkT7mgBB0xfAFWkmTbkJV_WAyg28Z8rFjjZGrVXS9UbjDBVXB8OD7RkN8B-5QcGsSQBQ1XdGs", "width": 512, "html_attributions": ["<a href=\"https://maps.google.com/maps/contrib/111355461934641742411\">Bank of Baroda (E Dena)</a>"], "height": 288}], "scope": "GOOGLE", "business_status": "OPERATIONAL", "types": ["bank", "finance", "point_of_interest", "establishment"], "icon": "https://maps.gstatic.com/mapfiles/place_api/icons/v1/png_71/bank-71.png"}, {"rating": 4.2, "user_ratings_total": 12, "name": "UCO Bank", "reference": "ChIJ2VDEZXd3AjoRrTAEEuSKRkA", "geometry": {"location": {"lat": 22.59556, "lng": 88.374748}, "viewport": {"northeast": {"lat": 22.5969550802915, "lng": 88.3763089802915}, "southwest": {"lat": 22.5942571197085, "lng": 88.37361101970849}}}, "opening_hours": {"open_now": false}, "place_id": "ChIJ2VDEZXd3AjoRrTAEEuSKRkA", "plus_code": {"global_code": "7MJCH9WF+6V", "compound_code": "H9WF+6V Kolkata, West Bengal, India"}, "vicinity": "No 66 AP, Acharya Prafulla Chandra Road, Raja Bazar, Kolkata", "photos": [{"photo_reference": "ATtYBwJyWVNJPKXIaFwvP6lYI6YDrVgK53k2m6woVlPNwEKvMbQR8uu5zzz7-Zm3ixBIAUUaqzznJ0wPOnxL48WiHDz5c4-p4AbDTXYBR6weY7If22QYHb_DaEDAipaIifnP-zWC_uja4AR_J0Y_1udZk8wHpj__PORB5OUE6jyiCiFX5HGR", "width": 1080, "html_attributions": ["<a href=\"https://maps.google.com/maps/contrib/103618833036970661526\">UCO Bank</a>"], "height": 1350}], "scope": "GOOGLE", "business_status": "OPERATIONAL", "types": ["bank", "atm", "finance", "point_of_interest", "establishment"], "icon": "https://maps.gstatic.com/mapfiles/place_api/icons/v1/png_71/bank-71.png"}, {"rating": 2.8, "user_ratings_total": 5, "name": "Allahabad Bank - B. B. Avenue Branch", "reference": "ChIJg5_2ZSV2AjoRV_04T8D1Mws", "geometry": {"location": {"lat": 22.6016798, "lng": 88.3730856}, "viewport": {"northeast": {"lat": 22.6030151302915, "lng": 88.37443953029151}, "southwest": {"lat": 22.6003171697085, "lng": 88.3717415697085}}}, "opening_hours": {"open_now": false}, "place_id": "ChIJg5_2ZSV2AjoRV_04T8D1Mws", "plus_code": {"global_code": "7MJCJ92F+M6", "compound_code": "J92F+M6 Kolkata, West Bengal, India"}, "vicinity": "Bhupendra Bose Avenue, Shyambazar, Bidhan Sarani, Kolkata", "photos": [{"photo_reference": "ATtYBwICOHqgybJtyWHW9nNY-7Q4rSpVvRDOpDEPezO-91Sr-LjI3XPkjiC8PafysKWmZGReCkohfPQMzhQJWxKhXEHSy7W0qMxZl-0HRqWV-12uIf6hAnPte63KC2VMvXshyWan4thlfleXFzA2f7EluPN0_nVsoGAz2ikgQMO4GfmtPeBk", "width": 1836, "html_attributions": ["<a href=\"https://maps.google.com/maps/contrib/103687539211534752192\">lensography</a>"], "height": 3264}], "scope": "GOOGLE", "business_status": "OPERATIONAL", "types": ["bank", "finance", "point_of_interest", "establishment"], "icon": "https://maps.gstatic.com/mapfiles/place_api/icons/v1/png_71/bank-71.png"}]}