{"status": "OK", "html_attributions": [], "results": [{"rating": 5, "user_ratings_total": 3, "name": "Sri Parameshwara Multispeciality Dental Care", "reference": "ChIJtcNUu1OZyzsRICxWHyPPWPk", "geometry": {"location": {"lat": 17.395998, "lng": 78.535848}, "viewport": {"northeast": {"lat": 17.3972931802915, "lng": 78.5372123802915}, "southwest": {"lat": 17.3945952197085, "lng": 78.5345144197085}}}, "opening_hours": {"open_now": false}, "place_id": "ChIJtcNUu1OZyzsRICxWHyPPWPk", "plus_code": {"global_code": "7J9W9GWP+98", "compound_code": "9GWP+98 Hyderabad, Telangana, India"}, "vicinity": "3-9-60/C/1, Sarada Nagar, Ramanthapur, Hyderabad", "photos": [{"photo_reference": "ATtYBwKODORYXu5ENqb7NxbaR541v9nyhzU7AnOPZ33mFWES1hGCRSFU1jMcjib3jbCwWL3xXK7a5TEza8pT0wpfOS1L4O-g-9QCGyG-vECijKOuBCA4U2juZqJ-Di8xcXPAC0EbBFxIkbQD97Lk7vtJ6AMQYBBtyJK-vN5-UOWljrdrWgFx", "width": 3024, "html_attributions": ["<a href=\"https://maps.google.com/maps/contrib/113406761291446741355\">Venkatesh B</a>"], "height": 4032}], "scope": "GOOGLE", "business_status": "OPERATIONAL", "types": ["hospital", "health", "point_of_interest", "establishment"], "icon": "https://maps.gstatic.com/mapfiles/place_api/icons/v1/png_71/hospital-71.png"}, {"rating": 4.1, "user_ratings_total": 17, "name": "Anantha Lakshmi Kidney And Multi Specialty Hospital", "reference": "ChIJQzpBxxCZyzsRYD4puJieVLM", "geometry": {"location": {"lat": 17.397484, "lng": 78.53671}, "viewport": {"northeast": {"lat": 17.3987986302915, "lng": 78.53807058029152}, "southwest": {"lat": 17.3961006697085, "lng": 78.53537261970851}}}, "opening_hours": {"open_now": true}, "place_id": "ChIJQzpBxxCZyzsRYD4puJieVLM", "plus_code": {"global_code": "7J9W9GWP+XM", "compound_code": "9GWP+XM Hyderabad, Telangana, India"}, "vicinity": "beside Chaithanya Junior College, Ramanthapur, Hyderabad", "scope": "GOOGLE", "business_status": "OPERATIONAL", "types": ["hospital", "health", "point_of_interest", "establishment"], "icon": "https://maps.gstatic.com/mapfiles/place_api/icons/v1/png_71/hospital-71.png"}, {"rating": 5, "user_ratings_total": 41, "name": "Ram Manohar Children Hospital", "reference": "ChIJt8BpvBCZyzsRfwRyRxa8JpY", "geometry": {"location": {"lat": 17.3969497, "lng": 78.53654209999999}, "viewport": {"northeast": {"lat": 17.3982841802915, "lng": 78.53789518029151}, "southwest": {"lat": 17.39558621970849, "lng": 78.5351972197085}}}, "opening_hours": {"open_now": false}, "place_id": "ChIJt8BpvBCZyzsRfwRyRxa8JpY", "plus_code": {"global_code": "7J9W9GWP+QJ", "compound_code": "9GWP+QJ Hyderabad, Telangana, India"}, "vicinity": "3-9-34/1/A, Sarada Nagar, Ramanthapur, Hyderabad", "photos": [{"photo_reference": "ATtYBwJ9G1KafUu7hMoaG9QLjzTpJuhCj2kGLhBN4TyRTWkdvU5SDdQLPCyjapK2lhVw5rwf3fJk83u5aTGkNv4wuYUeuM3fhJLQP6hNatR7LVLNBEbrfgupla2j0zXuRv2pYqFbZxpEwUehg9eJtO_qRVbQLrAsgSx8diJdProWUX-XFFBN", "width": 3120, "html_attributions": ["<a href=\"https://maps.google.com/maps/contrib/110446326307771428324\">Rajeev Rumale</a>"], "height": 4160}], "scope": "GOOGLE", "business_status": "OPERATIONAL", "types": ["hospital", "health", "point_of_interest", "establishment"], "icon": "https://maps.gstatic.com/mapfiles/place_api/icons/v1/png_71/hospital-71.png"}, {"name": "Dr.ram mohan sri sai clinic", "reference": "ChIJzWR7fACZyzsRt5KbdM6gBog", "geometry": {"location": {"lat": 17.3968719, "lng": 78.5366289}, "viewport": {"northeast": {"lat": 17.3982390802915, "lng": 78.5379726802915}, "southwest": {"lat": 17.3955411197085, "lng": 78.5352747197085}}}, "opening_hours": {"open_now": false}, "place_id": "ChIJzWR7fACZyzsRt5KbdM6gBog", "plus_code": {"global_code": "7J9W9GWP+PM", "compound_code": "9GWP+PM Hyderabad, Telangana, India"}, "vicinity": "Ramanthapur, Hyderabad", "scope": "GOOGLE", "business_status": "OPERATIONAL", "types": ["hospital", "health", "point_of_interest", "establishment"], "icon": "https://maps.gstatic.com/mapfiles/place_api/icons/v1/png_71/hospital-71.png"}, {"rating": 5, "user_ratings_total": 2, "name": "Aditya Medicals", "reference": "ChIJ-4MiS6KZyzsRwOnZkzxYgDE", "geometry": {"location": {"lat": 17.3992919, "lng": 78.53735929999999}, "viewport": {"northeast": {"lat": 17.4006900802915, "lng": 78.53869083029151}, "southwest": {"lat": 17.3979921197085, "lng": 78.5359928697085}}}, "opening_hours": {"open_now": true}, "place_id": "ChIJ-4MiS6KZyzsRwOnZkzxYgDE", "plus_code": {"global_code": "7J9W9GXP+PW", "compound_code": "9GXP+PW Hyderabad, Telangana, India"}, "vicinity": "3-4-119,Shop, Dno, number 8, Uppal - Ramanthapur Road, mandal, Hyderabad", "photos": [{"photo_reference": "ATtYBwKtGMXLQIgAXrIV66DtU0CR42S0gyWOz3YAvbCEWOMRvwleSUJwdAcwwdlPuk2hr7T1uhpGdLcuQrNmH59yQJCmFDCEKaLFD1XjhKru1n5eNR4QMWfcHZwrANop5TMpWHs-vPd_R395l5Hy367Gowe7iLFcZzjUWWEG733fX9qSojsB", "width": 4608, "html_attributions": ["<a href=\"https://maps.google.com/maps/contrib/100568251318836449804\">Aditya Medicals</a>"], "height": 2304}], "scope": "GOOGLE", "business_status": "OPERATIONAL", "types": ["hospital", "health", "point_of_interest", "establishment"], "icon": "https://maps.gstatic.com/mapfiles/place_api/icons/v1/png_71/hospital-71.png"}, {"name": "Sri Srinivasa Medical & General Stores", "reference": "ChIJRakfyRCZyzsR3JumlxVFCvY", "geometry": {"location": {"lat": 17.397734, "lng": 78.537168}, "viewport": {"northeast": {"lat": 17.3991161302915, "lng": 78.53842488029152}, "southwest": {"lat": 17.3964181697085, "lng": 78.5357269197085}}}, "opening_hours": {"open_now": true}, "place_id": "ChIJRakfyRCZyzsR3JumlxVFCvY", "plus_code": {"global_code": "7J9W9GXP+3V", "compound_code": "9GXP+3V Hyderabad, Telangana, India"}, "vicinity": "Shop No. 3-2/A/1, Ramanthapur, 9-9/4, Nehru Nagar, Hyderabad", "photos": [{"photo_reference": "ATtYBwJ0x9XVDS14y5cBghJc42tTvB3e1lpxEaUZUwHzR8q6mhPF95F1Kz1CO8gR66wxRyGEHe0NkJM2pXE9W70tpp6lDspvypjgWkHUlEpqot1SswzjaoJBsA4BtGyu-bM2kA8Rb0-i60wbOqvGn-VbV6gRFwbj2NzQ0MtQwqeNp4eQ9K1H", "width": 3472, "html_attributions": ["<a href=\"https://maps.google.com/maps/contrib/102882954667562192433\">Mani kiran Anumanchi</a>"], "height": 4640}], "scope": "GOOGLE", "business_status": "OPERATIONAL", "types": ["hospital", "health", "point_of_interest", "establishment"], "icon": "https://maps.gstatic.com/mapfiles/place_api/icons/v1/png_71/hospital-71.png"}, {"rating": 5, "user_ratings_total": 3, "name": "Healthy Life Medicals & Beauty General stores", "reference": "ChIJxZuZ21WfyzsRVX14wioMc7o", "geometry": {"location": {"lat": 17.3959152, "lng": 78.5364586}, "viewport": {"northeast": {"lat": 17.3973053302915, "lng": 78.5378000802915}, "southwest": {"lat": 17.3946073697085, "lng": 78.5351021197085}}}, "opening_hours": {"open_now": true}, "place_id": "ChIJxZuZ21WfyzsRVX14wioMc7o", "plus_code": {"global_code": "7J9W9GWP+9H", "compound_code": "9GWP+9H Hyderabad, Telangana, India"}, "vicinity": "D.No, near Sholay Mutton Shop, 3-9-42, ADRM Hospital Lane, Sarada Nagar, Ramanthapur, Hyderabad", "photos": [{"photo_reference": "ATtYBwKsx0XTFw748i_92H0dPpcMZyPkJePQdTwBoFJx7fCiz65htEB06jcs_8e6VpLuyOv4nlk3qoFwVSOcf7feaNCdasax4Rwt328VBy91qTYRE-qcyZK-_83CaVgvNPJtcEL5XsVncbYfFQqXl8Nw-UGPqib_wRfwaLy8ebfY5_8isxj2", "width": 3460, "html_attributions": ["<a href=\"https://maps.google.com/maps/contrib/106111802080368301154\">Healthy Life Medicals &amp; Beauty General stores</a>"], "height": 3062}], "scope": "GOOGLE", "business_status": "OPERATIONAL", "types": ["hospital", "health", "point_of_interest", "store", "establishment"], "icon": "https://maps.gstatic.com/mapfiles/place_api/icons/v1/png_71/shopping-71.png"}, {"rating": 5, "user_ratings_total": 11, "name": "Amshu Dental Care", "reference": "ChIJLblBtRaZyzsRi3AZ6RFURg8", "geometry": {"location": {"lat": 17.4004992, "lng": 78.5377907}, "viewport": {"northeast": {"lat": 17.4018409302915, "lng": 78.53914253029151}, "southwest": {"lat": 17.39914296970849, "lng": 78.5364445697085}}}, "opening_hours": {"open_now": false}, "place_id": "ChIJLblBtRaZyzsRi3AZ6RFURg8", "plus_code": {"global_code": "7J9WCG2Q+54", "compound_code": "CG2Q+54 Hyderabad, Telangana, India"}, "vicinity": "Uppal - Ramanthapur Road, Sai Chitra Nagar, Habsiguda, Hyderabad", "photos": [{"photo_reference": "ATtYBwJa-cyTWGqquX5XstgPPgnVR_73t0pkIU2TVVyxFr922hrHHQ3rgekPgzo3QxSbABQVKNDGuwjtO7ZCrzjEbgyigoMQ4bS9JgcGmVqnz93JkqdyerfZNdgsW3Qawjq4zjjfVoWNNcUzvEIswV39ElW6BQojMQwhkxfKoECrvidtcr4O", "width": 3264, "html_attributions": ["<a href=\"https://maps.google.com/maps/contrib/117713998851305274194\">Someswar Rao Sagurthi</a>"], "height": 2448}], "scope": "GOOGLE", "business_status": "OPERATIONAL", "types": ["hospital", "health", "point_of_interest", "establishment"], "icon": "https://maps.gstatic.com/mapfiles/place_api/icons/v1/png_71/hospital-71.png"}, {"rating": 1, "user_ratings_total": 1, "name": "Sai Datta Multi speciality Hospital", "reference": "ChIJKwhn2QKZyzsRuVDgO4r04bo", "geometry": {"location": {"lat": 17.3958572, "lng": 78.5234823}, "viewport": {"northeast": {"lat": 17.3970984802915, "lng": 78.5248129302915}, "southwest": {"lat": 17.3944005197085, "lng": 78.5221149697085}}}, "place_id": "ChIJKwhn2QKZyzsRuVDgO4r04bo", "plus_code": {"global_code": "7J9W9GWF+89", "compound_code": "9GWF+89 Hyderabad, Telangana, India"}, "vicinity": "Mallikarjuna Nagar Road, Bagh Amberpet, Amberpet, Hyderabad", "scope": "GOOGLE", "business_status": "OPERATIONAL", "types": ["hospital", "health", "point_of_interest", "establishment"], "icon": "https://maps.gstatic.com/mapfiles/place_api/icons/v1/png_71/hospital-71.png"}, {"rating": 4.9, "user_ratings_total": 36, "name": "Children's Clinic & Vaccination Centre", "reference": "ChIJezgGtRaZyzsRu2lkNMYjLuI", "geometry": {"location": {"lat": 17.4005166, "lng": 78.53781239999999}, "viewport": {"northeast": {"lat": 17.4018500302915, "lng": 78.5391676302915}, "southwest": {"lat": 17.3991520697085, "lng": 78.5364696697085}}}, "opening_hours": {"open_now": false}, "place_id": "ChIJezgGtRaZyzsRu2lkNMYjLuI", "plus_code": {"global_code": "7J9WCG2Q+64", "compound_code": "CG2Q+64 Hyderabad, Telangana, India"}, "vicinity": "beside Hyderabad Public School, Lane Number 2, Sai Chitra Nagar, Ramanthapur, Hyderabad", "photos": [{"photo_reference": "ATtYBwIwv8tOJ4rNs2Q5hBgVVEhMpPth1Xl1_CiKJkUWJES8m8F1hsIhTrR40fBEqx0vzaHvt_K1hQDJtp4UgsmrsDoCBMP_ZQunjmLbOvTQGp1WA_AP3weq42cdeAklZlaz1hFQPUD7h84dPNMjuHcOE7ZMuJ6oUdyBM5mafRN_gDlIjSWs", "width": 3200, "html_attributions": ["<a href=\"https://maps.google.com/maps/contrib/115570546841508355936\">Children&#39;s Clinic &amp; Vaccination Centre</a>"], "height": 2368}], "scope": "GOOGLE", "business_status": "OPERATIONAL", "types": ["hospital", "health", "point_of_interest", "establishment"], "icon": "https://maps.gstatic.com/mapfiles/place_api/icons/v1/png_71/hospital-71.png"}, {"rating": 2.3, "user_ratings_total": 6, "name": "Life Spring Maternity Hospital", "reference": "ChIJv6N_fQiZyzsRjCuIayVz5hE", "geometry": {"location": {"lat": 17.395775, "lng": 78.52348099999999}, "viewport": {"northeast": {"lat": 17.3971269302915, "lng": 78.5248155802915}, "southwest": {"lat": 17.39442896970849, "lng": 78.52211761970848}}}, "opening_hours": {"open_now": true}, "place_id": "ChIJv6N_fQiZyzsRjCuIayVz5hE", "plus_code": {"global_code": "7J9W9GWF+89", "compound_code": "9GWF+89 Hyderabad, Telangana, India"}, "vicinity": "House No. 2-2-185/24/3 & 4, Beside Star Home Apartments, Mallikarjuna Nagar, Amberpet, Hyderabad", "photos": [{"photo_reference": "ATtYBwJVu_hMbgGLxdGUjE-tiuUVQopl-SPfBxFpF8luB2uP6o5oJtmy_GpxhChH1cl4wzGyUIu9xgngHKlHxORTBtZq8HDUk4uEDSEgL4M0ewyWhN4umvcSPZGhqf8djTOrQxE8CWR6jwcWfGPuJ9cl4h9sP8Nu4RZhX0UhtPRwmb4y7fSN", "width": 1920, "html_attributions": ["<a href=\"https://maps.google.com/maps/contrib/109161136913463850269\">Sai Kiran</a>"], "height": 1080}], "scope": "GOOGLE", "business_status": "OPERATIONAL", "types": ["hospital", "health", "point_of_interest", "establishment"], "icon": "https://maps.gstatic.com/mapfiles/place_api/icons/v1/png_71/hospital-71.png"}, {"name": "Ratna Medicals", "reference": "ChIJ6_x6fgiZyzsRkh79CKiCMU4", "geometry": {"location": {"lat": 17.395542, "lng": 78.523347}, "viewport": {"northeast": {"lat": 17.3968806802915, "lng": 78.5247430802915}, "southwest": {"lat": 17.3941827197085, "lng": 78.5220451197085}}}, "opening_hours": {"open_now": true}, "place_id": "ChIJ6_x6fgiZyzsRkh79CKiCMU4", "plus_code": {"global_code": "7J9W9GWF+68", "compound_code": "9GWF+68 Hyderabad, Telangana, India"}, "vicinity": "Shop.No 2-2-185/23, R.K. Nagar,, Bagh Amberpet, Hyderabad", "scope": "GOOGLE", "business_status": "OPERATIONAL", "types": ["hospital", "health", "point_of_interest", "establishment"], "icon": "https://maps.gstatic.com/mapfiles/place_api/icons/v1/png_71/hospital-71.png"}, {"rating": 3.7, "user_ratings_total": 3, "name": "Ayyappa Medical & General Stores", "reference": "ChIJ3Zbf0wWZyzsRXzRm4wt1Sdw", "geometry": {"location": {"lat": 17.3928608, "lng": 78.5267818}, "viewport": {"northeast": {"lat": 17.3942150302915, "lng": 78.52834738029149}, "southwest": {"lat": 17.3915170697085, "lng": 78.52564941970849}}}, "opening_hours": {"open_now": false}, "place_id": "ChIJ3Zbf0wWZyzsRXzRm4wt1Sdw", "plus_code": {"global_code": "7J9W9GVG+4P", "compound_code": "9GVG+4P Hyderabad, Telangana, India"}, "vicinity": "Sri Shiridi Sai Baba Mandiram, opposite Bapu Nagar, Bapu Nagar, Amberpet, Hyderabad", "photos": [{"photo_reference": "ATtYBwIE3A_70safHWJAXsWTLAYV5lTEtB4nnfu-JQMaxQhs-Qp1EKh9-crUcTBYOiOABLh4you1Z28VByIAug7Ecau9DundQsy_YmLGbbCcr1lQ-nfw-mOFupQB9IfUwxqLgh1FoWrV_g-OZ7uK6zxKRGrwO4U_--rk0okrQO44KL9edSxN", "width": 2048, "html_attributions": ["<a href=\"https://maps.google.com/maps/contrib/115273623313449723188\">Ayyappa Medical &amp; General Stores</a>"], "height": 1536}], "scope": "GOOGLE", "business_status": "OPERATIONAL", "types": ["hospital", "food", "health", "point_of_interest", "store", "establishment"], "icon": "https://maps.gstatic.com/mapfiles/place_api/icons/v1/png_71/hospital-71.png"}, {"rating": 3, "user_ratings_total": 1, "name": "Sri Laxmi Srinivasa Medical, General Store & Clinic", "reference": "ChIJRXGmrhCZyzsRONW-u0cYzPE", "geometry": {"location": {"lat": 17.39644, "lng": 78.53731499999999}, "viewport": {"northeast": {"lat": 17.3977515802915, "lng": 78.5386756802915}, "southwest": {"lat": 17.3950536197085, "lng": 78.5359777197085}}}, "opening_hours": {"open_now": true}, "place_id": "ChIJRXGmrhCZyzsRONW-u0cYzPE", "plus_code": {"global_code": "7J9W9GWP+HW", "compound_code": "9GWP+HW Hyderabad, Telangana, India"}, "vicinity": "# 16, Ramanthapur, 3-8-106, Nehru Nagar, Ramanthapur, Hyderabad", "photos": [{"photo_reference": "ATtYBwLsNG2YLPY4NhaWQ33bC3CEk8P5TucEgSu1zYuwg33vsfv7RGodRMcZE1Oa2kLid0mDxW8GE4wLI5pP9c951zfB-CEQr6Fod22DVmIsMN-A10_jUJ-NPe2inOH66sI5WRMV_zlLuThS_Wt-gDll3S3TrDu0NC6TThv9wiYzM-BHqlbN", "width": 1920, "html_attributions": ["<a href=\"https://maps.google.com/maps/contrib/101108026060807699850\">tulasi gopal</a>"], "height": 1080}], "scope": "GOOGLE", "business_status": "OPERATIONAL", "types": ["hospital", "health", "point_of_interest", "establishment"], "icon": "https://maps.gstatic.com/mapfiles/place_api/icons/v1/png_71/hospital-71.png"}, {"name": "Balaji Dental Hospital", "reference": "ChIJj2K65QSZyzsRvrKDWtQn8Oc", "geometry": {"location": {"lat": 17.39209929999999, "lng": 78.5301138}, "viewport": {"northeast": {"lat": 17.3932079302915, "lng": 78.5314461302915}, "southwest": {"lat": 17.39050996970849, "lng": 78.52874816970849}}}, "opening_hours": {"open_now": false}, "place_id": "ChIJj2K65QSZyzsRvrKDWtQn8Oc", "plus_code": {"global_code": "7J9W9GRJ+R2", "compound_code": "9GRJ+R2 Hyderabad, Telangana, India"}, "vicinity": "3_13_1/3, Bapu Nagar, Amberpet, Hyderabad", "photos": [{"photo_reference": "ATtYBwK6OD6qul7zWs2CeIbf6otxsWB5CqEHzLZy_r-07K58ddEFWDs20YGFV1bqPeUHM5gnvux0nZXsEsrO2Gypn46hgjMkHUskqaf0XbFUFnChxZ6ohtdBXZwEL6h3sieYMm8h7oOad5JrI5H1dJREYLL2i1yAoT5rqjPMVyhpGdT19pr-", "width": 2048, "html_attributions": ["<a href=\"https://maps.google.com/maps/contrib/116455221887177045035\">Balaji Dental Hospital</a>"], "height": 1536}], "scope": "GOOGLE", "business_status": "OPERATIONAL", "types": ["hospital", "health", "point_of_interest", "establishment"], "icon": "https://maps.gstatic.com/mapfiles/place_api/icons/v1/png_71/hospital-71.png"}, {"rating": 5, "user_ratings_total": 4, "name": "Laxmi Narayana Children Hospital", "reference": "ChIJG-Be1AWZyzsRy365X7DqOUE", "geometry": {"location": {"lat": 17.3926832, "lng": 78.52658029999999}, "viewport": {"northeast": {"lat": 17.3939140302915, "lng": 78.5278656302915}, "southwest": {"lat": 17.3912160697085, "lng": 78.52516766970848}}}, "place_id": "ChIJG-Be1AWZyzsRy365X7DqOUE", "plus_code": {"global_code": "7J9W9GVG+3J", "compound_code": "9GVG+3J Hyderabad, Telangana, India"}, "vicinity": "Chenna Reddy Nagar, Bapu Nagar, Amberpet, Hyderabad", "scope": "GOOGLE", "business_status": "OPERATIONAL", "types": ["hospital", "health", "point_of_interest", "establishment"], "icon": "https://maps.gstatic.com/mapfiles/place_api/icons/v1/png_71/hospital-71.png"}, {"rating": 4.9, "user_ratings_total": 89, "name": "Manasa hospital,maternity and skin", "reference": "ChIJY31FBBSZyzsRdz-I1ohRXFQ", "geometry": {"location": {"lat": 17.4022853, "lng": 78.53816379999999}, "viewport": {"northeast": {"lat": 17.4036277802915, "lng": 78.5395125802915}, "southwest": {"lat": 17.4009298197085, "lng": 78.5368146197085}}}, "opening_hours": {"open_now": false}, "place_id": "ChIJY31FBBSZyzsRdz-I1ohRXFQ", "plus_code": {"global_code": "7J9WCG2Q+W7", "compound_code": "CG2Q+W7 Hyderabad, Telangana, India"}, "vicinity": "Adjcent public school, Lane Number 6, Sai Chitra Nagar, Ramanthapur, Hyderabad", "photos": [{"photo_reference": "ATtYBwJJn9gB8RWtlgHwFvf1FdXMlPevhRUPAalu6Y6hkd9lzz72ydXjbwnylNc0NKmzGAbjn-hyyGe8Tw8brjaZFaOxuL4QyKvHuUTRRqZbeawg-hxrU1CtI74mui2dX_MB_dK7U0dnUezZiGfnA4c-L47fpkHcqVbkFdRyfaBHJcx-uWga", "width": 630, "html_attributions": ["<a href=\"https://maps.google.com/maps/contrib/103027118070823484000\">Manasa hospital,maternity and skin</a>"], "height": 487}], "scope": "GOOGLE", "business_status": "OPERATIONAL", "types": ["hospital", "health", "point_of_interest", "establishment"], "icon": "https://maps.gstatic.com/mapfiles/place_api/icons/v1/png_71/hospital-71.png"}, {"rating": 4, "user_ratings_total": 1, "name": "Tirumala Clinic", "reference": "ChIJdep49RaZyzsRGIfqObRcrtI", "geometry": {"location": {"lat": 17.3998118, "lng": 78.53857719999999}, "viewport": {"northeast": {"lat": 17.4011758802915, "lng": 78.5399586802915}, "southwest": {"lat": 17.3984779197085, "lng": 78.53726071970848}}}, "place_id": "ChIJdep49RaZyzsRGIfqObRcrtI", "vicinity": "3-13-14/C, Madhura Nagar, Ramanthapur, Ramanthapur, Nehru Nagar, Habsiguda, Hyderabad", "scope": "GOOGLE", "business_status": "OPERATIONAL", "types": ["hospital", "health", "point_of_interest", "establishment"], "icon": "https://maps.gstatic.com/mapfiles/place_api/icons/v1/png_71/hospital-71.png"}, {"rating": 5, "user_ratings_total": 2, "name": "Padmavathi Hospital", "reference": "ChIJ6R0wfwaZyzsR97c8TNGua_c", "geometry": {"location": {"lat": 17.3926519, "lng": 78.5260778}, "viewport": {"northeast": {"lat": 17.3940000302915, "lng": 78.52738653029151}, "southwest": {"lat": 17.3913020697085, "lng": 78.5246885697085}}}, "place_id": "ChIJ6R0wfwaZyzsR97c8TNGua_c", "plus_code": {"global_code": "7J9W9GVG+3C", "compound_code": "9GVG+3C Hyderabad, Telangana, India"}, "vicinity": "2-3-512/16/A, Kamshetty Enclave, Akash Nagar, Amberpet, Hyderabad", "photos": [{"photo_reference": "ATtYBwL9Fb_v2EVnJzmjdpETLAs4snVnL86caPtFlnHRQujDl4aQcuO5d4q0Czk7wFK1EOxh0yUQUWw789eid-VBONbp1ACnjfEwdG8-T57ML_qpp6YxAZZsckge-Y9Rs1VCs1zDiUlHnJbKMckyMfcl4IoQyTm5hIFYyGjda_D82IqQzrG-", "width": 4128, "html_attributions": ["<a href=\"https://maps.google.com/maps/contrib/102800644317283886680\">mallikarjun pulluri</a>"], "height": 3096}], "scope": "GOOGLE", "business_status": "OPERATIONAL", "types": ["hospital", "health", "point_of_interest", "establishment"], "icon": "https://maps.gstatic.com/mapfiles/place_api/icons/v1/png_71/hospital-71.png"}, {"name": "Bhagyalaxmi Medical & General Stores", "reference": "ChIJNYmvKwSZyzsRqAzeFoTipR0", "geometry": {"location": {"lat": 17.392268, "lng": 78.526551}, "viewport": {"northeast": {"lat": 17.3936000802915, "lng": 78.5278563302915}, "southwest": {"lat": 17.3909021197085, "lng": 78.52515836970849}}}, "opening_hours": {"open_now": false}, "place_id": "ChIJNYmvKwSZyzsRqAzeFoTipR0", "plus_code": {"global_code": "7J9W9GRG+WJ", "compound_code": "9GRG+WJ Hyderabad, Telangana, India"}, "vicinity": "2-3-512/B/30, Chenna Reddy Nagar, Amberpet, Hyderabad", "scope": "GOOGLE", "business_status": "OPERATIONAL", "types": ["hospital", "health", "point_of_interest", "establishment"], "icon": "https://maps.gstatic.com/mapfiles/place_api/icons/v1/png_71/hospital-71.png"}]}