{"status": "OK", "next_page_token": "ATtYBwLqW0i-iYeEh5AyyI_I6JD2nQYQZLoFPGKYST5wwb-yNE2eEsaRJfhF-QueRb93kRtK3Auwhz5KCQtBMmeya2O1nb2tZxZxWVEyV0cef3X5DErVUjbfpzuSBtdHbJ8F9kdpQ_hTQboF20tF1nkmrSWSsYaDAxzotziCV2L7g1Z6JzUQ8t4yanhmEqq9xiDwRp6pizgCb4tVEGCDHOrH9rPhKUpkxqLwaq3Ycyl_SO68ZmUoGYi3DTl43ebcAEWeR3R0ZHvIZT3JeTN6hvI55yXsGJ_CuI45agQ0xUuGm_BdojZf-zU79WNQfuszOqxw-dWoqZlWdmzOp4L2fQCd1SJZnCeeBF7F1T8K6s7MXAKeEm_6OC30ydQahikO3V1-4Lh2khxGzWld5WswPHOqP1Vv8d74RlZjcxHcMgprx9gXtG_cgyls0vIYYkjG5_Lpim7jXNf8cr3SeSCUGSusjSEIyqmw3En0fTuyCohC32iWPJI7xGr-g2KQ7zT0rSEPJiSmM8xDNbm6SAhyGx_ARJ7QJaRpVmwWH29X2d6pH77__gW3gW4X270vs0Kr-XTwbUafsrR3qk-W8BxipwVoZpoSCS3T6keyXi53WfTHK0WG1ls-2r3Ek4WNdKJn9DHcooi9ZOI8vrw", "html_attributions": [], "results": [{"rating": 5, "user_ratings_total": 2, "name": "Saradhamba Homeopathy Clinic", "reference": "ChIJAdXBaAmbyzsRpqqNcmxdAVU", "geometry": {"location": {"lat": 17.4817084, "lng": 78.5368548}, "viewport": {"northeast": {"lat": 17.4831400302915, "lng": 78.53816403029151}, "southwest": {"lat": 17.4804420697085, "lng": 78.53546606970849}}}, "opening_hours": {"open_now": false}, "place_id": "ChIJAdXBaAmbyzsRpqqNcmxdAVU", "plus_code": {"global_code": "7J9WFGJP+MP", "compound_code": "FGJP+MP Secunderabad, Telangana, India"}, "vicinity": "37-99/1, Neredmet X Road, Bharadwaj Enclave, Sri colony, A. S. Rao Nagar, Secunderabad", "scope": "GOOGLE", "business_status": "OPERATIONAL", "types": ["hospital", "health", "point_of_interest", "establishment"], "icon": "https://maps.gstatic.com/mapfiles/place_api/icons/v1/png_71/hospital-71.png"}, {"rating": 5, "user_ratings_total": 7, "name": "Nulife Medical & Home care", "reference": "ChIJl2hAgw-byzsRrUgHAeqitl8", "geometry": {"location": {"lat": 17.486323, "lng": 78.53264}, "viewport": {"northeast": {"lat": 17.4876882302915, "lng": 78.5340074802915}, "southwest": {"lat": 17.4849902697085, "lng": 78.5313095197085}}}, "opening_hours": {"open_now": false}, "place_id": "ChIJl2hAgw-byzsRrUgHAeqitl8", "plus_code": {"global_code": "7J9WFGPM+G3", "compound_code": "FGPM+G3 Secunderabad, Telangana, India"}, "vicinity": "34-121/1/1, Matrupuri Colony, Bharani Colony, Sainikpuri, Secunderabad", "scope": "GOOGLE", "business_status": "OPERATIONAL", "types": ["hospital", "health", "point_of_interest", "establishment"], "icon": "https://maps.gstatic.com/mapfiles/place_api/icons/v1/png_71/hospital-71.png"}, {"rating": 5, "user_ratings_total": 1, "name": "Sai Care Speciality Clinic", "reference": "ChIJyeovlKGbyzsRqntuZ7yM3po", "geometry": {"location": {"lat": 17.4830184, "lng": 78.5373097}, "viewport": {"northeast": {"lat": 17.4843584302915, "lng": 78.5386261302915}, "southwest": {"lat": 17.48166046970849, "lng": 78.53592816970848}}}, "place_id": "ChIJyeovlKGbyzsRqntuZ7yM3po", "plus_code": {"global_code": "7J9WFGMP+6W", "compound_code": "FGMP+6W Secunderabad, Telangana, India"}, "vicinity": "J.J. Nagar, Sainikpuri, Secunderabad", "scope": "GOOGLE", "business_status": "OPERATIONAL", "types": ["hospital", "health", "point_of_interest", "establishment"], "icon": "https://maps.gstatic.com/mapfiles/place_api/icons/v1/png_71/hospital-71.png"}, {"name": "SNEHITHA CLINIC", "reference": "ChIJ6W0fJeKbyzsR8ZETcQYoq0k", "geometry": {"location": {"lat": 17.4839291, "lng": 78.5368227}, "viewport": {"northeast": {"lat": 17.4852895302915, "lng": 78.53812358029151}, "southwest": {"lat": 17.4825915697085, "lng": 78.5354256197085}}}, "opening_hours": {"open_now": false}, "place_id": "ChIJ6W0fJeKbyzsR8ZETcQYoq0k", "plus_code": {"global_code": "7J9WFGMP+HP", "compound_code": "FGMP+HP Secunderabad, Telangana, India"}, "vicinity": "# 576/A, Neredmet X Road, Defence Colony Road, J.J. Nagar, Sainikpuri, Secunderabad", "photos": [{"photo_reference": "ATtYBwIVjGr72lgWyE9BOP9qwKhIaSfZ8Rz5ajmJd7MhilrN7Q2e8VF1tmsmU_uCW4auOTOcWDoMQULWIQp_cVX-twLRSkmJRxPceDciR9qbu8DAOKtTuW4KAiiuXsWs68JBJ0bKYoOA1Fae-29XlS1-svj_9CWv-QljH3aRbpi_VnW5qtTB", "width": 853, "html_attributions": ["<a href=\"https://maps.google.com/maps/contrib/103864920236692220620\">Surya Prakash</a>"], "height": 1310}], "scope": "GOOGLE", "business_status": "OPERATIONAL", "types": ["hospital", "health", "point_of_interest", "establishment"], "icon": "https://maps.gstatic.com/mapfiles/place_api/icons/v1/png_71/hospital-71.png"}, {"name": "Varalaxmi Hospital", "reference": "ChIJX5zYuw6byzsRGxFjb4G6ToE", "geometry": {"location": {"lat": 17.4843346, "lng": 78.53662659999999}, "viewport": {"northeast": {"lat": 17.4856553802915, "lng": 78.53807148029149}, "southwest": {"lat": 17.4829574197085, "lng": 78.53537351970849}}}, "place_id": "ChIJX5zYuw6byzsRGxFjb4G6ToE", "plus_code": {"global_code": "7J9WFGMP+PM", "compound_code": "FGMP+PM Secunderabad, Telangana, India"}, "vicinity": "Neredmet Cross Road, Sapthagiri Colony, Defence Colony, Sainikpuri, Secunderabad", "scope": "GOOGLE", "business_status": "OPERATIONAL", "types": ["hospital", "health", "point_of_interest", "establishment"], "icon": "https://maps.gstatic.com/mapfiles/place_api/icons/v1/png_71/hospital-71.png"}, {"rating": 5, "user_ratings_total": 1, "name": "MAMATHA CLINIC", "reference": "ChIJ2QktVAmbyzsRF-Xnriuoycc", "geometry": {"location": {"lat": 17.4830861, "lng": 78.5374946}, "viewport": {"northeast": {"lat": 17.4844405302915, "lng": 78.5388811802915}, "southwest": {"lat": 17.4817425697085, "lng": 78.53618321970849}}}, "place_id": "ChIJ2QktVAmbyzsRF-Xnriuoycc", "plus_code": {"global_code": "7J9WFGMP+6X", "compound_code": "FGMP+6X Secunderabad, Telangana, India"}, "vicinity": "37-77/2, Neredmet X Road, J.J. Nagar, Sainikpuri, Secunderabad", "scope": "GOOGLE", "business_status": "OPERATIONAL", "types": ["hospital", "health", "point_of_interest", "establishment"], "icon": "https://maps.gstatic.com/mapfiles/place_api/icons/v1/png_71/hospital-71.png"}, {"name": "New Hope AG Church", "reference": "ChIJVSi0OF-byzsREV9XwKZFH_k", "geometry": {"location": {"lat": 17.4878457, "lng": 78.530261}, "viewport": {"northeast": {"lat": 17.4891654302915, "lng": 78.53159773029152}, "southwest": {"lat": 17.48646746970849, "lng": 78.5288997697085}}}, "place_id": "ChIJVSi0OF-byzsREV9XwKZFH_k", "plus_code": {"global_code": "7J9WFGQJ+44", "compound_code": "FGQJ+44 Secunderabad, Telangana, India"}, "vicinity": "Road NUmber 5, Vivekanandapuram Colony, Sainikpuri, Secunderabad", "scope": "GOOGLE", "business_status": "OPERATIONAL", "types": ["hospital", "health", "point_of_interest", "establishment"], "icon": "https://maps.gstatic.com/mapfiles/place_api/icons/v1/png_71/hospital-71.png"}, {"rating": 4, "user_ratings_total": 14, "name": "Meda Hospital", "reference": "ChIJZyESrA6byzsRIG9v1SUv3Es", "geometry": {"location": {"lat": 17.4836944, "lng": 78.537269}, "viewport": {"northeast": {"lat": 17.4850414302915, "lng": 78.5385427802915}, "southwest": {"lat": 17.4823434697085, "lng": 78.53584481970849}}}, "place_id": "ChIJZyESrA6byzsRIG9v1SUv3Es", "plus_code": {"global_code": "7J9WFGMP+FW", "compound_code": "FGMP+FW Secunderabad, Telangana, India"}, "vicinity": "J.J.NAGAR COLONY , NEREDMET X ROAD, Sainikpuri, Secunderabad", "photos": [{"photo_reference": "ATtYBwL3XPkiBO4nIGkOKbJcvJVgmrsC6DyAOUKjW42YuMz2GFmVn24hHymj-TzCrL4smLMkJHm_G_geUXJhMVJd5dYz3xdCI-gAlBVRSSPt2huO2C5OIl7PKusptZfPedGUQ_pBehZry74Utegk6opyqyB_s7WBlCKhVQ9C6RcuHj_oXZbT", "width": 1920, "html_attributions": ["<a href=\"https://maps.google.com/maps/contrib/111767348662562691457\">Bhanu Prakash</a>"], "height": 1080}], "scope": "GOOGLE", "business_status": "OPERATIONAL", "types": ["hospital", "health", "point_of_interest", "establishment"], "icon": "https://maps.gstatic.com/mapfiles/place_api/icons/v1/png_71/hospital-71.png"}, {"name": "Neerus Opticians", "reference": "ChIJ1-i-5gubyzsRjBAO4EnGyrU", "geometry": {"location": {"lat": 17.4822819, "lng": 78.5381189}, "viewport": {"northeast": {"lat": 17.4836106302915, "lng": 78.5393974302915}, "southwest": {"lat": 17.48091266970849, "lng": 78.5366994697085}}}, "place_id": "ChIJ1-i-5gubyzsRjBAO4EnGyrU", "plus_code": {"global_code": "7J9WFGJQ+W6", "compound_code": "FGJQ+W6 Secunderabad, Telangana, India"}, "vicinity": "Sri colony, A. S. Rao Nagar, Secunderabad", "scope": "GOOGLE", "business_status": "OPERATIONAL", "types": ["hospital", "health", "point_of_interest", "establishment"], "icon": "https://maps.gstatic.com/mapfiles/place_api/icons/v1/png_71/hospital-71.png"}, {"name": "Gerinium kids clinic", "reference": "ChIJcXS3ocKbyzsRo1nDCUi8ZZ0", "geometry": {"location": {"lat": 17.4863675, "lng": 78.53526029999999}, "viewport": {"northeast": {"lat": 17.4876858302915, "lng": 78.5366630302915}, "southwest": {"lat": 17.4849878697085, "lng": 78.5339650697085}}}, "place_id": "ChIJcXS3ocKbyzsRo1nDCUi8ZZ0", "plus_code": {"global_code": "7J9WFGPP+G4", "compound_code": "FGPP+G4 Secunderabad, Telangana, India"}, "vicinity": "713, Babu Jagajivanram Road, Sapthagiri Colony, New Kranthi Nagar, Sainikpuri, Secunderabad", "scope": "GOOGLE", "business_status": "OPERATIONAL", "types": ["hospital", "health", "point_of_interest", "establishment"], "icon": "https://maps.gstatic.com/mapfiles/place_api/icons/v1/png_71/hospital-71.png"}, {"name": "My Healthy Brain", "reference": "ChIJ18qMsC2byzsRuVAP6ofCwcs", "geometry": {"location": {"lat": 17.475413, "lng": 78.5229257}, "viewport": {"northeast": {"lat": 17.4767915802915, "lng": 78.5242633802915}, "southwest": {"lat": 17.4740936197085, "lng": 78.5215654197085}}}, "place_id": "ChIJ18qMsC2byzsRuVAP6ofCwcs", "plus_code": {"global_code": "7J9WFGGF+55", "compound_code": "FGGF+55 Secunderabad, Telangana, India"}, "vicinity": "Tirumalagiri Road, Venkateshwara Officers Colony, Neredmet, Secunderabad", "scope": "GOOGLE", "business_status": "OPERATIONAL", "types": ["hospital", "health", "point_of_interest", "establishment"], "icon": "https://maps.gstatic.com/mapfiles/place_api/icons/v1/png_71/hospital-71.png"}, {"rating": 5, "user_ratings_total": 3, "name": "Dr.SIRISH PHYSIOTHERAPY HOME VISITS SERVICE", "reference": "ChIJ-x9YoQ6byzsRERmOiEswyBg", "geometry": {"location": {"lat": 17.484543, "lng": 78.537341}, "viewport": {"northeast": {"lat": 17.4858906302915, "lng": 78.5386786302915}, "southwest": {"lat": 17.4831926697085, "lng": 78.5359806697085}}}, "opening_hours": {"open_now": true}, "place_id": "ChIJ-x9YoQ6byzsRERmOiEswyBg", "plus_code": {"global_code": "7J9WFGMP+RW", "compound_code": "FGMP+RW Secunderabad, Telangana, India"}, "vicinity": "Neredmet X Road - Ammuguda Road, Balaji Residency, Secunderabad", "photos": [{"photo_reference": "ATtYBwJlpT369M2n6DOGq3fJPmUGpDttnzsXYlf2eAiIztHtTODYV7h6WKQXt5QKh2K6A7kl-eUs9OCKuW1ni3zrLMujFBWEuVcQKRKvmhHrhMbkek9rStOe-bkpC_18YaqUHv8oPjoagxQ660M0ads-DOaaWJLDOiRwixCXhxrCj0XCTzfd", "width": 750, "html_attributions": ["<a href=\"https://maps.google.com/maps/contrib/106824805582221424820\">sirish siri</a>"], "height": 518}], "scope": "GOOGLE", "business_status": "OPERATIONAL", "types": ["hospital", "health", "point_of_interest", "establishment"], "icon": "https://maps.gstatic.com/mapfiles/place_api/icons/v1/png_71/hospital-71.png"}, {"rating": 5, "user_ratings_total": 26, "name": "La Cure physiotherapy Clinic & Wellness", "reference": "ChIJNyEiqkabyzsRWSB7XwrBOhw", "geometry": {"location": {"lat": 17.4818997, "lng": 78.5385338}, "viewport": {"northeast": {"lat": 17.4832487802915, "lng": 78.53992128029151}, "southwest": {"lat": 17.4805508197085, "lng": 78.5372233197085}}}, "opening_hours": {"open_now": false}, "place_id": "ChIJNyEiqkabyzsRWSB7XwrBOhw", "plus_code": {"global_code": "7J9WFGJQ+QC", "compound_code": "FGJQ+QC Secunderabad, Telangana, India"}, "vicinity": "Road Number 2, Madhura Nagar, Sainikpuri, Secunderabad", "photos": [{"photo_reference": "ATtYBwLAfET7zMtQ2bTETD6LBYhbq7o9hqCMcvelUv9ZPhKg-bkJWrGRQxhfVl7Cc3aMlN1ueUzzG5I1xX08eokNYHK27w0jtnj14894af2rq0x8yJ2gTcqNQgpZ-49q0t3uLfvpCDdg_G5oR_8rb4AL2rtD7RajOiGnrqNOEuufiANUpUb5", "width": 3024, "html_attributions": ["<a href=\"https://maps.google.com/maps/contrib/104493704636721935496\">La Cure physiotherapy Clinic &amp; Wellness</a>"], "height": 4032}], "scope": "GOOGLE", "business_status": "OPERATIONAL", "types": ["hospital", "health", "point_of_interest", "establishment"], "icon": "https://maps.gstatic.com/mapfiles/place_api/icons/v1/png_71/hospital-71.png"}, {"name": "Sai Tirumala Medical & General Stores", "reference": "ChIJ2___DwybyzsR4QxHAwaTZpg", "geometry": {"location": {"lat": 17.4851256, "lng": 78.53734639999999}, "viewport": {"northeast": {"lat": 17.4864689302915, "lng": 78.53866433029151}, "southwest": {"lat": 17.4837709697085, "lng": 78.53596636970849}}}, "opening_hours": {"open_now": true}, "place_id": "ChIJ2___DwybyzsR4QxHAwaTZpg", "plus_code": {"global_code": "7J9WFGPP+3W", "compound_code": "FGPP+3W Hyderabad, Telangana, India"}, "vicinity": "# C-173, J.J. Nagar, Neredmet, Hyderabad", "photos": [{"photo_reference": "ATtYBwJ3Zw8HenhXjt3kbJvUlTLNCbAup0_7h3-KkiKAfckRJrSwEHLLX7GgRDVomB9K3kPos1qpXGyEYNriD9TSik-CggfWhbTO13bt0bpVK2Ltj5AK36yQO2Lrn45F-TCqUFdsa-C4c2gUi9LEBAesNJUnyMJ9yRUSOUK4Y__-eUGuP92q", "width": 2048, "html_attributions": ["<a href=\"https://maps.google.com/maps/contrib/110870378943860971316\">Sai Tirumala Medical &amp; General Stores</a>"], "height": 1152}], "scope": "GOOGLE", "business_status": "OPERATIONAL", "types": ["hospital", "health", "point_of_interest", "establishment"], "icon": "https://maps.gstatic.com/mapfiles/place_api/icons/v1/png_71/hospital-71.png"}, {"rating": 3, "user_ratings_total": 50, "name": "Sunflower Multi Specialty Hospital", "reference": "ChIJy7EvtHabyzsR4FUvOftTeu4", "geometry": {"location": {"lat": 17.4829467, "lng": 78.5387174}, "viewport": {"northeast": {"lat": 17.48416668029151, "lng": 78.5400784802915}, "southwest": {"lat": 17.4814687197085, "lng": 78.53738051970848}}}, "opening_hours": {"open_now": true}, "place_id": "ChIJy7EvtHabyzsR4FUvOftTeu4", "plus_code": {"global_code": "7J9WFGMQ+5F", "compound_code": "FGMQ+5F Secunderabad, Telangana, India"}, "vicinity": "Plot No E73, House, No 37 74/9, Sainikpuri X Road - Vayupuri - Neredmet X Road, Sainikpuri, Secunderabad", "photos": [{"photo_reference": "ATtYBwIvd7VhTzReKuhcvbAOcNmHnOvOHHbJVyAtOjxKgfOuq0lXhTXeYX-cKAEfbmsurf1xQcltJaAIO0DPp9SifehM1C7chHebOeZJzkuAAsR49pZW-prH-zXEgtRDOwax7nGrrm01d19pEWTFHUAHIwSeImqhoG9U0aOXoqn5hgTK5vQi", "width": 1080, "html_attributions": ["<a href=\"https://maps.google.com/maps/contrib/113833507043754563752\">Karunakar Reddy</a>"], "height": 1920}], "scope": "GOOGLE", "business_status": "OPERATIONAL", "types": ["hospital", "health", "point_of_interest", "establishment"], "icon": "https://maps.gstatic.com/mapfiles/place_api/icons/v1/png_71/hospital-71.png"}, {"name": "Dr.rajkumar Childrens Clinic", "reference": "ChIJe9h41qCbyzsRNiB37KjVP9U", "geometry": {"location": {"lat": 17.4748633, "lng": 78.5380565}, "viewport": {"northeast": {"lat": 17.4762031802915, "lng": 78.5393881802915}, "southwest": {"lat": 17.4735052197085, "lng": 78.53669021970849}}}, "place_id": "ChIJe9h41qCbyzsRNiB37KjVP9U", "plus_code": {"global_code": "7J9WFGFQ+W6", "compound_code": "FGFQ+W6 Secunderabad, Telangana, India"}, "vicinity": "Old Neredmet - Malkajgiri Road, Bank Colony, Neredmet, Secunderabad", "scope": "GOOGLE", "business_status": "OPERATIONAL", "types": ["hospital", "health", "point_of_interest", "establishment"], "icon": "https://maps.gstatic.com/mapfiles/place_api/icons/v1/png_71/hospital-71.png"}, {"rating": 5, "user_ratings_total": 3, "name": "Ashwin Diagnostics Center And Hospital", "reference": "ChIJ_XLpf7ibyzsR_KECjcOYRmo", "geometry": {"location": {"lat": 17.4746687, "lng": 78.5380222}, "viewport": {"northeast": {"lat": 17.4760503802915, "lng": 78.5394332802915}, "southwest": {"lat": 17.4733524197085, "lng": 78.5367353197085}}}, "place_id": "ChIJ_XLpf7ibyzsR_KECjcOYRmo", "plus_code": {"global_code": "7J9WFGFQ+V6", "compound_code": "FGFQ+V6 Secunderabad, Telangana, India"}, "vicinity": "29-176/3, opp S.R Digi school, Old Neredmet - Malkajgiri Road, Bank Colony, Malkajgiri, Secunderabad", "photos": [{"photo_reference": "ATtYBwLicafBAAoErhFbe6JojlZ0lRxc28BNINsC0Hz70F5b-RnCIpvO-5xH2AAtZTVwtKYp4o2WyUpw_l1aLhhIMTiKdbKMPjgF6_0n0J8Hi8GiYQaIquclUBlR-qLpN_v-1GAU845EoqskluE8k_hAYYQha2zlz9oiKkHJ8F0j5Elsr4ki", "width": 1836, "html_attributions": ["<a href=\"https://maps.google.com/maps/contrib/115825030244243504406\">Mallesh A</a>"], "height": 3264}], "scope": "GOOGLE", "business_status": "OPERATIONAL", "types": ["hospital", "health", "point_of_interest", "establishment"], "icon": "https://maps.gstatic.com/mapfiles/place_api/icons/v1/png_71/hospital-71.png"}, {"rating": 4, "user_ratings_total": 4, "name": "Mahendra Pharma", "reference": "ChIJbSggRXWbyzsRtxAzg3STyaI", "geometry": {"location": {"lat": 17.4828442, "lng": 78.5397054}, "viewport": {"northeast": {"lat": 17.4841929302915, "lng": 78.54102848029152}, "southwest": {"lat": 17.4814949697085, "lng": 78.5383305197085}}}, "opening_hours": {"open_now": false}, "place_id": "ChIJbSggRXWbyzsRtxAzg3STyaI", "plus_code": {"global_code": "7J9WFGMQ+4V", "compound_code": "FGMQ+4V Secunderabad, Telangana, India"}, "vicinity": "H.No #37-93/96, Road No 4, X Road, Secunderabad, Neredmet, Madhura Nagar, A. S. Rao Nagar, Secunderabad", "photos": [{"photo_reference": "ATtYBwIpTKQzY5wwJAmCDUxfWZBjzCs0IY9YC1syNktimFaP71xpJdXkw_mVQAb4TKBfvJalaR6isQlwhI5F6UKh8FYjGVfsKRRll-gnROb4p1OGDIkJdPBbqQv1t19V3sqoUxYc0f8w7udUzoyp69ea5uGMjvim-1Tlpa3vBdjjr26PbH2Y", "width": 4160, "html_attributions": ["<a href=\"https://maps.google.com/maps/contrib/110710032157801080465\">Naveen Reddy</a>"], "height": 3120}], "scope": "GOOGLE", "business_status": "OPERATIONAL", "types": ["hospital", "health", "point_of_interest", "establishment"], "icon": "https://maps.gstatic.com/mapfiles/place_api/icons/v1/png_71/hospital-71.png"}, {"rating": 5, "user_ratings_total": 1, "name": "Magic Smiles Dental Clinic Sainikpuri", "reference": "ChIJDbXqva2byzsRisb17Qj_RHY", "geometry": {"location": {"lat": 17.488479, "lng": 78.5359435}, "viewport": {"northeast": {"lat": 17.4897970802915, "lng": 78.53727623029151}, "southwest": {"lat": 17.4870991197085, "lng": 78.5345782697085}}}, "opening_hours": {"open_now": false}, "place_id": "ChIJDbXqva2byzsRisb17Qj_RHY", "plus_code": {"global_code": "7J9WFGQP+99", "compound_code": "FGQP+99 Secunderabad, Telangana, India"}, "vicinity": "36-112/4, New Kranthi Nagar, Sainikpuri, Secunderabad", "photos": [{"photo_reference": "ATtYBwIhnTIuuTXwIfYTlZcPH-KEF-DcfJShLYKOyLr444QwBu9leq4osJQeIaN0n8bYmrCkpHl_cRLWalvMF2JtMOrxZ6y1_RwQZFVjxOTwG07J3_4XPKBl3Il9jGjBqZho8x0phiWIj17E1QufdxJhzC6Nl0QdiNDgySYq4RiZvSS0jYHe", "width": 4000, "html_attributions": ["<a href=\"https://maps.google.com/maps/contrib/101920267986701032922\">Harshvardhan Jois</a>"], "height": 3000}], "scope": "GOOGLE", "business_status": "OPERATIONAL", "types": ["hospital", "health", "point_of_interest", "establishment"], "icon": "https://maps.gstatic.com/mapfiles/place_api/icons/v1/png_71/hospital-71.png"}, {"rating": 3.2, "user_ratings_total": 66, "name": "Sriya hospital", "reference": "ChIJTfVSAqGbyzsRmvZpy1GHBtE", "geometry": {"location": {"lat": 17.4751288, "lng": 78.5394625}, "viewport": {"northeast": {"lat": 17.47643843029151, "lng": 78.5408370302915}, "southwest": {"lat": 17.4737404697085, "lng": 78.53813906970849}}}, "opening_hours": {"open_now": true}, "place_id": "ChIJTfVSAqGbyzsRmvZpy1GHBtE", "plus_code": {"global_code": "7J9WFGGQ+3Q", "compound_code": "FGGQ+3Q Secunderabad, Telangana, India"}, "vicinity": "near Old Police Station, 29-75/6E, near Old Police Station, West Kakatiya Nagar, Neredmet, Secunderabad", "photos": [{"photo_reference": "ATtYBwJp0zZwSTgcg4Fa_qH9tOiLTK_Tq7R1mbGlg61rTASckhBVNK7VC8sy8nety7e08QbzWIP38bFW9gkrT9GF6kAQg5eOgXSX9aFwUIErtb0qu13bk9MhCf9lcCt31zhtHhhwrq3CYpXmrDfhVW2yxxbOaPjzfTWHRwBRfFB4qq4DRzBz", "width": 2048, "html_attributions": ["<a href=\"https://maps.google.com/maps/contrib/100929576085065875753\">Sriya Hospital</a>"], "height": 1152}], "scope": "GOOGLE", "business_status": "OPERATIONAL", "types": ["hospital", "health", "point_of_interest", "establishment"], "icon": "https://maps.gstatic.com/mapfiles/place_api/icons/v1/png_71/hospital-71.png"}]}