{"status": "OK", "html_attributions": [], "results": [{"rating": 5, "user_ratings_total": 30, "name": "Dr Mustafa Hussain Razvi (Surgical gastroenterologist and Cancer surgeon)", "reference": "ChIJD3vq4l-XyzsRBMc718c0NAc", "geometry": {"location": {"lat": 17.3810272, "lng": 78.42134949999999}, "viewport": {"northeast": {"lat": 17.3823478802915, "lng": 78.4226984302915}, "southwest": {"lat": 17.3796499197085, "lng": 78.4200004697085}}}, "opening_hours": {"open_now": false}, "place_id": "ChIJD3vq4l-XyzsRBMc718c0NAc", "plus_code": {"global_code": "7J9W9CJC+CG", "compound_code": "9CJC+CG Hyderabad, Telangana, India"}, "vicinity": "Majestic Hospital 9-2-504, Pension Pura, Langar Houz, Hyderabad", "scope": "GOOGLE", "business_status": "OPERATIONAL", "types": ["hospital", "doctor", "health", "point_of_interest", "establishment"], "icon": "https://maps.gstatic.com/mapfiles/place_api/icons/v1/png_71/generic_business-71.png"}, {"rating": 5, "user_ratings_total": 1, "name": "Dr S Nishat Hyderi -MBBS, DGO, DNB( Best Obstetrician, Gynecologist and Infertility Specialist)", "reference": "ChIJV8d4rmeXyzsRaAVdBg0lYTo", "geometry": {"location": {"lat": 17.3801058, "lng": 78.4210447}, "viewport": {"northeast": {"lat": 17.3814542802915, "lng": 78.4224465302915}, "southwest": {"lat": 17.3787563197085, "lng": 78.41974856970849}}}, "opening_hours": {"open_now": false}, "place_id": "ChIJV8d4rmeXyzsRaAVdBg0lYTo", "plus_code": {"global_code": "7J9W9CJC+2C", "compound_code": "9CJC+2C Hyderabad, Telangana, India"}, "vicinity": "9-2-504 Majestic Hospital, Langar Houz, Hyderabad", "scope": "GOOGLE", "business_status": "OPERATIONAL", "types": ["hospital", "health", "point_of_interest", "establishment"], "icon": "https://maps.gstatic.com/mapfiles/place_api/icons/v1/png_71/hospital-71.png"}, {"rating": 1, "user_ratings_total": 1, "name": "Khanapuram Hospital", "reference": "ChIJlS4kWfiWyzsRPLLevpswIg0", "geometry": {"location": {"lat": 17.379493, "lng": 78.420988}, "viewport": {"northeast": {"lat": 17.3808239302915, "lng": 78.4223963802915}, "southwest": {"lat": 17.3781259697085, "lng": 78.41969841970848}}}, "place_id": "ChIJlS4kWfiWyzsRPLLevpswIg0", "plus_code": {"global_code": "7J9W9CHC+Q9", "compound_code": "9CHC+Q9 Hyderabad, Telangana, India"}, "vicinity": "9-2-286/A9 , 1st Floor, Langar Houz Road, Langar Houz, Hyderabad", "scope": "GOOGLE", "business_status": "OPERATIONAL", "types": ["hospital", "health", "point_of_interest", "establishment"], "icon": "https://maps.gstatic.com/mapfiles/place_api/icons/v1/png_71/hospital-71.png"}, {"rating": 3.5, "user_ratings_total": 6, "name": "Urban Health Post", "reference": "ChIJIbQ7fgaXyzsRKWKzjAWpKag", "geometry": {"location": {"lat": 17.384316, "lng": 78.43802339999999}, "viewport": {"northeast": {"lat": 17.3857116302915, "lng": 78.4393739302915}, "southwest": {"lat": 17.3830136697085, "lng": 78.43667596970849}}}, "place_id": "ChIJIbQ7fgaXyzsRKWKzjAWpKag", "plus_code": {"global_code": "7J9W9CMQ+P6", "compound_code": "9CMQ+P6 Hyderabad, Telangana, India"}, "vicinity": "57, 12-2-416, Gudi Malkapur Road, Ushodaya Colony, Gudi Malkapur, Mehdipatnam, Hyderabad", "photos": [{"photo_reference": "ATtYBwKjKnXlNl-Al6MiQVTc-PV3IWRGvIixvZDD8zM-Ru8-n2mAy8RJPdvqZha94Hql0ZDvTk5lU0RVggRR3OK6k-k6DyETvZgoHnkN2BvontLhwQQA9AnJlkctoAnuNeu9DSxcF7ghIOwXnW0OBl38X-viH_UmjMC9SKaOQCvI2R5Astrp", "width": 4160, "html_attributions": ["<a href=\"https://maps.google.com/maps/contrib/101878813168155179485\">praveen janagam</a>"], "height": 2340}], "scope": "GOOGLE", "business_status": "OPERATIONAL", "types": ["hospital", "health", "point_of_interest", "establishment"], "icon": "https://maps.gstatic.com/mapfiles/place_api/icons/v1/png_71/hospital-71.png"}, {"name": "Basude Clinic", "reference": "ChIJNUrp7meXyzsRp-aPUFdYO1k", "geometry": {"location": {"lat": 17.3794511, "lng": 78.4393492}, "viewport": {"northeast": {"lat": 17.3807990302915, "lng": 78.4407082802915}, "southwest": {"lat": 17.3781010697085, "lng": 78.4380103197085}}}, "place_id": "ChIJNUrp7meXyzsRp-aPUFdYO1k", "plus_code": {"global_code": "7J9W9CHQ+QP", "compound_code": "9CHQ+QP Hyderabad, Telangana, India"}, "vicinity": "250/3/24, VV Nagar, Talla Gadda, Karwan, Hyderabad", "scope": "GOOGLE", "business_status": "OPERATIONAL", "types": ["hospital", "health", "point_of_interest", "establishment"], "icon": "https://maps.gstatic.com/mapfiles/place_api/icons/v1/png_71/hospital-71.png"}, {"name": "Laxmi", "reference": "ChIJsSj0XzKXyzsR2GFfi871ryQ", "geometry": {"location": {"lat": 17.3782003, "lng": 78.4207594}, "viewport": {"northeast": {"lat": 17.37955893029149, "lng": 78.4220791802915}, "southwest": {"lat": 17.37686096970849, "lng": 78.4193812197085}}}, "place_id": "ChIJsSj0XzKXyzsR2GFfi871ryQ", "plus_code": {"global_code": "7J9W9CHC+78", "compound_code": "9CHC+78 Hyderabad, Telangana, India"}, "vicinity": "Langar Houz, Hyderabad", "scope": "GOOGLE", "business_status": "OPERATIONAL", "types": ["hospital", "health", "point_of_interest", "establishment"], "icon": "https://maps.gstatic.com/mapfiles/place_api/icons/v1/png_71/hospital-71.png"}, {"name": "UPHC GUDIMALKAPUR", "reference": "ChIJqxRIg8iXyzsR1_BVNjUxE7M", "geometry": {"location": {"lat": 17.3842365, "lng": 78.4383987}, "viewport": {"northeast": {"lat": 17.3856025802915, "lng": 78.4396984302915}, "southwest": {"lat": 17.3829046197085, "lng": 78.4370004697085}}}, "opening_hours": {"open_now": false}, "place_id": "ChIJqxRIg8iXyzsR1_BVNjUxE7M", "plus_code": {"global_code": "7J9W9CMQ+M9", "compound_code": "9CMQ+M9 Hyderabad, Telangana, India"}, "vicinity": "Ushodaya Colony, Gudi Malkapur, Mehdipatnam, Hyderabad", "scope": "GOOGLE", "business_status": "OPERATIONAL", "types": ["hospital", "health", "point_of_interest", "establishment"], "icon": "https://maps.gstatic.com/mapfiles/place_api/icons/v1/png_71/hospital-71.png"}, {"name": "CGHS Unani Dispensary", "reference": "ChIJMXvuNzCXyzsRG00rxZaB_qg", "geometry": {"location": {"lat": 17.382146, "lng": 78.43930189999999}, "viewport": {"northeast": {"lat": 17.3834799302915, "lng": 78.4406767802915}, "southwest": {"lat": 17.38078196970849, "lng": 78.43797881970848}}}, "opening_hours": {"open_now": false}, "place_id": "ChIJMXvuNzCXyzsRG00rxZaB_qg", "plus_code": {"global_code": "7J9W9CJQ+VP", "compound_code": "9CJQ+VP Hyderabad, Telangana, India"}, "vicinity": "161, Sarada Nagar Colony, Syed Ali Guda, Hyderabad", "scope": "GOOGLE", "business_status": "OPERATIONAL", "types": ["hospital", "health", "point_of_interest", "establishment"], "icon": "https://maps.gstatic.com/mapfiles/place_api/icons/v1/png_71/hospital-71.png"}, {"name": "H. K. G. N medical shop", "reference": "ChIJxbahNhmXyzsRe_vjLskZAZo", "geometry": {"location": {"lat": 17.3746984, "lng": 78.4221487}, "viewport": {"northeast": {"lat": 17.3760150802915, "lng": 78.4235000302915}, "southwest": {"lat": 17.3733171197085, "lng": 78.4208020697085}}}, "place_id": "ChIJxbahNhmXyzsRe_vjLskZAZo", "plus_code": {"global_code": "7J9W9CFC+VV", "compound_code": "9CFC+VV Hyderabad, Telangana, India"}, "vicinity": "Hashim Nagar, Hyderabad", "photos": [{"photo_reference": "ATtYBwL3L4eWXbKqLGyexFi9R8oqCYsv97hiNvYrXoFNBa9UKZ7v8z09GTDt80ryZE3pEFQMrt0H2WrI5fo-b5XOwgYTkQv5aLf4RDlkcC5HVlfGh3IjkGnDCl7j655iv06GsVG8rXKYkTuWEtprA_zSMqys8v3VKx5v0-MAh0VEZgnctw1R", "width": 3120, "html_attributions": ["<a href=\"https://maps.google.com/maps/contrib/105789861459236050183\">C Srinivas</a>"], "height": 4160}], "scope": "GOOGLE", "business_status": "OPERATIONAL", "types": ["hospital", "health", "point_of_interest", "establishment"], "icon": "https://maps.gstatic.com/mapfiles/place_api/icons/v1/png_71/hospital-71.png"}, {"name": "Pension Pura", "reference": "ChIJKy9MbOqXyzsRQSZGXTL7oVk", "geometry": {"location": {"lat": 17.38055139999999, "lng": 78.42024649999999}, "viewport": {"northeast": {"lat": 17.3818990302915, "lng": 78.4216474802915}, "southwest": {"lat": 17.37920106970849, "lng": 78.41894951970849}}}, "place_id": "ChIJKy9MbOqXyzsRQSZGXTL7oVk", "plus_code": {"global_code": "7J9W9CJC+63", "compound_code": "9CJC+63 Hyderabad, Telangana, India"}, "vicinity": "Pension Pura, Langar House North, Langar Houz, Hyderabad", "scope": "GOOGLE", "business_status": "OPERATIONAL", "types": ["hospital", "health", "point_of_interest", "establishment"], "icon": "https://maps.gstatic.com/mapfiles/place_api/icons/v1/png_71/hospital-71.png"}, {"name": "Sri Venkateshwara Medical & General Store", "reference": "ChIJpTGO9H6XyzsR9u-0Jd3Kyj8", "geometry": {"location": {"lat": 17.3768648, "lng": 78.43931289999999}, "viewport": {"northeast": {"lat": 17.3782387802915, "lng": 78.4406682302915}, "southwest": {"lat": 17.3755408197085, "lng": 78.43797026970849}}}, "place_id": "ChIJpTGO9H6XyzsR9u-0Jd3Kyj8", "plus_code": {"global_code": "7J9W9CGQ+PP", "compound_code": "9CGQ+PP Hyderabad, Telangana, India"}, "vicinity": "Beside Mohini Function Hall, Jafferguda, Karwan, Hyderabad", "scope": "GOOGLE", "business_status": "OPERATIONAL", "types": ["hospital", "health", "point_of_interest", "establishment"], "icon": "https://maps.gstatic.com/mapfiles/place_api/icons/v1/png_71/hospital-71.png"}, {"name": "Anandh Clinic LTFQ", "reference": "ChIJL7EIhQSXyzsRc-z-Vx47rjQ", "geometry": {"location": {"lat": 17.3877906, "lng": 78.4359857}, "viewport": {"northeast": {"lat": 17.3891376302915, "lng": 78.43733503029151}, "southwest": {"lat": 17.3864396697085, "lng": 78.43463706970849}}}, "place_id": "ChIJL7EIhQSXyzsRc-z-Vx47rjQ", "plus_code": {"global_code": "7J9W9CQP+49", "compound_code": "9CQP+49 Hyderabad, Telangana, India"}, "vicinity": "500264, Vivekananda Nagar, Bojjagutta, Mehdipatnam, Hyderabad", "scope": "GOOGLE", "business_status": "OPERATIONAL", "types": ["hospital", "health", "point_of_interest", "establishment"], "icon": "https://maps.gstatic.com/mapfiles/place_api/icons/v1/png_71/hospital-71.png"}, {"name": "CLASSIC SPEECH AND HEARING CENTER", "reference": "ChIJeQD3lVeWyzsRQREmksxLxfc", "geometry": {"location": {"lat": 17.3760781, "lng": 78.4206635}, "viewport": {"northeast": {"lat": 17.3774271802915, "lng": 78.4220071802915}, "southwest": {"lat": 17.3747292197085, "lng": 78.4193092197085}}}, "opening_hours": {"open_now": false}, "place_id": "ChIJeQD3lVeWyzsRQREmksxLxfc", "plus_code": {"global_code": "7J9W9CGC+C7", "compound_code": "9CGC+C7 Hyderabad, Telangana, India"}, "vicinity": "Bapu Nagar, Langar House Flyover, Prashanth Nagar, Langar Houz, Hyderabad", "scope": "GOOGLE", "business_status": "OPERATIONAL", "types": ["hospital", "health", "point_of_interest", "establishment"], "icon": "https://maps.gstatic.com/mapfiles/place_api/icons/v1/png_71/hospital-71.png"}, {"rating": 5, "user_ratings_total": 6, "name": "Reliable Homeo Center Mehdipatnam", "reference": "ChIJLUII0uKWyzsRGnv39T6nLKk", "geometry": {"location": {"lat": 17.3895661, "lng": 78.4277901}, "viewport": {"northeast": {"lat": 17.3909510802915, "lng": 78.4292005802915}, "southwest": {"lat": 17.38825311970849, "lng": 78.42650261970849}}}, "opening_hours": {"open_now": false}, "place_id": "ChIJLUII0uKWyzsRGnv39T6nLKk", "plus_code": {"global_code": "7J9W9CQH+R4", "compound_code": "9CQH+R4 Hyderabad, Telangana, India"}, "vicinity": "Karol Bagh Road, Karol Bagh Society, Rethibowli, Mehdipatnam, Hyderabad", "photos": [{"photo_reference": "ATtYBwIGcb3TJuASStUtDrgFwQgztpfRiTpdYzjMiifeST4KvGNfpFVqt1ZN7IjMRRx3ol82gcwPD77Dyy6UJZ-Rt8vLuIzRoHfxZcNOowmolzzf_6IbPjdz-paOzkLIXLPx1VVmZKmDopujI6gbeTlShzi72c8TAX87NwZzRXSC28ygV5Nj", "width": 2988, "html_attributions": ["<a href=\"https://maps.google.com/maps/contrib/101488382578646793621\">SUHAIL KHAN</a>"], "height": 5312}], "scope": "GOOGLE", "business_status": "OPERATIONAL", "types": ["hospital", "health", "point_of_interest", "establishment"], "icon": "https://maps.gstatic.com/mapfiles/place_api/icons/v1/png_71/hospital-71.png"}, {"rating": 4.1, "user_ratings_total": 13, "name": "Ronica Hospitals", "reference": "ChIJDzdxnU2XyzsRyxuAgYQDLrE", "geometry": {"location": {"lat": 17.3764299, "lng": 78.42034009999999}, "viewport": {"northeast": {"lat": 17.3777927802915, "lng": 78.4216468302915}, "southwest": {"lat": 17.3750948197085, "lng": 78.41894886970849}}}, "opening_hours": {"open_now": true}, "place_id": "ChIJDzdxnU2XyzsRyxuAgYQDLrE", "plus_code": {"global_code": "7J9W9CGC+H4", "compound_code": "9CGC+H4 Hyderabad, Telangana, India"}, "vicinity": "opposite to Alankar Theatre, No. 9-1-29/23, opposite to Alankar Theatre, Langar Houz, Hyderabad", "photos": [{"photo_reference": "ATtYBwKTYO0m4hswmp5DYHBuYZdnwZ9RosWJYFJQYV_M2MvioVTmXtkdD1G-hcPOgzxCIwQZsyRezyInchZiqAvLrKLziHxveuD9yLmSRsI0u5Qm5wXFLfYYmqtkaQ89BIk8nN_zof9AIJoTAWghEVCeUdu7HoBwNfJi4gnZrlQFKHltusRu", "width": 3024, "html_attributions": ["<a href=\"https://maps.google.com/maps/contrib/111342161394916202482\">Bhavin Gala</a>"], "height": 4032}], "scope": "GOOGLE", "business_status": "OPERATIONAL", "types": ["hospital", "health", "point_of_interest", "establishment"], "icon": "https://maps.gstatic.com/mapfiles/place_api/icons/v1/png_71/hospital-71.png"}, {"name": "Satya Shobha Residency", "reference": "ChIJtd1RKwaXyzsRU6kDx2LGiUs", "geometry": {"location": {"lat": 17.381988, "lng": 78.4401749}, "viewport": {"northeast": {"lat": 17.3833011802915, "lng": 78.44162538029151}, "southwest": {"lat": 17.3806032197085, "lng": 78.4389274197085}}}, "place_id": "ChIJtd1RKwaXyzsRU6kDx2LGiUs", "plus_code": {"global_code": "7J9W9CJR+Q3", "compound_code": "9CJR+Q3 Hyderabad, Telangana, India"}, "vicinity": "12-2-417/31, Markandeya Nagar, Sarada Nagar Colony, Syed Ali Guda, Hyderabad", "scope": "GOOGLE", "business_status": "OPERATIONAL", "types": ["hospital", "health", "point_of_interest", "establishment"], "icon": "https://maps.gstatic.com/mapfiles/place_api/icons/v1/png_71/hospital-71.png"}, {"name": "Master Homeo VIDYALAYAM", "reference": "ChIJV8Tr9aiXyzsRvxxy8ILvTXg", "geometry": {"location": {"lat": 17.3829512, "lng": 78.44015019999999}, "viewport": {"northeast": {"lat": 17.38431073029151, "lng": 78.4415003302915}, "southwest": {"lat": 17.3816127697085, "lng": 78.4388023697085}}}, "place_id": "ChIJV8Tr9aiXyzsRvxxy8ILvTXg", "plus_code": {"global_code": "7J9W9CMR+53", "compound_code": "9CMR+53 Hyderabad, Telangana, India"}, "vicinity": "SBI Colony, Sarada Nagar Colony, Syed Ali Guda, Hyderabad", "photos": [{"photo_reference": "ATtYBwK9R3zpfWpMkWzJv1A1QZTdA4yWuYy3_7t28iND7-pbwcT7jAYwss3TD7uHmcuUktEabfYPzXTLQH7hLDuHc_R9u4FverRiM94BYJswZrrM9IsGHvma7daNncT_Np7HbE-EslrS-bbU_i3gAa8aQQvmPTdTlBONUpanCpJqayW6hwvV", "width": 1080, "html_attributions": ["<a href=\"https://maps.google.com/maps/contrib/112461136698957978057\">venkatesh bandaru</a>"], "height": 1920}], "scope": "GOOGLE", "business_status": "OPERATIONAL", "types": ["hospital", "health", "point_of_interest", "establishment"], "icon": "https://maps.gstatic.com/mapfiles/place_api/icons/v1/png_71/hospital-71.png"}, {"rating": 4.8, "user_ratings_total": 8, "name": "Sri Niharika Hospital", "reference": "ChIJWWjWLQaXyzsR-jzsPMg5VTw", "geometry": {"location": {"lat": 17.3820224, "lng": 78.4405294}, "viewport": {"northeast": {"lat": 17.3833879302915, "lng": 78.44182773029151}, "southwest": {"lat": 17.3806899697085, "lng": 78.43912976970849}}}, "opening_hours": {"open_now": true}, "place_id": "ChIJWWjWLQaXyzsR-jzsPMg5VTw", "plus_code": {"global_code": "7J9W9CJR+R6", "compound_code": "9CJR+R6 Hyderabad, Telangana, India"}, "vicinity": "87, Gudi Malkapur Road, Sarada Nagar Colony, Mehdipatnam, Hyderabad", "photos": [{"photo_reference": "ATtYBwJz0dL9QnAQNXtro2rWusPlbH-e3SNL5DDv1N1cgrZMeTJ7-GvZkgEfokshhIdufHAp5vYRVyyB81lX-U4eIRw-iAswfW4Tk_UbzP2Fm2rOiiiLoITpxj62c8JmZY2bTsy_je4HG5__GL0nD0QnI_oP8mzwYbZY9NR8IzAlt5_x3zPv", "width": 1920, "html_attributions": ["<a href=\"https://maps.google.com/maps/contrib/115975075699416743157\">ravi kiran</a>"], "height": 1080}], "scope": "GOOGLE", "business_status": "OPERATIONAL", "types": ["hospital", "health", "point_of_interest", "establishment"], "icon": "https://maps.gstatic.com/mapfiles/place_api/icons/v1/png_71/hospital-71.png"}, {"rating": 4.4, "user_ratings_total": 10, "name": "Madhusudhan Reddy Children's And Family Clinic", "reference": "ChIJbTsywwWXyzsR98UKBN6ykg8", "geometry": {"location": {"lat": 17.3852614, "lng": 78.4394389}, "viewport": {"northeast": {"lat": 17.38662963029151, "lng": 78.44070898029152}, "southwest": {"lat": 17.3839316697085, "lng": 78.4380110197085}}}, "opening_hours": {"open_now": false}, "place_id": "ChIJbTsywwWXyzsR98UKBN6ykg8", "plus_code": {"global_code": "7J9W9CPQ+4Q", "compound_code": "9CPQ+4Q Hyderabad, Telangana, India"}, "vicinity": "12-2-416/15, Ushodaya Colony, Gudi Malkapur, Mehdipatnam, Hyderabad", "photos": [{"photo_reference": "ATtYBwL8JMz5xmAd5HHTVqr_oOAjLJTvB3F7tfHkjgn13iLHmvl9xchicD2XLx73gfoBSyRXdCPyuWVrSkxKbLCEympu74IsoTWbD8B7QDxuiKA38N0dVSioAJEqtbv9aEAZQld5AJ4uOGGENf94BYYYUyXJXQiN8zactrLkX8sBvz69pgpj", "width": 4032, "html_attributions": ["<a href=\"https://maps.google.com/maps/contrib/110904229877966577576\">Mahendra Perumandla</a>"], "height": 3024}], "scope": "GOOGLE", "business_status": "OPERATIONAL", "types": ["hospital", "health", "point_of_interest", "establishment"], "icon": "https://maps.gstatic.com/mapfiles/place_api/icons/v1/png_71/hospital-71.png"}, {"rating": 5, "user_ratings_total": 1, "name": "TBN Clinic", "reference": "ChIJGZMiIlOWyzsRGRLwthetRfY", "geometry": {"location": {"lat": 17.3697848, "lng": 78.4274473}, "viewport": {"northeast": {"lat": 17.3711151802915, "lng": 78.4287930302915}, "southwest": {"lat": 17.3684172197085, "lng": 78.4260950697085}}}, "opening_hours": {"open_now": false}, "place_id": "ChIJGZMiIlOWyzsRGRLwthetRfY", "plus_code": {"global_code": "7J9W9C9G+WX", "compound_code": "9C9G+WX Attapur, Telangana, India"}, "vicinity": "Ambience Fort Road, Radha Krishna Nagar, Attapur", "scope": "GOOGLE", "business_status": "OPERATIONAL", "types": ["hospital", "health", "point_of_interest", "establishment"], "icon": "https://maps.gstatic.com/mapfiles/place_api/icons/v1/png_71/hospital-71.png"}]}