{"status": "OK", "next_page_token": "ATtYBwLgGNEY-r8br-S2e8XYZHIbEvyhdJ_mS70iLXDw4eHfMUmbeZ4HlN-h_bGWGkbK5PABOKJUmFmlXok4FXHK_54Msj6xysxi58tui4Op_1BEJWu_rk0cZbKRjxrYKaH0Syhao4oaWlNGjSO76kSU4B9kggZHJNqgMDamkSKGDSp6irVVRc56VM-3srDEvIJpeSIvlhfjNYdYZYW4mROsrwTVzVP6Q64G727VB_FaRL2MbumzI678volj5GKh8aJY4K_GP9kGy5javNLksL6fTm3TxHpfaza3iS6F0FFSDSYuXu_dYnrwtBUmakXeNVA-P-6aNKobb1Y5-E7Z8Z0ojKOQglzVpJx2b8_gJKMJllb8KJQPCKVA8GoXc_heL9lhGEDtOdNJQMWI-r6l8vUYeIhMNiRyFFyRP-bji0WCjbFdbJ35G0I9xA", "html_attributions": [], "results": [{"rating": 5, "user_ratings_total": 1, "name": "Faheem Clinic", "reference": "ChIJMZzK9jG9yzsRey9kQ1oFPVE", "geometry": {"location": {"lat": 17.2999149, "lng": 78.469163}, "viewport": {"northeast": {"lat": 17.3012643802915, "lng": 78.47050723029149}, "southwest": {"lat": 17.2985664197085, "lng": 78.46780926970848}}}, "opening_hours": {"open_now": true}, "place_id": "ChIJMZzK9jG9yzsRey9kQ1oFPVE", "plus_code": {"global_code": "7J9W7FX9+XM", "compound_code": "7FX9+XM Hyderabad, Telangana, India"}, "vicinity": "Mohammad nagar Errakunta", "photos": [{"photo_reference": "ATtYBwJz89lTocTgZoG-7hhKZ7Kbon9J10QSs3sPe-ix6CKI9cCzkIKFddRoqkZX7U33ZjCVtpGsf2J8GJYdntOgMxB5Fc86aLDvjVrNPcJtdxCIA6YO36O_EygnkwK8t8_aXJI71G6rqWUo4VWlEkugmjQKY2M_MhoY7_ITt4uL4BC6ZxlO", "width": 720, "html_attributions": ["<a href=\"https://maps.google.com/maps/contrib/107871327514266096826\">M A FAHEEM</a>"], "height": 1094}], "scope": "GOOGLE", "business_status": "OPERATIONAL", "types": ["hospital", "health", "point_of_interest", "establishment"], "icon": "https://maps.gstatic.com/mapfiles/place_api/icons/v1/png_71/hospital-71.png"}, {"name": "Shifa Unani", "reference": "ChIJ144cQDO9yzsR5XYDTGgtqcQ", "geometry": {"location": {"lat": 17.3028233, "lng": 78.4692298}, "viewport": {"northeast": {"lat": 17.3041578802915, "lng": 78.4705818302915}, "southwest": {"lat": 17.3014599197085, "lng": 78.46788386970849}}}, "place_id": "ChIJ144cQDO9yzsR5XYDTGgtqcQ", "plus_code": {"global_code": "7J9W8F39+4M", "compound_code": "8F39+4M Hyderabad, Telangana, India"}, "vicinity": "Mohammed Nagar, Bandlaguda, Chandrayangutta, Hyderabad", "scope": "GOOGLE", "business_status": "OPERATIONAL", "types": ["hospital", "health", "point_of_interest", "establishment"], "icon": "https://maps.gstatic.com/mapfiles/place_api/icons/v1/png_71/hospital-71.png"}, {"name": "VK health care centre", "reference": "ChIJp77kWIO9yzsRDzlAH199w40", "geometry": {"location": {"lat": 17.303067, "lng": 78.471578}, "viewport": {"northeast": {"lat": 17.3044107802915, "lng": 78.47292763029151}, "southwest": {"lat": 17.3017128197085, "lng": 78.4702296697085}}}, "opening_hours": {"open_now": false}, "place_id": "ChIJp77kWIO9yzsRDzlAH199w40", "plus_code": {"global_code": "7J9W8F3C+6J", "compound_code": "8F3C+6J Hyderabad, Telangana, India"}, "vicinity": "Mohammed Nagar Road, Ismail Nagar, Chandrayangutta, Hyderabad", "scope": "GOOGLE", "business_status": "OPERATIONAL", "types": ["hospital", "health", "point_of_interest", "establishment"], "icon": "https://maps.gstatic.com/mapfiles/place_api/icons/v1/png_71/hospital-71.png"}, {"rating": 3, "user_ratings_total": 1, "name": "Rj Brass Band", "reference": "ChIJx9V2Sh29yzsR0-KcLNBM0zo", "geometry": {"location": {"lat": 17.3000814, "lng": 78.46541429999999}, "viewport": {"northeast": {"lat": 17.3014287802915, "lng": 78.4667513802915}, "southwest": {"lat": 17.2987308197085, "lng": 78.46405341970849}}}, "opening_hours": {"open_now": false}, "place_id": "ChIJx9V2Sh29yzsR0-KcLNBM0zo", "plus_code": {"global_code": "7J9W8F28+25", "compound_code": "8F28+25 Hyderabad, Telangana, India"}, "vicinity": "Ghouse Nagar, Mustafa Hills, Chandrayangutta, Hyderabad", "scope": "GOOGLE", "business_status": "OPERATIONAL", "types": ["hospital", "health", "point_of_interest", "establishment"], "icon": "https://maps.gstatic.com/mapfiles/place_api/icons/v1/png_71/hospital-71.png"}, {"rating": 4.5, "user_ratings_total": 4, "name": "govt hospital", "reference": "ChIJR-zAFDC9yzsR8fY8ZUwVJPI", "geometry": {"location": {"lat": 17.3000556, "lng": 78.4650144}, "viewport": {"northeast": {"lat": 17.3013995802915, "lng": 78.4663231302915}, "southwest": {"lat": 17.2987016197085, "lng": 78.46362516970848}}}, "place_id": "ChIJR-zAFDC9yzsR8fY8ZUwVJPI", "plus_code": {"global_code": "7J9W8F28+22", "compound_code": "8F28+22 Hyderabad, Telangana, India"}, "vicinity": "Mohammed Nagar, Chandrayangutta, Hyderabad", "photos": [{"photo_reference": "ATtYBwL2ut9OFQtde3pgip5sdhDQKdvCGZ5o7zFOH3sCvHfRolhjnMbbmZfRRDPLtPWNDElUhlvB-N1Kl6IWZY1nd2IpNm2EadnysjwbXaUcNboW92WW1Rm1aQ8oKxeg5XQPI97RApVhiEXFSzpIxKuwPl7bvxPKaz3bPGwE87VHxvY1olYj", "width": 3096, "html_attributions": ["<a href=\"https://maps.google.com/maps/contrib/115119657014787137322\">Mohd Aamir</a>"], "height": 4128}], "scope": "GOOGLE", "business_status": "OPERATIONAL", "types": ["hospital", "health", "point_of_interest", "establishment"], "icon": "https://maps.gstatic.com/mapfiles/place_api/icons/v1/png_71/hospital-71.png"}, {"name": "Al safa", "reference": "ChIJVSFBOry9yzsRHURAzUKidnk", "geometry": {"location": {"lat": 17.2952377, "lng": 78.46936319999999}, "viewport": {"northeast": {"lat": 17.2965882802915, "lng": 78.4707515802915}, "southwest": {"lat": 17.2938903197085, "lng": 78.46805361970848}}}, "place_id": "ChIJVSFBOry9yzsRHURAzUKidnk", "plus_code": {"global_code": "7J9W7FW9+3P", "compound_code": "7FW9+3P Hyderabad, Telangana, India"}, "vicinity": "near Daolat Bin Masjid, 18-13-8/Q/609, near Daolat Bin Masjid, Shaheen Nagar, Quba Colony, Chandrayangutta, Hyderabad", "photos": [{"photo_reference": "ATtYBwJEGvGbRqdAHX7IJV63YUPI1CwITyWgytcg_0Ica1c0dcUgTdim2AhfhZwf7_00QwV-T2EnVhagvL1vKjaP5WdHOFgOG8gOYBIyn5Mw79-tNBCQxZeLIXdJ-5izIusCe5YCkAA2eH6ox9S7j64BN2fZRD6scU9ZXepw-q0l9ymnQwzq", "width": 1080, "html_attributions": ["<a href=\"https://maps.google.com/maps/contrib/115091573579742521384\">iftequar fohyan</a>"], "height": 1920}], "scope": "GOOGLE", "business_status": "OPERATIONAL", "types": ["hospital", "health", "point_of_interest", "establishment"], "icon": "https://maps.gstatic.com/mapfiles/place_api/icons/v1/png_71/hospital-71.png"}, {"name": "Umama Medical & General Store", "reference": "ChIJU8YJui-9yzsR1N2Uv_ERCyQ", "geometry": {"location": {"lat": 17.2968523, "lng": 78.4659332}, "viewport": {"northeast": {"lat": 17.2981440802915, "lng": 78.46727613029151}, "southwest": {"lat": 17.2954461197085, "lng": 78.4645781697085}}}, "opening_hours": {"open_now": false}, "place_id": "ChIJU8YJui-9yzsR1N2Uv_ERCyQ", "plus_code": {"global_code": "7J9W7FW8+P9", "compound_code": "7FW8+P9 Hyderabad, Telangana, India"}, "vicinity": "H. No. 18-1514/124, Hyderabad, Chandrayangutta Road, Naseeb Nagar, Hyderabad", "scope": "GOOGLE", "business_status": "OPERATIONAL", "types": ["hospital", "health", "point_of_interest", "establishment"], "icon": "https://maps.gstatic.com/mapfiles/place_api/icons/v1/png_71/hospital-71.png"}, {"rating": 5, "user_ratings_total": 1, "name": "Quba Medical & General Store", "reference": "ChIJk-j89469yzsRJ1Ha7kmq6Gk", "geometry": {"location": {"lat": 17.29505379999999, "lng": 78.47092789999999}, "viewport": {"northeast": {"lat": 17.2963943802915, "lng": 78.4722519802915}, "southwest": {"lat": 17.2936964197085, "lng": 78.4695540197085}}}, "opening_hours": {"open_now": true}, "place_id": "ChIJk-j89469yzsRJ1Ha7kmq6Gk", "plus_code": {"global_code": "7J9W7FWC+29", "compound_code": "7FWC+29 Hyderabad, Telangana, India"}, "vicinity": "opp. Ayesha Masjid, 16-184\\5, Near AR International School, opp. Ayesha Masjid, Shaheen Nagar, Quba Colony, Hyderabad", "photos": [{"photo_reference": "ATtYBwJOv5t-lYxFw3R8hn8bUN1NBBDuYFjFxOaFeewqR-nd-FVg_6LQ7nvFIGuCKZrYMCGq5YuP5PdxsQrn5dDRaINCMk5DeJ1YuVymUhEjDOlzl_zLUb5q_baIm72b7DuM_sOsx1NMuXdLJyitqnGW_PvIFtSI7HviGihMMHqYRA4HIAw", "width": 4160, "html_attributions": ["<a href=\"https://maps.google.com/maps/contrib/108089901206438674900\">Quba Medical &amp; General Store</a>"], "height": 3120}], "scope": "GOOGLE", "business_status": "OPERATIONAL", "types": ["hospital", "health", "point_of_interest", "establishment"], "icon": "https://maps.gstatic.com/mapfiles/place_api/icons/v1/png_71/hospital-71.png"}, {"name": "Uphc Bandlaguda", "reference": "ChIJfVWF_Ku9yzsRBSeyxtUMeO4", "geometry": {"location": {"lat": 17.2999772, "lng": 78.4647683}, "viewport": {"northeast": {"lat": 17.30133753029151, "lng": 78.4662033802915}, "southwest": {"lat": 17.2986395697085, "lng": 78.4635054197085}}}, "opening_hours": {"open_now": false}, "place_id": "ChIJfVWF_Ku9yzsRBSeyxtUMeO4", "plus_code": {"global_code": "7J9W7FX7+XW", "compound_code": "7FX7+XW Hyderabad, Telangana, India"}, "vicinity": "Unnamed Road, Ghouse Nagar, Chandrayangutta, Hyderabad", "photos": [{"photo_reference": "ATtYBwJPO1TahYpWazoAe-RfuEjtJUexr3a5epwJktlWDGEyPuQg3Q9gZ8CqK4kkrN9Lc1HFfQBS4yDuCu_lGtQIO8HKekFwclpvqlHJsEEzMqVkqWqMACV59cwlys6XuxAxe8GSqLfM_nOMaDsneTbiMRq3csOC0PaPIeN8HnmqJQ2tqz_V", "width": 4160, "html_attributions": ["<a href=\"https://maps.google.com/maps/contrib/105499118464521767626\">Kafeel Mohammed</a>"], "height": 3120}], "scope": "GOOGLE", "business_status": "OPERATIONAL", "types": ["hospital", "health", "point_of_interest", "establishment"], "icon": "https://maps.gstatic.com/mapfiles/place_api/icons/v1/png_71/hospital-71.png"}, {"rating": 3.8, "user_ratings_total": 4, "name": "govt hospital ghouse nagar", "reference": "ChIJH5HEYzC9yzsRrKV-9_RhDcA", "geometry": {"location": {"lat": 17.3013392, "lng": 78.4648696}, "viewport": {"northeast": {"lat": 17.3026912302915, "lng": 78.4661573302915}, "southwest": {"lat": 17.29999326970849, "lng": 78.46345936970849}}}, "place_id": "ChIJH5HEYzC9yzsRrKV-9_RhDcA", "plus_code": {"global_code": "7J9W8F27+GW", "compound_code": "8F27+GW Hyderabad, Telangana, India"}, "vicinity": "18-13-132/gn/83, Ghous Nagar Road 7, Ghouse Nagar, Bandlaguda, Ghous Nagar Road 7, Ghouse Nagar, Bandlaguda, Chandrayangutta, Hyderabad", "photos": [{"photo_reference": "ATtYBwI_OY5h57XrR3EJ4O_R4eCERpoGTipuvN6-rWTFKbABqhLZdC3UM5ARFclXa9ss5ZyAhDx8-4pB03w77yIj5osWdB0XVMY4YkCzmy6rgeJQcc-BVd6sm0OhkNVK84PS5ukzKUH0ZVjhS_0wfQh8ix3dCsnIjGBsUBtoAXwmSXaRzzo2", "width": 3000, "html_attributions": ["<a href=\"https://maps.google.com/maps/contrib/105325882156529790391\">\u0645\u062d\u0645\u062f \u064a\u0648\u0633\u0641 Yousuf Mohammed</a>"], "height": 3000}], "scope": "GOOGLE", "business_status": "OPERATIONAL", "types": ["hospital", "health", "point_of_interest", "establishment"], "icon": "https://maps.gstatic.com/mapfiles/place_api/icons/v1/png_71/hospital-71.png"}, {"name": "Urban Primary Health Center-Bandlaguda", "reference": "ChIJb3RcB0O9yzsRScNG3CC7d3s", "geometry": {"location": {"lat": 17.3014424, "lng": 78.4648876}, "viewport": {"northeast": {"lat": 17.3027947302915, "lng": 78.46616913029149}, "southwest": {"lat": 17.3000967697085, "lng": 78.46347116970848}}}, "opening_hours": {"open_now": false}, "place_id": "ChIJb3RcB0O9yzsRScNG3CC7d3s", "plus_code": {"global_code": "7J9W8F27+HX", "compound_code": "8F27+HX Hyderabad, Telangana, India"}, "vicinity": "Ghouse Nagar, Mustafa Hills, Chandrayangutta, Hyderabad", "photos": [{"photo_reference": "ATtYBwL324DpXz26B7xw7GRdzVLM4lTS8zzodwQpX6pMRowa1NtFUNrN0MH_yWcHlFHk0rhpAbpPkjDBamlpzj7nswRk0ytm8rf0J-Kz7ohNN2U0vDZxVlbtds0GUiVf-dWmzrdzwdEEFHGT-2-lNVfd5CQehLqdIXcHrJawgY9FpzP2JuB7", "width": 4032, "html_attributions": ["<a href=\"https://maps.google.com/maps/contrib/110488993051771216911\">Mohammed Hussain</a>"], "height": 1960}], "scope": "GOOGLE", "business_status": "OPERATIONAL", "types": ["hospital", "health", "point_of_interest", "establishment"], "icon": "https://maps.gstatic.com/mapfiles/place_api/icons/v1/png_71/hospital-71.png"}, {"name": "New Care Poly Clinic", "reference": "ChIJI7HAlui9yzsRWN5VyBR2rKk", "geometry": {"location": {"lat": 17.3025554, "lng": 78.4649536}, "viewport": {"northeast": {"lat": 17.3039453302915, "lng": 78.4662971802915}, "southwest": {"lat": 17.30124736970849, "lng": 78.4635992197085}}}, "opening_hours": {"open_now": false}, "place_id": "ChIJI7HAlui9yzsRWN5VyBR2rKk", "plus_code": {"global_code": "7J9W8F37+2X", "compound_code": "8F37+2X Hyderabad, Telangana, India"}, "vicinity": "Ghousenagar Road, Mohammed Nagar, Chandrayangutta, Hyderabad", "photos": [{"photo_reference": "ATtYBwKDZYx6dd6vEPDaR99HD5mv_YY6AOC7tuwQI38W-JtY7L6v5c0uH-VJZxGVTlawAYJSyQ7pBRsEJyq2wZqqDPTha6BDl4ADpdNdoQ1pSFp3o94Z0rzA63I_9VkXSwQM_Q910wGI2k6-4xR59lTSy4ZSMwon4v_OeHHvCkb8knaMB8OU", "width": 4000, "html_attributions": ["<a href=\"https://maps.google.com/maps/contrib/110488993051771216911\">Mohammed Hussain</a>"], "height": 3000}], "scope": "GOOGLE", "business_status": "OPERATIONAL", "types": ["hospital", "health", "point_of_interest", "establishment"], "icon": "https://maps.gstatic.com/mapfiles/place_api/icons/v1/png_71/hospital-71.png"}, {"rating": 5, "user_ratings_total": 2, "name": "MMC POLY CLINIC", "reference": "ChIJeY6e1-ejyzsRyma0_e6U0B8", "geometry": {"location": {"lat": 17.30029, "lng": 78.475865}, "viewport": {"northeast": {"lat": 17.3016346802915, "lng": 78.4771693802915}, "southwest": {"lat": 17.2989367197085, "lng": 78.4744714197085}}}, "place_id": "ChIJeY6e1-ejyzsRyma0_e6U0B8", "plus_code": {"global_code": "7J9W8F2G+48", "compound_code": "8F2G+48 Chandrayangutta, Hyderabad, Telangana, India"}, "vicinity": "Shaheen Nagar Road, Pahadi Shareef Road, Chandrayangutta", "scope": "GOOGLE", "business_status": "OPERATIONAL", "types": ["hospital", "health", "point_of_interest", "establishment"], "icon": "https://maps.gstatic.com/mapfiles/place_api/icons/v1/png_71/hospital-71.png"}, {"rating": 5, "user_ratings_total": 1, "name": "Feroz Khan Trs", "reference": "ChIJL0ocfDC9yzsRhE9ARaPP3TQ", "geometry": {"location": {"lat": 17.301236, "lng": 78.46419499999999}, "viewport": {"northeast": {"lat": 17.3025647802915, "lng": 78.4655473802915}, "southwest": {"lat": 17.2998668197085, "lng": 78.46284941970849}}}, "place_id": "ChIJL0ocfDC9yzsRhE9ARaPP3TQ", "plus_code": {"global_code": "7J9W8F27+FM", "compound_code": "8F27+FM Hyderabad, Telangana, India"}, "vicinity": "Ghouse Nagar, Chandrayangutta, Hyderabad", "scope": "GOOGLE", "business_status": "OPERATIONAL", "types": ["hospital", "health", "point_of_interest", "establishment"], "icon": "https://maps.gstatic.com/mapfiles/place_api/icons/v1/png_71/hospital-71.png"}, {"rating": 2, "user_ratings_total": 1, "name": "Azaan Medical & General Store", "reference": "ChIJX9H1gzC9yzsRRTI0II4Z5x8", "geometry": {"location": {"lat": 17.3019078, "lng": 78.4643662}, "viewport": {"northeast": {"lat": 17.3032703802915, "lng": 78.46571353029151}, "southwest": {"lat": 17.3005724197085, "lng": 78.4630155697085}}}, "opening_hours": {"open_now": false}, "place_id": "ChIJX9H1gzC9yzsRRTI0II4Z5x8", "plus_code": {"global_code": "7J9W8F27+QP", "compound_code": "8F27+QP Hyderabad, Telangana, India"}, "vicinity": "near govt hospital, 18-13-8/HN/103 Ghouse Nagar, near govt hospital, Bandlaguda, Hyderabad", "photos": [{"photo_reference": "ATtYBwJUjJqMdfzdTRnzcugTVZI-RRs7Pr6SXnQ01hA2e2zmHqfpAqlMixyffI5txwZ85RIiKSc6_erxNWdryv61rs2uIfvBlInHojcdPC-f9Gkn9RK9Mkml-SYHDQPeLOj2VXSEqx_EamcqfKiIXEPT17N4EpLgsS3f0Jx-ahJpHD8XY2_F", "width": 4032, "html_attributions": ["<a href=\"https://maps.google.com/maps/contrib/109089005804401795858\">Azaan Medical &amp; General Store</a>"], "height": 3024}], "scope": "GOOGLE", "business_status": "OPERATIONAL", "types": ["pharmacy", "hospital", "health", "point_of_interest", "store", "establishment"], "icon": "https://maps.gstatic.com/mapfiles/place_api/icons/v1/png_71/hospital-71.png"}, {"name": "Mayan clinic", "reference": "ChIJ5buKSqu9yzsRLm21cpkAE30", "geometry": {"location": {"lat": 17.3048208, "lng": 78.4667319}, "viewport": {"northeast": {"lat": 17.3061931302915, "lng": 78.4680771802915}, "southwest": {"lat": 17.3034951697085, "lng": 78.4653792197085}}}, "place_id": "ChIJ5buKSqu9yzsRLm21cpkAE30", "plus_code": {"global_code": "7J9W8F38+WM", "compound_code": "8F38+WM Hyderabad, Telangana, India"}, "vicinity": "Unnamed Road, Ahmed Colony, Ismail Nagar, Chandrayangutta, Hyderabad", "photos": [{"photo_reference": "ATtYBwK1ubdq80_ulNTa69c45zLinJ5MuCRCDVsi-p86hi7frk70oJniQrcEvc8kZHJZf24ITk8dqWqDoopwM-K1gNVjDW1uecfzFf3oxhMtFEoLlG9Jin4r_l0pOK5DTazsG3DgS9ArpzIzvrlJtgaEX-WM0AfAnc4Cwh1MZYhHwHsbC94x", "width": 1920, "html_attributions": ["<a href=\"https://maps.google.com/maps/contrib/105855488759654774528\">Syeda Alina</a>"], "height": 1080}], "scope": "GOOGLE", "business_status": "OPERATIONAL", "types": ["hospital", "health", "point_of_interest", "establishment"], "icon": "https://maps.gstatic.com/mapfiles/place_api/icons/v1/png_71/hospital-71.png"}, {"rating": 5, "user_ratings_total": 1, "name": "Al-Habeeb Medical & General Store", "reference": "ChIJIYKMaqe9yzsRSD2XJiaersU", "geometry": {"location": {"lat": 17.3051451, "lng": 78.46703939999999}, "viewport": {"northeast": {"lat": 17.3065011302915, "lng": 78.46843883029149}, "southwest": {"lat": 17.3038031697085, "lng": 78.46574086970848}}}, "opening_hours": {"open_now": true}, "place_id": "ChIJIYKMaqe9yzsRSD2XJiaersU", "plus_code": {"global_code": "7J9W8F48+3R", "compound_code": "8F48+3R Hyderabad, Telangana, India"}, "vicinity": "18-13-132/A/166/B Beside Omer Bin Khatab Masjid Wadi-e-Ahmed, Ismail Nagar, Bandlaguda, Hyderabad", "photos": [{"photo_reference": "ATtYBwLArjDsnaaWbsEIVnbqyiXMYQhSQfKTHvgbe7H39LYVX5aag6YNobP1nLOYoyefpYrzp72OTnzH-w2I3LO6pKsc9-HtTpMp_4EfPg8lUoiiuMb20BH34jY4YDJaDIZKfiWmp3D7B9yzCy9lARyBaA2H9SScoQBNx54JIUdeJgEw_Q0x", "width": 4128, "html_attributions": ["<a href=\"https://maps.google.com/maps/contrib/106521867772776272817\">Al-Habeeb Medical &amp; General Store</a>"], "height": 3096}], "scope": "GOOGLE", "business_status": "OPERATIONAL", "types": ["hospital", "health", "point_of_interest", "establishment"], "icon": "https://maps.gstatic.com/mapfiles/place_api/icons/v1/png_71/hospital-71.png"}, {"rating": 5, "user_ratings_total": 1, "name": "Ayaan Medical & General Store", "reference": "ChIJeQzJE4e9yzsRo4H8nvhCgDs", "geometry": {"location": {"lat": 17.2943049, "lng": 78.47186870000002}, "viewport": {"northeast": {"lat": 17.2956989802915, "lng": 78.47321058029152}, "southwest": {"lat": 17.2930010197085, "lng": 78.4705126197085}}}, "opening_hours": {"open_now": true}, "place_id": "ChIJeQzJE4e9yzsRo4H8nvhCgDs", "plus_code": {"global_code": "7J9W7FVC+PP", "compound_code": "7FVC+PP Hyderabad, Telangana, India"}, "vicinity": "opp. Shine Model High School, 16-124/9, opp. Shine Model High School, Shaheen Nagar, Quba Colony, Hyderabad", "photos": [{"photo_reference": "ATtYBwJx0bkohzEwIxta8OvJkMuKkoH-Nq2n3to4z4RgUWuRAbE9fdkFDr3AMbHVZpRMaYmrtkeIzn2fgc43nsVIOICAibwU7YUDm6d1KSlT7U0_o1Rg26t1fjDAtxgu8VWkM-ZRFuLqiXUagOwsSXT1FPB-771CWAj0ZHR9qzOlpfAibLns", "width": 5312, "html_attributions": ["<a href=\"https://maps.google.com/maps/contrib/109862075378254867160\">Ayaan Medical &amp; General Store</a>"], "height": 2988}], "scope": "GOOGLE", "business_status": "OPERATIONAL", "types": ["hospital", "health", "point_of_interest", "establishment"], "icon": "https://maps.gstatic.com/mapfiles/place_api/icons/v1/png_71/hospital-71.png"}, {"name": "HEALTH HYDRABAD DIAGNOSTICS", "reference": "ChIJg4l5yFu9yzsRdMhPAjnopu0", "geometry": {"location": {"lat": 17.3008505, "lng": 78.46376889999999}, "viewport": {"northeast": {"lat": 17.30220013029151, "lng": 78.4651287802915}, "southwest": {"lat": 17.2995021697085, "lng": 78.46243081970847}}}, "place_id": "ChIJg4l5yFu9yzsRdMhPAjnopu0", "plus_code": {"global_code": "7J9W8F27+8G", "compound_code": "8F27+8G Hyderabad, Telangana, India"}, "vicinity": "18-13-132/GN/54, ROAD,5, Ghouse Nagar, Bandlaguda, Hyderabad", "photos": [{"photo_reference": "ATtYBwJKv5hC18oFZkEinZ8L0-3GIZX0dFwMGwuXh-jQIrurRVxRLkmn-0mDFmdIiHo2Vn1k8EWbI5l8aUEFb3K5GgBG-yuzbzBs4D6z2_M4fDvrKPxTI_F5tCFaj6Q-7kDYDuxaXimBQAOgHS9OCFaeGjQwcLBiRM4U8B_T9M5noitovt5Q", "width": 1280, "html_attributions": ["<a href=\"https://maps.google.com/maps/contrib/102901645555430767696\">md ibrahim</a>"], "height": 768}], "scope": "GOOGLE", "business_status": "OPERATIONAL", "types": ["hospital", "health", "point_of_interest", "establishment"], "icon": "https://maps.gstatic.com/mapfiles/place_api/icons/v1/png_71/hospital-71.png"}, {"rating": 4.7, "user_ratings_total": 7, "name": "QURAISHE'S MEDLIFE HOSPITAL", "reference": "ChIJhW-zvZmjyzsRx8DkpGAkRfE", "geometry": {"location": {"lat": 17.2986501, "lng": 78.4762733}, "viewport": {"northeast": {"lat": 17.3000121302915, "lng": 78.47765508029151}, "southwest": {"lat": 17.2973141697085, "lng": 78.4749571197085}}}, "opening_hours": {"open_now": true}, "place_id": "ChIJhW-zvZmjyzsRx8DkpGAkRfE", "plus_code": {"global_code": "7J9W7FXG+FG", "compound_code": "7FXG+FG Hyderabad, Telangana, India"}, "vicinity": "500005, Shaheen Nagar, Hyderabad", "photos": [{"photo_reference": "ATtYBwK7nZWvCG5IsA2Jg7fuWqGENwf5XvdjUhBRTN7iDm8dGQWyp6bEnHGjdzd8XmWhTFJjDzOyLMa0CbZekSBr2ULAuLkaSoYQKU5GlglFUE-eisAzl3n8S9a2Fr6OvnZ65eghhhjvfkS7X5TfjqoiaWtdDT4lt6X_OzaIoTAPlZqudcQL", "width": 1280, "html_attributions": ["<a href=\"https://maps.google.com/maps/contrib/103548329612572676628\">Mohammed Zubair</a>"], "height": 856}], "scope": "GOOGLE", "business_status": "OPERATIONAL", "types": ["hospital", "health", "point_of_interest", "establishment"], "icon": "https://maps.gstatic.com/mapfiles/place_api/icons/v1/png_71/hospital-71.png"}]}