{"status": "OK", "html_attributions": [], "results": [{"rating": 4, "user_ratings_total": 4, "name": "APMC GATE", "reference": "ChIJd3hUcGs9rjsR41vitt85tpM", "geometry": {"location": {"lat": 13.0276602, "lng": 77.54131319999999}, "viewport": {"northeast": {"lat": 13.0291180802915, "lng": 77.5427281802915}, "southwest": {"lat": 13.0264201197085, "lng": 77.5400302197085}}}, "place_id": "ChIJd3hUcGs9rjsR41vitt85tpM", "plus_code": {"global_code": "7J5V2GHR+3G", "compound_code": "2GHR+3G Bengaluru, Karnataka, India"}, "vicinity": "Corporation Bank,, Tumkur Road, Yesvantpur Industrial Suburb, Yeswanthpur, Bengaluru", "scope": "GOOGLE", "business_status": "OPERATIONAL", "types": ["bank", "finance", "point_of_interest", "establishment"], "icon": "https://maps.gstatic.com/mapfiles/place_api/icons/v1/png_71/bank-71.png"}, {"name": "Axis Bank ATM", "reference": "ChIJtSMJKLo9rjsRPTSzxYa3de0", "geometry": {"location": {"lat": 13.0194514, "lng": 77.52579539999999}, "viewport": {"northeast": {"lat": 13.0208156802915, "lng": 77.5271347802915}, "southwest": {"lat": 13.0181177197085, "lng": 77.52443681970848}}}, "opening_hours": {"open_now": true}, "place_id": "ChIJtSMJKLo9rjsRPTSzxYa3de0", "plus_code": {"global_code": "7J5V2G9G+Q8", "compound_code": "2G9G+Q8 Bengaluru, Karnataka, India"}, "vicinity": "Kempamma Layout, Lakshmi Devi Nagar, Kaveri Nagar, Bengaluru", "scope": "GOOGLE", "business_status": "OPERATIONAL", "types": ["atm", "bank", "finance", "point_of_interest", "establishment"], "icon": "https://maps.gstatic.com/mapfiles/place_api/icons/v1/png_71/atm-71.png"}, {"rating": 5, "user_ratings_total": 1, "name": "ICICI Bank ATM", "reference": "ChIJW9IBRQ49rjsRm40jHPMlL1w", "geometry": {"location": {"lat": 13.018694, "lng": 77.5313065}, "viewport": {"northeast": {"lat": 13.0200779802915, "lng": 77.53265918029152}, "southwest": {"lat": 13.0173800197085, "lng": 77.52996121970851}}}, "place_id": "ChIJW9IBRQ49rjsRm40jHPMlL1w", "plus_code": {"global_code": "7J5V2G9J+FG", "compound_code": "2G9J+FG Bengaluru, Karnataka, India"}, "vicinity": "3rd cross Road, 2nd Block, Jenakal Siddeswara Nagar, Nandini Layout, Bengaluru", "scope": "GOOGLE", "business_status": "OPERATIONAL", "types": ["bank", "atm", "finance", "point_of_interest", "establishment"], "icon": "https://maps.gstatic.com/mapfiles/place_api/icons/v1/png_71/bank-71.png"}, {"name": "ICICI BANK ATM", "reference": "ChIJ2VtHSLs9rjsRn41aUXfwfZg", "geometry": {"location": {"lat": 13.0237675, "lng": 77.54004669999999}, "viewport": {"northeast": {"lat": 13.0251916802915, "lng": 77.54144538029149}, "southwest": {"lat": 13.0224937197085, "lng": 77.53874741970849}}}, "opening_hours": {"open_now": true}, "place_id": "ChIJ2VtHSLs9rjsRn41aUXfwfZg", "plus_code": {"global_code": "7J5V2GFR+G2", "compound_code": "2GFR+G2 Bengaluru, Karnataka, India"}, "vicinity": "Consero Global Solutions,CENEX, 94, 2nd Main Road, Industrial Suburb 2nd Stage, Yeswanthpur, Bengaluru", "scope": "GOOGLE", "business_status": "OPERATIONAL", "types": ["bank", "finance", "point_of_interest", "establishment"], "icon": "https://maps.gstatic.com/mapfiles/place_api/icons/v1/png_71/bank-71.png"}, {"rating": 3, "user_ratings_total": 20, "name": "Punjab National Bank - Peenya Branch", "reference": "ChIJn7pkISE9rjsRLibtJKFHYLI", "geometry": {"location": {"lat": 13.0356945, "lng": 77.5192663}, "viewport": {"northeast": {"lat": 13.0370712802915, "lng": 77.5206194302915}, "southwest": {"lat": 13.03437331970849, "lng": 77.5179214697085}}}, "opening_hours": {"open_now": false}, "place_id": "ChIJn7pkISE9rjsRLibtJKFHYLI", "plus_code": {"global_code": "7J5V2GP9+7P", "compound_code": "2GP9+7P Bengaluru, Karnataka, India"}, "vicinity": "Building, #15, Acharya College, 1st Cross Road, Peenya 1st Stage, Peenya, Bengaluru", "photos": [{"photo_reference": "ATtYBwLQuoiS1RKvM9qFlaHuBgVMOLN0Ofjbl1gzMhXu5MHV3GqC2ALVyhfWQgYW2FnUDuu9zFs_mrBvGNvOlfy4QJYYMEsC1VN8UHwC8J30VFa4PjVuGf57M0A1TbKj2Z0FqKWqfuY2fqoy7xtD9702LxqABDE9HhoK404_uzTo-rnbGnH7", "width": 4032, "html_attributions": ["<a href=\"https://maps.google.com/maps/contrib/112236855175733136841\">Arvind Yadav</a>"], "height": 3024}], "scope": "GOOGLE", "business_status": "OPERATIONAL", "types": ["atm", "bank", "finance", "point_of_interest", "establishment"], "icon": "https://maps.gstatic.com/mapfiles/place_api/icons/v1/png_71/bank-71.png"}, {"rating": 4, "user_ratings_total": 3, "name": "Small Industries Development Bank of India", "reference": "ChIJmZyc2iA9rjsRZel4nt8mpGQ", "geometry": {"location": {"lat": 13.036163, "lng": 77.518682}, "viewport": {"northeast": {"lat": 13.0375685802915, "lng": 77.5200449302915}, "southwest": {"lat": 13.0348706197085, "lng": 77.5173469697085}}}, "opening_hours": {"open_now": false}, "place_id": "ChIJmZyc2iA9rjsRZel4nt8mpGQ", "plus_code": {"global_code": "7J5V2GP9+FF", "compound_code": "2GP9+FF Bengaluru, Karnataka, India"}, "vicinity": "INDL AREA, PIA BHAVAN,I STAGE, 1st Cross Road, Peenya, Bengaluru", "photos": [{"photo_reference": "ATtYBwJq_k9kZHo1WWjK2-Vrzjxuo7lpI7a8lY66l058jUQBYR5C_vajFMVRZDb_pG5K5eEbRdISNiEnpZFwmdRWbZ-38s2NZZPQzZxtg1kmqR9XJQPzVktRlzlUyfMJEPn7U0f8wdxkqN4K8gUf68qCazvuet243V9c-eg_S34TxAQNpnEm", "width": 3264, "html_attributions": ["<a href=\"https://maps.google.com/maps/contrib/105548770996204184865\">Sanjay Prasad</a>"], "height": 2448}], "scope": "GOOGLE", "business_status": "OPERATIONAL", "types": ["bank", "finance", "point_of_interest", "establishment"], "icon": "https://maps.gstatic.com/mapfiles/place_api/icons/v1/png_71/bank-71.png"}, {"name": "State Bank of India", "reference": "ChIJBzQ4-V49rjsRhxSnDyqsDec", "geometry": {"location": {"lat": 13.0205951, "lng": 77.521352}, "viewport": {"northeast": {"lat": 13.0219681302915, "lng": 77.5226800802915}, "southwest": {"lat": 13.01927016970849, "lng": 77.51998211970849}}}, "opening_hours": {"open_now": false}, "place_id": "ChIJBzQ4-V49rjsRhxSnDyqsDec", "plus_code": {"global_code": "7J5V2GCC+6G", "compound_code": "2GCC+6G Bengaluru, Karnataka, India"}, "vicinity": "No 161, Lotus, Industrial Estate, 10th Main Road, Phase 3, Peenya, Bengaluru", "scope": "GOOGLE", "business_status": "OPERATIONAL", "types": ["bank", "finance", "point_of_interest", "establishment"], "icon": "https://maps.gstatic.com/mapfiles/place_api/icons/v1/png_71/bank-71.png"}]}