{"status": "OK", "html_attributions": [], "results": [{"rating": 2.4, "user_ratings_total": 11, "name": "YES Bank ATM", "reference": "ChIJUxxA0ZEUrjsRLcRvJXhmNxc", "geometry": {"location": {"lat": 12.9124243, "lng": 77.6385158}, "viewport": {"northeast": {"lat": 12.9137086302915, "lng": 77.63986128029151}, "southwest": {"lat": 12.9110106697085, "lng": 77.6371633197085}}}, "opening_hours": {"open_now": true}, "place_id": "ChIJUxxA0ZEUrjsRLcRvJXhmNxc", "plus_code": {"global_code": "7J4VWJ6Q+XC", "compound_code": "WJ6Q+XC Bengaluru, Karnataka, India"}, "vicinity": "90, Ground Floor, 17th Cross Road, 4th Sector, HSR Layout, Bengaluru", "photos": [{"photo_reference": "ATtYBwJvoPFBhLSU3YdJNPvu7kcxxqQmkMTzxd3-ADsoJwR8iTTKQfD-snYnEO1ae1A1AYTwM8DF9G5PXWnIhlhodojazReTDN0QQ8ojdtWLhJCZYgNI2VXcfz3QCqs7hk0NzhN91tOoaL5cuiNBS6tGitpKE5VJTdlpm8oOMk_RWAzn_Die", "width": 3024, "html_attributions": ["<a href=\"https://maps.google.com/maps/contrib/101843483415975624223\">Abdulelah Alzakari</a>"], "height": 4032}], "scope": "GOOGLE", "business_status": "OPERATIONAL", "types": ["atm", "bank", "finance", "point_of_interest", "establishment"], "icon": "https://maps.gstatic.com/mapfiles/place_api/icons/v1/png_71/atm-71.png"}, {"rating": 2.5, "user_ratings_total": 81, "name": "Kotak Mahindra Bank", "reference": "ChIJm87lP44UrjsRp9Fd5RV5g3w", "geometry": {"location": {"lat": 12.9142847, "lng": 77.63772949999999}, "viewport": {"northeast": {"lat": 12.9153733802915, "lng": 77.63882878029152}, "southwest": {"lat": 12.9126754197085, "lng": 77.6361308197085}}}, "opening_hours": {"open_now": false}, "place_id": "ChIJm87lP44UrjsRp9Fd5RV5g3w", "plus_code": {"global_code": "7J4VWJ7Q+P3", "compound_code": "WJ7Q+P3 Bengaluru, Karnataka, India"}, "vicinity": "BDA complex, 12, Outer Ring Road, Sector 6, HSR Layout, Bengaluru", "photos": [{"photo_reference": "ATtYBwKwIFkIsdffiE7sbJY1otigXuPBctNqAqkXJ21sricoMP9oKQiCaLXrp8o-r8rA8XSN6sOwcl1LBRjP-_Pga4jTNPw6bZ5KyZ8-P0K3uh59gEcUIW1GZ8hWGPxoNKjWnTLr7wWFqJBr1E_8aoYQQWiwdYZwk2JgV7D13FS_X0_o1eq1", "width": 3264, "html_attributions": ["<a href=\"https://maps.google.com/maps/contrib/108292034646323408056\">Susmith Kumar R Tadimari</a>"], "height": 2448}], "scope": "GOOGLE", "business_status": "OPERATIONAL", "types": ["bank", "finance", "point_of_interest", "establishment"], "icon": "https://maps.gstatic.com/mapfiles/place_api/icons/v1/png_71/bank-71.png"}, {"rating": 4, "user_ratings_total": 2, "name": "Axis Bank ATM", "reference": "ChIJPQj9bsAUrjsRVnqJDubh_vQ", "geometry": {"location": {"lat": 12.9012841, "lng": 77.63031409999999}, "viewport": {"northeast": {"lat": 12.9026375302915, "lng": 77.63177693029151}, "southwest": {"lat": 12.8999395697085, "lng": 77.6290789697085}}}, "opening_hours": {"open_now": true}, "place_id": "ChIJPQj9bsAUrjsRVnqJDubh_vQ", "plus_code": {"global_code": "7J4VWJ2J+G4", "compound_code": "WJ2J+G4 Bengaluru, Karnataka, India"}, "vicinity": "opposite to Tech Park, No 166/A Hongasandra, opposite to Tech Park, Bengaluru", "photos": [{"photo_reference": "ATtYBwIA60YymD2SLf92eo1wBs0IxM2EdIDhVlGYgzxns7LIr4LzzBkjNM-ffQf1mg-zSGFEO3E44jkHpFLKISn231GW4RZjVo-qfde63sOFyn0Q1icNWsrv7PAxK_Enuyz3WsOYk-UquP7Wn3PbCeG3VdTuOblsHukBx5eVZAVRRgsEGHqa", "width": 3456, "html_attributions": ["<a href=\"https://maps.google.com/maps/contrib/111789318542356437286\">Sai Manoj Kadiyala</a>"], "height": 4608}], "scope": "GOOGLE", "business_status": "OPERATIONAL", "types": ["atm", "bank", "finance", "point_of_interest", "establishment"], "icon": "https://maps.gstatic.com/mapfiles/place_api/icons/v1/png_71/atm-71.png"}, {"rating": 3.5, "user_ratings_total": 47, "name": "Punjab National Bank (PNB)", "reference": "ChIJPe12co4UrjsRIjJy4WqXLQA", "geometry": {"location": {"lat": 12.914091, "lng": 77.637185}, "viewport": {"northeast": {"lat": 12.9154437802915, "lng": 77.6384633302915}, "southwest": {"lat": 12.9127458197085, "lng": 77.6357653697085}}}, "opening_hours": {"open_now": false}, "place_id": "ChIJPe12co4UrjsRIjJy4WqXLQA", "plus_code": {"global_code": "7J4VWJ7P+JV", "compound_code": "WJ7P+JV Bengaluru, Karnataka, India"}, "vicinity": "Shop No. 23, BDA Complex, HSR Layout, Bengaluru", "photos": [{"photo_reference": "ATtYBwLbFC8WnND5SpMsHNvFTNYW8KMIvbyz6yGMc5upKORhiB9impnTbxbB__tx9mo_RWgQrp9JLGO8DjV1b6r6J7GY24lpV1Gx42O0rpA97ZdDlJGrNDnQ5jA-6TSI3XyCzzBNVUt0bOy5MlDkE64kQ2FKAn36BKvH0CtjuN8oO-77BImo", "width": 1152, "html_attributions": ["<a href=\"https://maps.google.com/maps/contrib/108304009578728979893\">Neeraj Sharma</a>"], "height": 2048}], "scope": "GOOGLE", "business_status": "OPERATIONAL", "types": ["bank", "finance", "point_of_interest", "establishment"], "icon": "https://maps.gstatic.com/mapfiles/place_api/icons/v1/png_71/bank-71.png"}, {"name": "Axis Bank ATM", "reference": "ChIJ46p0edcWrjsRxV9VFNAz8Fc", "geometry": {"location": {"lat": 12.9029983, "lng": 77.6241739}, "viewport": {"northeast": {"lat": 12.9043656302915, "lng": 77.62552453029151}, "southwest": {"lat": 12.9016676697085, "lng": 77.6228265697085}}}, "opening_hours": {"open_now": true}, "place_id": "ChIJ46p0edcWrjsRxV9VFNAz8Fc", "plus_code": {"global_code": "7J4VWJ3F+5M", "compound_code": "WJ3F+5M Bengaluru, Karnataka, India"}, "vicinity": "3rd Floor, AKR Tech Park, Bommanahalli, Bengaluru", "scope": "GOOGLE", "business_status": "OPERATIONAL", "types": ["atm", "bank", "finance", "point_of_interest", "establishment"], "icon": "https://maps.gstatic.com/mapfiles/place_api/icons/v1/png_71/atm-71.png"}, {"rating": 3.3, "user_ratings_total": 4, "name": "Axis Bank ATM", "reference": "ChIJ48pPFmsRrjsRUNQAUvnm5IQ", "geometry": {"location": {"lat": 12.9183017, "lng": 77.6336991}, "viewport": {"northeast": {"lat": 12.9196626802915, "lng": 77.6350540802915}, "southwest": {"lat": 12.9169647197085, "lng": 77.63235611970849}}}, "opening_hours": {"open_now": true}, "place_id": "ChIJ48pPFmsRrjsRUNQAUvnm5IQ", "plus_code": {"global_code": "7J4VWJ9M+8F", "compound_code": "WJ9M+8F Bengaluru, Karnataka, India"}, "vicinity": "No 70, Venkatapura, Bengaluru", "scope": "GOOGLE", "business_status": "OPERATIONAL", "types": ["atm", "bank", "finance", "point_of_interest", "establishment"], "icon": "https://maps.gstatic.com/mapfiles/place_api/icons/v1/png_71/atm-71.png"}, {"rating": 3, "user_ratings_total": 1, "name": "HDFC Bank ATM", "reference": "ChIJE7zakekUrjsRiBYknsqKN9w", "geometry": {"location": {"lat": 12.902714, "lng": 77.624217}, "viewport": {"northeast": {"lat": 12.9040898302915, "lng": 77.6255071302915}, "southwest": {"lat": 12.9013918697085, "lng": 77.62280916970849}}}, "opening_hours": {"open_now": true}, "place_id": "ChIJE7zakekUrjsRiBYknsqKN9w", "plus_code": {"global_code": "7J4VWJ3F+3M", "compound_code": "WJ3F+3M Bengaluru, Karnataka, India"}, "vicinity": "78, Devachikkanalli Main Rd, Bommanalli, Bengaluru", "photos": [{"photo_reference": "ATtYBwLVm_CS1vJl3f5ZhPenty22xGd-2_YwU-TlxXOGrBTMaKfKLvTkHHqr3Pekc8XviO2z6inmO6TWdILfH16ivQrJAnbXyLbEqz4rRKoDP-PhZHhQrT2TCeLWnQVCdZ3eA8yfN1c40VQ0f12j016A3eKdD5-Vh6itECiapftV2Sueec-d", "width": 2043, "html_attributions": ["<a href=\"https://maps.google.com/maps/contrib/110750320547776646084\">Sujith VK</a>"], "height": 2243}], "scope": "GOOGLE", "business_status": "OPERATIONAL", "types": ["atm", "bank", "finance", "point_of_interest", "establishment"], "icon": "https://maps.gstatic.com/mapfiles/place_api/icons/v1/png_71/atm-71.png"}, {"rating": 3.6, "user_ratings_total": 11, "name": "Central Bank Of India", "reference": "ChIJ4zT3GPEUrjsR-FqPqLBPmRw", "geometry": {"location": {"lat": 12.9161511, "lng": 77.6226243}, "viewport": {"northeast": {"lat": 12.9174791802915, "lng": 77.6240056802915}, "southwest": {"lat": 12.9147812197085, "lng": 77.6213077197085}}}, "opening_hours": {"open_now": true}, "place_id": "ChIJ4zT3GPEUrjsR-FqPqLBPmRw", "plus_code": {"global_code": "7J4VWJ8F+F2", "compound_code": "WJ8F+F2 Bengaluru, Karnataka, India"}, "vicinity": "Central Silk Board Colony, Stage 2nd, BTM Layout, Bengaluru", "photos": [{"photo_reference": "ATtYBwLirEzs0IqrvcwcvRdj7KWB9hRyjMjoXj_2IT2CAMvOxOOu3_HhgffVCOKKOApdk0vsowwPvlGWHfhlxCrdmWKtIg9ZHa9eubwTr_59FgUTRzIdMvjlh_D-5Kz1THDRYGRLjzI0--J98lMGJQi2m4a5r639_cl-CZM_9u2fsZ955TNr", "width": 2176, "html_attributions": ["<a href=\"https://maps.google.com/maps/contrib/109647483624899202384\">antony raj</a>"], "height": 4608}], "scope": "GOOGLE", "business_status": "OPERATIONAL", "types": ["bank", "finance", "point_of_interest", "establishment"], "icon": "https://maps.gstatic.com/mapfiles/place_api/icons/v1/png_71/bank-71.png"}, {"rating": 2.5, "user_ratings_total": 2, "name": "Axis Bank ATM", "reference": "ChIJ38WFGbAUrjsRDWKYgcCJv10", "geometry": {"location": {"lat": 12.9056965, "lng": 77.638913}, "viewport": {"northeast": {"lat": 12.9070531802915, "lng": 77.64028518029151}, "southwest": {"lat": 12.9043552197085, "lng": 77.6375872197085}}}, "opening_hours": {"open_now": true}, "place_id": "ChIJ38WFGbAUrjsRDWKYgcCJv10", "plus_code": {"global_code": "7J4VWJ4Q+7H", "compound_code": "WJ4Q+7H Bengaluru, Karnataka, India"}, "vicinity": "No 1, Kempamma Building, Bommanahalli, Bengaluru", "photos": [{"photo_reference": "ATtYBwKk-g_uJiecsx_fAYLh_sIqTYpclzgLgB3FzmLALEalTtPDUeuZ0zAJQYshidudBnEsmaBBfU0TE7LixaNVqr1zRCnKD8U42QeGZVD6YhI2B5a7LE90Hr8136M8pfsgltAkNEv6eWN64vgFZjUIPTCpFbvfcp1euYilxz03HHhpsu-7", "width": 384, "html_attributions": ["<a href=\"https://maps.google.com/maps/contrib/107327350962644565835\">arun bambore</a>"], "height": 383}], "scope": "GOOGLE", "business_status": "OPERATIONAL", "types": ["atm", "bank", "finance", "point_of_interest", "establishment"], "icon": "https://maps.gstatic.com/mapfiles/place_api/icons/v1/png_71/atm-71.png"}, {"rating": 3, "user_ratings_total": 3, "name": "Tata Indicash Atm", "reference": "ChIJW3As5ugUrjsRHYFC5eX8bXM", "geometry": {"location": {"lat": 12.9047312, "lng": 77.6214249}, "viewport": {"northeast": {"lat": 12.9060525302915, "lng": 77.6227695802915}, "southwest": {"lat": 12.9033545697085, "lng": 77.6200716197085}}}, "opening_hours": {"open_now": true}, "place_id": "ChIJW3As5ugUrjsRHYFC5eX8bXM", "plus_code": {"global_code": "7J4VWJ3C+VH", "compound_code": "WJ3C+VH Bengaluru, Karnataka, India"}, "vicinity": "Bengaluru, Virat Nagar, Bommanahalli, Bengaluru", "scope": "GOOGLE", "business_status": "OPERATIONAL", "types": ["bank", "atm", "finance", "point_of_interest", "establishment"], "icon": "https://maps.gstatic.com/mapfiles/place_api/icons/v1/png_71/bank-71.png"}, {"rating": 2.8, "user_ratings_total": 39, "name": "YES Bank", "reference": "ChIJXVG005EUrjsR_Tf6vkcvf04", "geometry": {"location": {"lat": 12.9122563, "lng": 77.639933}, "viewport": {"northeast": {"lat": 12.9136373302915, "lng": 77.6412827302915}, "southwest": {"lat": 12.91093936970849, "lng": 77.63858476970849}}}, "opening_hours": {"open_now": true}, "place_id": "ChIJXVG005EUrjsR_Tf6vkcvf04", "plus_code": {"global_code": "7J4VWJ6Q+WX", "compound_code": "WJ6Q+WX Bengaluru, Karnataka, India"}, "vicinity": "No 90, Ground Floor, 17th Cross Road, Sector 4, HSR Layout, Bengaluru", "photos": [{"photo_reference": "ATtYBwL8DCnsJeMSVUkrScZBy2HnpjOcsEzgOZEvHFk8CRL-yWYOUh7MqegSu6c2ROHESR2Cwn88oCYtdHi8oaDS5hDnP9u9xxXO4awdDa6427bYoSSCEhSDNwa3XJVy4w20LKEVR9qKrG08kYUoeTdWBJoKh7cSpsNs65iPgPoBf69jRN74", "width": 3120, "html_attributions": ["<a href=\"https://maps.google.com/maps/contrib/108621875246005334496\">Mayur Naganur</a>"], "height": 4160}], "scope": "GOOGLE", "business_status": "OPERATIONAL", "types": ["bank", "finance", "point_of_interest", "establishment"], "icon": "https://maps.gstatic.com/mapfiles/place_api/icons/v1/png_71/bank-71.png"}, {"rating": 2.3, "user_ratings_total": 8, "name": "HDFC Bank ATM", "reference": "ChIJZU1e7I4UrjsR8kXrv7tmheA", "geometry": {"location": {"lat": 12.9165223, "lng": 77.6381231}, "viewport": {"northeast": {"lat": 12.9178712302915, "lng": 77.6394725302915}, "southwest": {"lat": 12.91517326970849, "lng": 77.63677456970848}}}, "opening_hours": {"open_now": true}, "place_id": "ChIJZU1e7I4UrjsR8kXrv7tmheA", "plus_code": {"global_code": "7J4VWJ8Q+J6", "compound_code": "WJ8Q+J6 Bengaluru, Karnataka, India"}, "vicinity": "Time Square, 3, 14th Main Road, HSR Layout 5th Sector, Bengaluru", "photos": [{"photo_reference": "ATtYBwJnEkFQiNlJYGhAwIZs09JPmBJhb6ksRFXhM1-O937qmULNcYMWjkTKWJlMIQfk4ehk_vhVuo1LUsVTEBJAlx3vMy_qBjKGicQD0E8j3StPzpEkVk4IfWHvUz_eTdvn19c-5WYJ3zAh-H8Q1th8VHC1ej8Q0SatN7tLOhain334O3Y", "width": 2448, "html_attributions": ["<a href=\"https://maps.google.com/maps/contrib/104777142631243410610\">Karthick Raju</a>"], "height": 3264}], "scope": "GOOGLE", "business_status": "OPERATIONAL", "types": ["atm", "bank", "finance", "point_of_interest", "establishment"], "icon": "https://maps.gstatic.com/mapfiles/place_api/icons/v1/png_71/atm-71.png"}, {"rating": 2.6, "user_ratings_total": 11, "name": "HDFC BANK", "reference": "ChIJFRiO2aUTrjsR69MuszJKqqM", "geometry": {"location": {"lat": 12.9165466, "lng": 77.63812329999999}, "viewport": {"northeast": {"lat": 12.9178955302915, "lng": 77.63947383029151}, "southwest": {"lat": 12.9151975697085, "lng": 77.63677586970849}}}, "opening_hours": {"open_now": true}, "place_id": "ChIJFRiO2aUTrjsR69MuszJKqqM", "plus_code": {"global_code": "7J4VWJ8Q+J6", "compound_code": "WJ8Q+J6 Bengaluru, Karnataka, India"}, "vicinity": "Time Square, 3, 14th Main Road, HSR Layout 5th Sector, Bengaluru", "photos": [{"photo_reference": "ATtYBwIgkLFOePw6shejjRoiMtFj3A6Ad7yeMw0tHi5yoJrIK8OLBsz3syNwjyynWX9nsk6fHLKMuoTSkCedvjePVTaDuGxiCens_tc3o2TH9VSHraZ7VUpEdzhhXc6WwhypmrWXI1NMohkCUHg5qxM4OEZDM25RFxcMSAMU54Ad-M6JByO8", "width": 4608, "html_attributions": ["<a href=\"https://maps.google.com/maps/contrib/115625342474339859623\">Ashish Chandra Jha</a>"], "height": 3456}], "scope": "GOOGLE", "business_status": "OPERATIONAL", "types": ["bank", "finance", "point_of_interest", "establishment"], "icon": "https://maps.gstatic.com/mapfiles/place_api/icons/v1/png_71/bank-71.png"}, {"name": "HDFC Bank ATM", "reference": "ChIJ8VtzxsEUrjsRwyBfHF0SOCQ", "geometry": {"location": {"lat": 12.899872, "lng": 77.627028}, "viewport": {"northeast": {"lat": 12.9012438802915, "lng": 77.6283868802915}, "southwest": {"lat": 12.8985459197085, "lng": 77.6256889197085}}}, "opening_hours": {"open_now": true}, "place_id": "ChIJ8VtzxsEUrjsRwyBfHF0SOCQ", "plus_code": {"global_code": "7J4VVJXG+WR", "compound_code": "VJXG+WR Bengaluru, Karnataka, India"}, "vicinity": "HDFC Bank ATM, Bommanahalli, Bengaluru", "scope": "GOOGLE", "business_status": "OPERATIONAL", "types": ["atm", "bank", "finance", "point_of_interest", "establishment"], "icon": "https://maps.gstatic.com/mapfiles/place_api/icons/v1/png_71/atm-71.png"}, {"rating": 1, "user_ratings_total": 1, "name": "Axis Bank ATM", "reference": "ChIJk9gRViw8rjsRezvE8hAIJtM", "geometry": {"location": {"lat": 12.9173537, "lng": 77.6220644}, "viewport": {"northeast": {"lat": 12.9187188302915, "lng": 77.6234977802915}, "southwest": {"lat": 12.9160208697085, "lng": 77.6207998197085}}}, "opening_hours": {"open_now": true}, "place_id": "ChIJk9gRViw8rjsRezvE8hAIJtM", "plus_code": {"global_code": "7J4VWJ8C+WR", "compound_code": "WJ8C+WR Bengaluru, Karnataka, India"}, "vicinity": "Sri Ganesh Complex, No 28, Gnana Bharathi, Bengaluru", "photos": [{"photo_reference": "ATtYBwJjbhjR61hq6dXP-D34SFZrssx_cgDB_1rmPs1XybR3VhXhJhm3cQeQgCMhph-UKAmJ9sDUyQkfEqu8T5kvpdDADBYgDGJJ71zlGKKG3w5kUdZXUCJ3qCILKinZ29J08dBy3ekhsp6Y3FfCiQlue4trs80E51jF83teQPXzhTcdIqAc", "width": 1080, "html_attributions": ["<a href=\"https://maps.google.com/maps/contrib/116929316777215682562\">Satya Phani Teja Veeravalli</a>"], "height": 1920}], "scope": "GOOGLE", "business_status": "OPERATIONAL", "types": ["atm", "bank", "finance", "point_of_interest", "establishment"], "icon": "https://maps.gstatic.com/mapfiles/place_api/icons/v1/png_71/atm-71.png"}, {"rating": 3.6, "user_ratings_total": 14, "name": "Lakshmi Vilas Bank", "reference": "ChIJtd6B5-kUrjsRAC_qWflq7Kw", "geometry": {"location": {"lat": 12.9013195, "lng": 77.6235567}, "viewport": {"northeast": {"lat": 12.9027157302915, "lng": 77.6248382302915}, "southwest": {"lat": 12.9000177697085, "lng": 77.62214026970848}}}, "opening_hours": {"open_now": true}, "place_id": "ChIJtd6B5-kUrjsRAC_qWflq7Kw", "plus_code": {"global_code": "7J4VWJ2F+GC", "compound_code": "WJ2F+GC Bengaluru, Karnataka, India"}, "vicinity": "NO:62/1, Bommanahalli Industrial Area, Kodichikkanahalli Main Road, Bommanahall, Bengaluru", "photos": [{"photo_reference": "ATtYBwJ5KcqhE7dk_67jT-tngTw9kT0o9zq42fJ_AYe-JjSnObHUd25Qi7pn3npxtA9waIm5MFebEibt6gd3D64LliXBjAhqS8xijdMq9PUvm2fCh8yBNe_Ep4Xj3hUV3fKo35V6deE7rXcmyrfePT1fzjiX5_wx3006QLy0vkjlt4mkgt3b", "width": 4608, "html_attributions": ["<a href=\"https://maps.google.com/maps/contrib/118319437241455217680\">V Sridhar</a>"], "height": 3456}], "scope": "GOOGLE", "business_status": "OPERATIONAL", "types": ["bank", "finance", "point_of_interest", "establishment"], "icon": "https://maps.gstatic.com/mapfiles/place_api/icons/v1/png_71/bank-71.png"}, {"rating": 4.5, "user_ratings_total": 2, "name": "Axis Bank ATM", "reference": "ChIJYRd3IFZrrjsR1wtveqjxVCA", "geometry": {"location": {"lat": 12.8990444, "lng": 77.6319917}, "viewport": {"northeast": {"lat": 12.9003624302915, "lng": 77.6333346302915}, "southwest": {"lat": 12.8976644697085, "lng": 77.63063666970848}}}, "opening_hours": {"open_now": true}, "place_id": "ChIJYRd3IFZrrjsR1wtveqjxVCA", "plus_code": {"global_code": "7J4VVJXJ+JQ", "compound_code": "VJXJ+JQ Bengaluru, Karnataka, India"}, "vicinity": "No 43, Bommanahalli Road, Garvebhavi Palya, Bengaluru", "scope": "GOOGLE", "business_status": "OPERATIONAL", "types": ["atm", "bank", "finance", "point_of_interest", "establishment"], "icon": "https://maps.gstatic.com/mapfiles/place_api/icons/v1/png_71/atm-71.png"}, {"rating": 2.4, "user_ratings_total": 18, "name": "Indian Overseas Bank", "reference": "ChIJG_11EpIUrjsR2h18KjSIDBc", "geometry": {"location": {"lat": 12.9119308, "lng": 77.6353519}, "viewport": {"northeast": {"lat": 12.9132841302915, "lng": 77.63661598029151}, "southwest": {"lat": 12.9105861697085, "lng": 77.6339180197085}}}, "opening_hours": {"open_now": false}, "place_id": "ChIJG_11EpIUrjsR2h18KjSIDBc", "plus_code": {"global_code": "7J4VWJ6P+Q4", "compound_code": "WJ6P+Q4 Bengaluru, Karnataka, India"}, "vicinity": "9th Main Road, Sector 6, HSR Layout, Bengaluru", "photos": [{"photo_reference": "ATtYBwIBdaQFnDPkonH5oONWetE9AFTYavOStz2kFIA7NTHTcWrwYGe8j4BVkeatz8C6C6ZgGAI9AQ7fCzNBcULHMKxGgUZZYOTY-ojooT-4tqOaxR8oj_bBa3Tl_gbopsX5vG5FdQjhSTJjvbNCqQbhsKC_v8XY7_mX09egm60XX2rCgssu", "width": 2610, "html_attributions": ["<a href=\"https://maps.google.com/maps/contrib/104950606792325131004\">krishnarjun singh</a>"], "height": 4640}], "scope": "GOOGLE", "business_status": "OPERATIONAL", "types": ["bank", "finance", "point_of_interest", "establishment"], "icon": "https://maps.gstatic.com/mapfiles/place_api/icons/v1/png_71/bank-71.png"}, {"rating": 5, "user_ratings_total": 1, "name": "Axis Bank ATM", "reference": "ChIJGT7CyLkUrjsRYcFXStchgCM", "geometry": {"location": {"lat": 12.9043511, "lng": 77.6409913}, "viewport": {"northeast": {"lat": 12.9056994802915, "lng": 77.6423438802915}, "southwest": {"lat": 12.9030015197085, "lng": 77.63964591970849}}}, "opening_hours": {"open_now": true}, "place_id": "ChIJGT7CyLkUrjsRYcFXStchgCM", "plus_code": {"global_code": "7J4VWJ3R+P9", "compound_code": "WJ3R+P9 Bengaluru, Karnataka, India"}, "vicinity": "near Ayyappa Swamy Temple, Site No 1 Hongasandra Garavibhavi, near Ayyappa Swamy Temple, C K Palya Road, Bengaluru", "photos": [{"photo_reference": "ATtYBwJm3y3vuPE38D0bPUAPqhKuTCJ7h2vkC5ebXUTOecguFOIuvYqYzpg2__VBCipBN1Mvz4WI5u4MjdY2p2yC9lWD_ylhCisMQ_2DvP_iFbsUp8cXyWWI52jFnMWdhIK_Xy-Rorp4hJ-qsSdXJbQRMy96dokPg1zhLkFfsHZQjye4GDTB", "width": 4160, "html_attributions": ["<a href=\"https://maps.google.com/maps/contrib/103219551493974717479\">Praveen Pink</a>"], "height": 2340}], "scope": "GOOGLE", "business_status": "OPERATIONAL", "types": ["atm", "bank", "finance", "point_of_interest", "establishment"], "icon": "https://maps.gstatic.com/mapfiles/place_api/icons/v1/png_71/atm-71.png"}, {"rating": 2.4, "user_ratings_total": 23, "name": "HDFC Securities", "reference": "ChIJV7KDdfoUrjsRIWJJmFbqveM", "geometry": {"location": {"lat": 12.9159158, "lng": 77.6191096}, "viewport": {"northeast": {"lat": 12.9173422802915, "lng": 77.62045458029151}, "southwest": {"lat": 12.9146443197085, "lng": 77.6177566197085}}}, "opening_hours": {"open_now": false}, "place_id": "ChIJV7KDdfoUrjsRIWJJmFbqveM", "plus_code": {"global_code": "7J4VWJ89+9J", "compound_code": "WJ89+9J Bengaluru, Karnataka, India"}, "vicinity": "LS Towers, 1st Cross, 2nd Floor, BTM 2nd Stage, Bangalore, Karnataka", "photos": [{"photo_reference": "ATtYBwJpPTfbZR6YG31Ilv0zVhpMfTG5mcQrsXBnL2s5BJ3lZgNU-57-whz5dY1HoVE8RdBNBxG1iES1MX76oh9yyoMc_dveN8efSPLpYYXpBbYKXr_1JCnssL8yr7wu8h0YX50tbqsGsDfkoiqwxpBWuqG02JHxsAemUAlk0W8iw7QetqA", "width": 4032, "html_attributions": ["<a href=\"https://maps.google.com/maps/contrib/110830922654500423879\">Pratap Duggireddy</a>"], "height": 3024}], "scope": "GOOGLE", "business_status": "OPERATIONAL", "types": ["bank", "finance", "point_of_interest", "establishment"], "icon": "https://maps.gstatic.com/mapfiles/place_api/icons/v1/png_71/generic_business-71.png"}]}