{"status": "OK", "next_page_token": "ATtYBwJ2XuBNDTgHN_3WWVSHNwmA45ZN-sYFHIrvNHi0jg5nGlWugLOuvknZt9Gpn2OjI1pa-H26wVpgSjUM7GJB5PEOrSdoPkJThk3Nf6Mrn378cZDoz7QAaPn78ocrBcg798EMcaw-5R2troIwYL34KSJdVnhLBgS5T2AG29vDKedPKhhnEbWMMw3yACN44aMT6idUo4kUyrMIO0BvZik9YKY7VTzDrec8Ihp9SxbhXm26rZHrhgDRxKa-iwMuxLxhM82Dw7K7TZjcOuHyngs77X_9wNVwDiw5nkpOMEpmfF88M5-EvUHuswGo-oQxTBjnWH2tIKFwFvHD4dKCGHp_cEPQKQR4tDrYRxuD7bYNtWRv6m9bMLW1KtOU2mcwfZkA6xrW6p2aa7oT2z-8gLZCaDi4Buwrm6ztrZikWHOa8lz5shgP", "html_attributions": [], "results": [{"rating": 3.4, "user_ratings_total": 5, "name": "Guardian Bank", "reference": "ChIJk_4rSqhsrjsRXpim6g371bI", "geometry": {"location": {"lat": 12.8709031, "lng": 77.65520169999999}, "viewport": {"northeast": {"lat": 12.8722478302915, "lng": 77.65658648029151}, "southwest": {"lat": 12.8695498697085, "lng": 77.6538885197085}}}, "opening_hours": {"open_now": true}, "place_id": "ChIJk_4rSqhsrjsRXpim6g371bI", "plus_code": {"global_code": "7J4VVMC4+93", "compound_code": "VMC4+93 Bengaluru, Karnataka, India"}, "vicinity": "5th Cross Road, Chennakeshava Nagar, Hosa Road, Sai Sree Layout, Parappana Agrahara, Bengaluru", "scope": "GOOGLE", "business_status": "OPERATIONAL", "types": ["bank", "finance", "point_of_interest", "establishment"], "icon": "https://maps.gstatic.com/mapfiles/place_api/icons/v1/png_71/bank-71.png"}, {"rating": 2.2, "user_ratings_total": 6, "name": "Axis Bank ATM", "reference": "ChIJDRggkYAUrjsRBtVWau61xeo", "geometry": {"location": {"lat": 12.875043, "lng": 77.64869100000001}, "viewport": {"northeast": {"lat": 12.8764162302915, "lng": 77.65007753029153}, "southwest": {"lat": 12.8737182697085, "lng": 77.6473795697085}}}, "opening_hours": {"open_now": true}, "place_id": "ChIJDRggkYAUrjsRBtVWau61xeo", "plus_code": {"global_code": "7J4VVJGX+2F", "compound_code": "VJGX+2F Bengaluru, Karnataka, India"}, "vicinity": "No 27, 1, HSR Layout, Bengaluru", "photos": [{"photo_reference": "ATtYBwKWLs2iUaK_e9NMbgO_-RxWUZYqNYwBCVT4UmYOtPt2UGOETgMUmM1Vmz3tz-WYzjysGJplyYAoFaxWIl5BXpifPKh6pQenBqaz7a1xzeu97VEG4eeEyldCWhNgnALxhSWzozUEHMkwOo577jrCcA0737-3qWq9Y2dQ53rPIweWTkYw", "width": 3024, "html_attributions": ["<a href=\"https://maps.google.com/maps/contrib/109426617595461142471\">Deepak Rai</a>"], "height": 4032}], "scope": "GOOGLE", "business_status": "OPERATIONAL", "types": ["atm", "bank", "finance", "point_of_interest", "establishment"], "icon": "https://maps.gstatic.com/mapfiles/place_api/icons/v1/png_71/atm-71.png"}, {"rating": 4.5, "user_ratings_total": 2, "name": "Axis Bank ATM", "reference": "ChIJA9PuwqhsrjsRUeZ9x0_34FM", "geometry": {"location": {"lat": 12.8730028, "lng": 77.655689}, "viewport": {"northeast": {"lat": 12.8743687302915, "lng": 77.6570183302915}, "southwest": {"lat": 12.8716707697085, "lng": 77.6543203697085}}}, "opening_hours": {"open_now": true}, "place_id": "ChIJA9PuwqhsrjsRUeZ9x0_34FM", "plus_code": {"global_code": "7J4VVMF4+67", "compound_code": "VMF4+67 Bengaluru, Karnataka, India"}, "vicinity": "near Aditya Birla Garments, No 10, near Aditya Birla Garments, CK Nagar, Bengaluru", "photos": [{"photo_reference": "ATtYBwLmhECO8l8mH3Z0meQmgCC1q39WZg-I4qzdUYE9cWGiSaPAz5Zra6PuVqZpthdeejgni6pbu7H0bV7d6JGb8aAQe7NF4iUpYfOB5vi2kiltBeJBD_OZrCV2dYl1QJaLTN2srBc81YiPTyqclY4EubxHMwz-mziWeEb4R9tw09KZ5aD9", "width": 5344, "html_attributions": ["<a href=\"https://maps.google.com/maps/contrib/103271528612862963515\">jinto kuriakose</a>"], "height": 4008}], "scope": "GOOGLE", "business_status": "OPERATIONAL", "types": ["atm", "bank", "finance", "point_of_interest", "establishment"], "icon": "https://maps.gstatic.com/mapfiles/place_api/icons/v1/png_71/atm-71.png"}, {"name": "Axis Bank ATM", "reference": "ChIJU3Yb580_rjsRzKNr4DGoKts", "geometry": {"location": {"lat": 12.8733525, "lng": 77.6579738}, "viewport": {"northeast": {"lat": 12.8746867802915, "lng": 77.6593215802915}, "southwest": {"lat": 12.8719888197085, "lng": 77.6566236197085}}}, "opening_hours": {"open_now": true}, "place_id": "ChIJU3Yb580_rjsRzKNr4DGoKts", "plus_code": {"global_code": "7J4VVMF5+85", "compound_code": "VMF5+85 Bengaluru, Karnataka, India"}, "vicinity": "Survey No 62, 3, Parappana Agrahara, Bengaluru", "scope": "GOOGLE", "business_status": "OPERATIONAL", "types": ["atm", "bank", "finance", "point_of_interest", "establishment"], "icon": "https://maps.gstatic.com/mapfiles/place_api/icons/v1/png_71/atm-71.png"}, {"rating": 3.5, "user_ratings_total": 41, "name": "Karnataka Bank", "reference": "ChIJIS9ly6hsrjsROZg0qZbNMvk", "geometry": {"location": {"lat": 12.8703471, "lng": 77.6592367}, "viewport": {"northeast": {"lat": 12.8718102802915, "lng": 77.66054228029151}, "southwest": {"lat": 12.8691123197085, "lng": 77.65784431970849}}}, "opening_hours": {"open_now": true}, "place_id": "ChIJIS9ly6hsrjsROZg0qZbNMvk", "plus_code": {"global_code": "7J4VVMC5+4M", "compound_code": "VMC5+4M Bengaluru, Karnataka, India"}, "vicinity": "D.NO.87, VINAYAKA NAGAR, Opp RTO Office, New, Hosa Road, Naganathapura, Bengaluru", "photos": [{"photo_reference": "ATtYBwKoWpM6oGhPTEqvTRnKd4iKAd-Tb4bbazLHJV64qIKcl9ie9_odpU_4Z0cAYzwAkbRaMt5z0msBApNbjRjMDaQ7Ab3cvmVWw5OhAIONBrIykV4x1bfYBmgAsJ5HuO4GXP0hBBgoDy6nSvcar7XU3QSEHSyKPW_9DBCt5eGVQ6APKDEs", "width": 2448, "html_attributions": ["<a href=\"https://maps.google.com/maps/contrib/112620285527499049652\">Vijaya Bhaskar Reddy</a>"], "height": 3264}], "scope": "GOOGLE", "business_status": "OPERATIONAL", "types": ["bank", "atm", "finance", "point_of_interest", "establishment"], "icon": "https://maps.gstatic.com/mapfiles/place_api/icons/v1/png_71/bank-71.png"}, {"rating": 4, "user_ratings_total": 7, "name": "HDFC Bank ATM", "reference": "ChIJ0Vs3Jq9srjsRcUD1wiTs4Ho", "geometry": {"location": {"lat": 12.8712581, "lng": 77.6600862}, "viewport": {"northeast": {"lat": 12.8726036802915, "lng": 77.66145323029151}, "southwest": {"lat": 12.8699057197085, "lng": 77.6587552697085}}}, "opening_hours": {"open_now": true}, "place_id": "ChIJ0Vs3Jq9srjsRcUD1wiTs4Ho", "plus_code": {"global_code": "7J4VVMC6+G2", "compound_code": "VMC6+G2 Bengaluru, Karnataka, India"}, "vicinity": "451, CK Nagar, Electronic City, Bengaluru", "photos": [{"photo_reference": "ATtYBwIE15vf2u4-fClsgBUo42Fs5MATaGr9w1K5fWUC5jaYWNgvjvcsk6UbhJEAMPnDlok0DDxXzOOzKNNBuedyYisZtXHpBMj1_eQgIdGXdO34YWPvlMnROiKL8Ll253KhxnpKz6linDfWdj-z9DzpqF6ekGirg0JeqoEFtaB_wjYmr2vC", "width": 470, "html_attributions": ["<a href=\"https://maps.google.com/maps/contrib/103482337167459613733\">Tricky Mouse</a>"], "height": 313}], "scope": "GOOGLE", "business_status": "OPERATIONAL", "types": ["atm", "bank", "finance", "point_of_interest", "establishment"], "icon": "https://maps.gstatic.com/mapfiles/place_api/icons/v1/png_71/atm-71.png"}, {"rating": 2.7, "user_ratings_total": 80, "name": "State Bank of India Hosur Road Branch", "reference": "ChIJWYlLGqhsrjsRPO0soho_als", "geometry": {"location": {"lat": 12.8682801, "lng": 77.655255}, "viewport": {"northeast": {"lat": 12.8695303802915, "lng": 77.65647503029152}, "southwest": {"lat": 12.8668324197085, "lng": 77.6537770697085}}}, "opening_hours": {"open_now": false}, "place_id": "ChIJWYlLGqhsrjsRPO0soho_als", "plus_code": {"global_code": "7J4VVM94+84", "compound_code": "VM94+84 Bengaluru, Karnataka, India"}, "vicinity": "next to Suzuki Showroom, No 43, PMR Tower, next to Suzuki Showroom, Hosur Road, Chennakeshava Nagar, Electronic City, Bengaluru", "photos": [{"photo_reference": "ATtYBwKfd743oBHQsNyT2MyixRJg2LCwreBjiyvEC9kRJhAQY1PioaW9HsVz7tMal5WUrZ-0TeLHnt_IDg4TZ9j8dlSpyySrQvhMSgcVSCY-VoyXjmNZHElYDtQKsPya-mxySGL2MDYTAbglHqOJrDsvNpiVdgl2iY4ZNGbFPIGrP51eTCNq", "width": 3072, "html_attributions": ["<a href=\"https://maps.google.com/maps/contrib/109794461393911975489\">Raju Muthuswamy</a>"], "height": 1728}], "scope": "GOOGLE", "business_status": "OPERATIONAL", "types": ["bank", "finance", "point_of_interest", "establishment"], "icon": "https://maps.gstatic.com/mapfiles/place_api/icons/v1/png_71/bank-71.png"}, {"name": "HDFC Bank ATM", "reference": "ChIJ41oosc5trjsRoUKRc1sEUEI", "geometry": {"location": {"lat": 12.8731024, "lng": 77.6540382}, "viewport": {"northeast": {"lat": 12.8744531302915, "lng": 77.65535493029151}, "southwest": {"lat": 12.8717551697085, "lng": 77.6526569697085}}}, "opening_hours": {"open_now": false}, "place_id": "ChIJ41oosc5trjsRoUKRc1sEUEI", "plus_code": {"global_code": "7J4VVMF3+6J", "compound_code": "VMF3+6J Bengaluru, Karnataka, India"}, "vicinity": "Parappana Agrahara Main Road, Electronic City, Bengaluru", "scope": "GOOGLE", "business_status": "OPERATIONAL", "types": ["atm", "bank", "finance", "point_of_interest", "establishment"], "icon": "https://maps.gstatic.com/mapfiles/place_api/icons/v1/png_71/atm-71.png"}, {"name": "ICICI BANK ATM", "reference": "ChIJc08W1TlrrjsR8zzSJuMuLz0", "geometry": {"location": {"lat": 12.8751097, "lng": 77.6487808}, "viewport": {"northeast": {"lat": 12.8764638802915, "lng": 77.6501379302915}, "southwest": {"lat": 12.8737659197085, "lng": 77.6474399697085}}}, "opening_hours": {"open_now": true}, "place_id": "ChIJc08W1TlrrjsR8zzSJuMuLz0", "plus_code": {"global_code": "7J4VVJGX+2G", "compound_code": "VJGX+2G Bengaluru, Karnataka, India"}, "vicinity": "next to Citibank ATM, Think Campus, TCS. Amenities Block 2nd floor No 42, next to Citibank ATM, Think Campus, Electronic City, Bengaluru", "scope": "GOOGLE", "business_status": "OPERATIONAL", "types": ["bank", "finance", "point_of_interest", "establishment"], "icon": "https://maps.gstatic.com/mapfiles/place_api/icons/v1/png_71/bank-71.png"}, {"rating": 5, "user_ratings_total": 1, "name": "Axis Bank ATM", "reference": "ChIJB992riptrjsR2UKy8l_Zpy8", "geometry": {"location": {"lat": 12.8694617, "lng": 77.6553832}, "viewport": {"northeast": {"lat": 12.8707826302915, "lng": 77.65673703029151}, "southwest": {"lat": 12.8680846697085, "lng": 77.65403906970849}}}, "opening_hours": {"open_now": true}, "place_id": "ChIJB992riptrjsR2UKy8l_Zpy8", "plus_code": {"global_code": "7J4VVM94+Q5", "compound_code": "VM94+Q5 Bengaluru, Karnataka, India"}, "vicinity": "beside Reliance Fresh, No 7 & 8, beside Reliance Fresh, Chennakeshava Nagar, Bengaluru", "scope": "GOOGLE", "business_status": "OPERATIONAL", "types": ["atm", "bank", "finance", "point_of_interest", "establishment"], "icon": "https://maps.gstatic.com/mapfiles/place_api/icons/v1/png_71/atm-71.png"}, {"rating": 3.1, "user_ratings_total": 26, "name": "CANARA BANK - GENERAL BRANCH", "reference": "ChIJYf4NkZprrjsRer93e-p5ln4", "geometry": {"location": {"lat": 12.8759162, "lng": 77.6488012}, "viewport": {"northeast": {"lat": 12.8772711802915, "lng": 77.6501582802915}, "southwest": {"lat": 12.8745732197085, "lng": 77.64746031970849}}}, "place_id": "ChIJYf4NkZprrjsRer93e-p5ln4", "plus_code": {"global_code": "7J4VVJGX+9G", "compound_code": "VJGX+9G Bengaluru, Karnataka, India"}, "vicinity": "#37, 1, Hosur Road, Singasandra, Bengaluru", "photos": [{"photo_reference": "ATtYBwLfi41ynKyHCbjh30upIb3eYEreXPCFkp5VCk2RI6COYiqznB1v0earzyk0iLgxQ5xivClnmhLblstovLJWhXGsb05JeKkglSJorUPp0vr63H7ITmLOKbUhjMf_-2BwgmONt1JRfwaUT-WQ44Bm-YE7MR7fqIEZHXNxjbn6caxyYDK4", "width": 3264, "html_attributions": ["<a href=\"https://maps.google.com/maps/contrib/112620285527499049652\">Vijaya Bhaskar Reddy</a>"], "height": 1836}], "scope": "GOOGLE", "business_status": "OPERATIONAL", "types": ["bank", "finance", "point_of_interest", "establishment"], "icon": "https://maps.gstatic.com/mapfiles/place_api/icons/v1/png_71/bank-71.png"}, {"name": "ICICI BANK ATM", "reference": "ChIJB-662gdrrjsRgbXm25QlOjI", "geometry": {"location": {"lat": 12.8734512, "lng": 77.6429825}, "viewport": {"northeast": {"lat": 12.8748166302915, "lng": 77.64440788029151}, "southwest": {"lat": 12.8721186697085, "lng": 77.6417099197085}}}, "opening_hours": {"open_now": true}, "place_id": "ChIJB-662gdrrjsRgbXm25QlOjI", "plus_code": {"global_code": "7J4VVJFV+95", "compound_code": "VJFV+95 Bengaluru, Karnataka, India"}, "vicinity": "near Manipal County Club, Spicy N Juicy, Singasandra, near Manipal County Club, Hosur Road, Bengaluru", "scope": "GOOGLE", "business_status": "OPERATIONAL", "types": ["bank", "finance", "point_of_interest", "establishment"], "icon": "https://maps.gstatic.com/mapfiles/place_api/icons/v1/png_71/bank-71.png"}, {"name": "ICICI BANK ATM", "reference": "ChIJeWIlVv1trjsRdn4157KekXA", "geometry": {"location": {"lat": 12.8734141, "lng": 77.65743309999999}, "viewport": {"northeast": {"lat": 12.8747973302915, "lng": 77.6587884302915}, "southwest": {"lat": 12.8720993697085, "lng": 77.65609046970849}}}, "opening_hours": {"open_now": true}, "place_id": "ChIJeWIlVv1trjsRdn4157KekXA", "plus_code": {"global_code": "7J4VVMF4+9X", "compound_code": "VMF4+9X Bengaluru, Karnataka, India"}, "vicinity": "45 1 opp KSRP Camp Meenakshi layout, Electronic City st, Parappana Agrahara, Bengaluru", "scope": "GOOGLE", "business_status": "OPERATIONAL", "types": ["bank", "finance", "point_of_interest", "establishment"], "icon": "https://maps.gstatic.com/mapfiles/place_api/icons/v1/png_71/bank-71.png"}, {"name": "HDFC Bank ATM", "reference": "ChIJw1bwrpdtrjsRbKiNDbai0HQ", "geometry": {"location": {"lat": 12.8706929, "lng": 77.65879199999999}, "viewport": {"northeast": {"lat": 12.8719995802915, "lng": 77.66015963029152}, "southwest": {"lat": 12.8693016197085, "lng": 77.6574616697085}}}, "opening_hours": {"open_now": true}, "place_id": "ChIJw1bwrpdtrjsRbKiNDbai0HQ", "plus_code": {"global_code": "7J4VVMC5+7G", "compound_code": "VMC5+7G Bengaluru, Karnataka, India"}, "vicinity": "opposite Last Bus Stand, 9, Raja Reddy Building Phase 2, Dodda Nagamanagla, opposite Last Bus Stand, Bengaluru", "scope": "GOOGLE", "business_status": "OPERATIONAL", "types": ["atm", "bank", "finance", "point_of_interest", "establishment"], "icon": "https://maps.gstatic.com/mapfiles/place_api/icons/v1/png_71/atm-71.png"}, {"rating": 4.5, "user_ratings_total": 2, "name": "Axis Bank", "reference": "ChIJZR2eYD1trjsRRVD_CdsVhVI", "geometry": {"location": {"lat": 12.8649194, "lng": 77.6576766}, "viewport": {"northeast": {"lat": 12.8662321302915, "lng": 77.6589783802915}, "southwest": {"lat": 12.8635341697085, "lng": 77.6562804197085}}}, "opening_hours": {"open_now": true}, "place_id": "ChIJZR2eYD1trjsRRVD_CdsVhVI", "plus_code": {"global_code": "7J4VVM75+X3", "compound_code": "VM75+X3 Bengaluru, Karnataka, India"}, "vicinity": "above MG Motors, Lava Kusha Edifice, Beratena Agrahara 3rd Flr, 195/6/2, Hosur Rd, Lava Kusha, above MG Motors, NGR Layout, Bengaluru", "scope": "GOOGLE", "business_status": "OPERATIONAL", "types": ["bank", "finance", "point_of_interest", "establishment"], "icon": "https://maps.gstatic.com/mapfiles/place_api/icons/v1/png_71/generic_business-71.png"}, {"name": "HDFC Bank ATM", "reference": "ChIJA7pUL69srjsRyV1BFtEUkkI", "geometry": {"location": {"lat": 12.871109, "lng": 77.66003700000002}, "viewport": {"northeast": {"lat": 12.8724473302915, "lng": 77.66139083029151}, "southwest": {"lat": 12.8697493697085, "lng": 77.6586928697085}}}, "opening_hours": {"open_now": true}, "place_id": "ChIJA7pUL69srjsRyV1BFtEUkkI", "plus_code": {"global_code": "7J4VVMC6+C2", "compound_code": "VMC6+C2 Bengaluru, Karnataka, India"}, "vicinity": "72, CJ Rd, Electronic City, Bengaluru", "photos": [{"photo_reference": "ATtYBwJ718kweqS131zGUkyTtSspIXYm8bL1m5V4fkVO07J5R_YS_z6aqeR0Ih9k0uwErdLqRDXiGlmuHYmnOB4zxRNvveu7vaRDQuW6cCy-aI2aKGhf8WatqqM5elwvdMlav1Gp3fIfW6B2GZ2OjrfTCIDCYt4shbp0PS5OkeRQbjAoZAEX", "width": 3456, "html_attributions": ["<a href=\"https://maps.google.com/maps/contrib/113595442551609383062\">Ravi Nagaraj</a>"], "height": 4608}], "scope": "GOOGLE", "business_status": "OPERATIONAL", "types": ["atm", "bank", "finance", "point_of_interest", "establishment"], "icon": "https://maps.gstatic.com/mapfiles/place_api/icons/v1/png_71/atm-71.png"}, {"name": "Axis Bank ATM", "reference": "ChIJLUM7pTprrjsRI4wGfbbnp4o", "geometry": {"location": {"lat": 12.8747035, "lng": 77.6403231}, "viewport": {"northeast": {"lat": 12.8760142802915, "lng": 77.6415599302915}, "southwest": {"lat": 12.8733163197085, "lng": 77.6388619697085}}}, "opening_hours": {"open_now": true}, "place_id": "ChIJLUM7pTprrjsRI4wGfbbnp4o", "plus_code": {"global_code": "7J4VVJFR+V4", "compound_code": "VJFR+V4 Bengaluru, Karnataka, India"}, "vicinity": "Dharmaram College Post, Milk Producer Cooperative Soc Union Ltd Dr MH Marigowda Rd, Bamul, Tavarekere, Bengaluru", "scope": "GOOGLE", "business_status": "OPERATIONAL", "types": ["atm", "bank", "finance", "point_of_interest", "establishment"], "icon": "https://maps.gstatic.com/mapfiles/place_api/icons/v1/png_71/atm-71.png"}, {"rating": 5, "user_ratings_total": 2, "name": "Vijay Bank", "reference": "ChIJjZpwqCQVrjsRhMa3QLWhx_Q", "geometry": {"location": {"lat": 12.8806435, "lng": 77.6529681}, "viewport": {"northeast": {"lat": 12.8820811302915, "lng": 77.6544731802915}, "southwest": {"lat": 12.8793831697085, "lng": 77.6517752197085}}}, "place_id": "ChIJjZpwqCQVrjsRhMa3QLWhx_Q", "plus_code": {"global_code": "7J4VVMJ3+75", "compound_code": "VMJ3+75 Bengaluru, Karnataka, India"}, "vicinity": "1891, 15th Cross Road, AECS Layout - A Block, Singasandra, Bengaluru", "photos": [{"photo_reference": "ATtYBwLhJePgFveq7QkvIQsjZZw7Nh1nWMoufvqV8j7LNWCHDJjTGCLfvssEwTJgjz-esKtQ7qo3o8smYc4AkArH11LYTbmO5ZfF2Nt2my_YsFAHdXSx_sgYMixiSykRSzwMsTs8li_36Fa4XWT4WjOMSvjnlCyfB9t6TtO2ZufV_e5jKKUu", "width": 2448, "html_attributions": ["<a href=\"https://maps.google.com/maps/contrib/112620285527499049652\">Vijaya Bhaskar Reddy</a>"], "height": 3264}], "scope": "GOOGLE", "business_status": "OPERATIONAL", "types": ["bank", "finance", "point_of_interest", "establishment"], "icon": "https://maps.gstatic.com/mapfiles/place_api/icons/v1/png_71/bank-71.png"}, {"rating": 2.5, "user_ratings_total": 2, "name": "ICICI Bank LTD, Bangalore - Kudulu Road- Branch & ATM", "reference": "ChIJ2254a84VrjsR4C8LUkpClmA", "geometry": {"location": {"lat": 12.8809004, "lng": 77.6520996}, "viewport": {"northeast": {"lat": 12.8822836802915, "lng": 77.65342633029151}, "southwest": {"lat": 12.8795857197085, "lng": 77.6507283697085}}}, "opening_hours": {"open_now": true}, "place_id": "ChIJ2254a84VrjsR4C8LUkpClmA", "plus_code": {"global_code": "7J4VVMJ2+9R", "compound_code": "VMJ2+9R Bengaluru, Karnataka, India"}, "vicinity": "near COCO Mart, ICICI Bank Ltd., Site No. 1218/B, AECS Layout A Block, Kudulu, near COCO Mart, Road, Bengaluru", "photos": [{"photo_reference": "ATtYBwLEXyRctdYuFrvpSWTp00otLwHfyIwhdS_ZNK_kZl1_xdAvdY6lbarEhVwULoyufC2IksrtLm3WF4HfyzrdeHczIE25SzNhcfEzN4Z02z-eILaKBkL9qynCD3zPG47U62PNsB_REbhIw82bncRO4c0YGuRq19hS-_Tnrt91tr_Y4oNK", "width": 1920, "html_attributions": ["<a href=\"https://maps.google.com/maps/contrib/115506858277995583555\">Raja_hustle</a>"], "height": 1080}], "scope": "GOOGLE", "business_status": "OPERATIONAL", "types": ["bank", "finance", "point_of_interest", "establishment"], "icon": "https://maps.gstatic.com/mapfiles/place_api/icons/v1/png_71/bank-71.png"}, {"rating": 3.5, "user_ratings_total": 30, "name": "State Bank of India", "reference": "ChIJm4yN4q0UrjsRxdm4iXilE4Y", "geometry": {"location": {"lat": 12.8813477, "lng": 77.6474212}, "viewport": {"northeast": {"lat": 12.8826791802915, "lng": 77.6488270302915}, "southwest": {"lat": 12.8799812197085, "lng": 77.6461290697085}}}, "opening_hours": {"open_now": false}, "place_id": "ChIJm4yN4q0UrjsRxdm4iXilE4Y", "plus_code": {"global_code": "7J4VVJJW+GX", "compound_code": "VJJW+GX Bengaluru, Karnataka, India"}, "vicinity": "No 1, NH 7, Hosur Road, Singasandra, Bengaluru", "photos": [{"photo_reference": "ATtYBwLd96_L5f0vqQlsj2LgEfElxU_kJvzkNYsvi0z-LHSILXJrYu9L0b6ExpXHsJZWLpaYOkUaxR77xCy_3bJ9mENSrTpy5MtEon9mY_Axiy0FL-nMqLZv8qGv75zy8-2L4y03GijKp19ndQZcDAMZSzdgsUv08tqN2DrqHtOXR0iBQP81", "width": 3264, "html_attributions": ["<a href=\"https://maps.google.com/maps/contrib/112620285527499049652\">Vijaya Bhaskar Reddy</a>"], "height": 1836}], "scope": "GOOGLE", "business_status": "OPERATIONAL", "types": ["bank", "finance", "point_of_interest", "establishment"], "icon": "https://maps.gstatic.com/mapfiles/place_api/icons/v1/png_71/bank-71.png"}]}