{"status": "OK", "html_attributions": [], "results": [{"rating": 2.9, "user_ratings_total": 8, "name": "Canara Bank", "reference": "ChIJ_Rex_glurjsRCcx7C3zOA64", "geometry": {"location": {"lat": 12.7925039, "lng": 77.72833589999999}, "viewport": {"northeast": {"lat": 12.7938056802915, "lng": 77.7296721802915}, "southwest": {"lat": 12.7911077197085, "lng": 77.72697421970848}}}, "opening_hours": {"open_now": true}, "place_id": "ChIJ_Rex_glurjsRCcx7C3zOA64", "plus_code": {"global_code": "7J4VQPVH+28", "compound_code": "QPVH+28 Neraluru, Karnataka, India"}, "vicinity": "Neraluru", "scope": "GOOGLE", "business_status": "OPERATIONAL", "types": ["atm", "bank", "finance", "point_of_interest", "establishment"], "icon": "https://maps.gstatic.com/mapfiles/place_api/icons/v1/png_71/bank-71.png"}, {"rating": 5, "user_ratings_total": 28, "name": "Federal Bank", "reference": "ChIJW9vCgAZurjsR949xgPWeekw", "geometry": {"location": {"lat": 12.787813, "lng": 77.73681300000001}, "viewport": {"northeast": {"lat": 12.7891509802915, "lng": 77.73819398029151}, "southwest": {"lat": 12.7864530197085, "lng": 77.73549601970849}}}, "opening_hours": {"open_now": true}, "place_id": "ChIJW9vCgAZurjsR949xgPWeekw", "plus_code": {"global_code": "7J4VQPQP+4P", "compound_code": "QPQP+4P Balagaranahalli, Karnataka, India"}, "vicinity": "Sy. No. 33/2, Balagaranahalli Attibele Hobli, Anekal, Taluk, Balagaranahalli", "photos": [{"photo_reference": "ATtYBwJF-pM5fI8eur5MoN-Q6Nb2ihNFNkunXAkpcROpRQ1rZoZ8rpTayUSAZ_zE8N20sn4g8HhmY8hePNfQkoT0HPAi_9-n58scG77JlBC0qXgWEQC-mOASiELFd9lgsDwDPGWy42RaRT8stkVSXFOHbeyZbB7EHzEKj0bpOAcT4DFjd26i", "width": 723, "html_attributions": ["<a href=\"https://maps.google.com/maps/contrib/102096515973865672825\">The Alpha Rider</a>"], "height": 888}], "scope": "GOOGLE", "business_status": "OPERATIONAL", "types": ["bank", "atm", "finance", "point_of_interest", "establishment"], "icon": "https://maps.gstatic.com/mapfiles/place_api/icons/v1/png_71/bank-71.png"}, {"rating": 5, "user_ratings_total": 2, "name": "HDFC Bank ATM", "reference": "ChIJTfvW7QlurjsRaHsaTHC52Nw", "geometry": {"location": {"lat": 12.791781, "lng": 77.72890199999999}, "viewport": {"northeast": {"lat": 12.7931239802915, "lng": 77.7302828802915}, "southwest": {"lat": 12.7904260197085, "lng": 77.72758491970849}}}, "opening_hours": {"open_now": true}, "place_id": "ChIJTfvW7QlurjsRaHsaTHC52Nw", "plus_code": {"global_code": "7J4VQPRH+PH", "compound_code": "QPRH+PH Bengaluru, Karnataka, India"}, "vicinity": "267/231, Hosur Road, Madiwala, 1st Stage, Electronic City, Bengaluru", "scope": "GOOGLE", "business_status": "OPERATIONAL", "types": ["atm", "bank", "finance", "point_of_interest", "establishment"], "icon": "https://maps.gstatic.com/mapfiles/place_api/icons/v1/png_71/atm-71.png"}, {"name": "ICICI BANK ATM", "reference": "ChIJR_6QnWBvrjsR_W4y6Ip1NEA", "geometry": {"location": {"lat": 12.7925688, "lng": 77.72827520000001}, "viewport": {"northeast": {"lat": 12.7939782802915, "lng": 77.72963088029151}, "southwest": {"lat": 12.7912803197085, "lng": 77.7269329197085}}}, "opening_hours": {"open_now": true}, "place_id": "ChIJR_6QnWBvrjsR_W4y6Ip1NEA", "plus_code": {"global_code": "7J4VQPVH+28", "compound_code": "QPVH+28 Neraluru, Karnataka, India"}, "vicinity": "Gate, Hosur Road, Neraluru", "scope": "GOOGLE", "business_status": "OPERATIONAL", "types": ["bank", "finance", "point_of_interest", "establishment"], "icon": "https://maps.gstatic.com/mapfiles/place_api/icons/v1/png_71/bank-71.png"}, {"name": "CANARA BANK - GENERAL BRANCH", "reference": "ChIJK3ZTLTJvrjsRQT1SoNnLy3k", "geometry": {"location": {"lat": 12.7923161, "lng": 77.7274151}, "viewport": {"northeast": {"lat": 12.7936815302915, "lng": 77.72876878029152}, "southwest": {"lat": 12.7909835697085, "lng": 77.7260708197085}}}, "place_id": "ChIJK3ZTLTJvrjsRQT1SoNnLy3k", "plus_code": {"global_code": "7J4VQPRG+WX", "compound_code": "QPRG+WX Bengaluru, Karnataka, India"}, "vicinity": "SY.NO.72, ATTIBELE HOBLI NERALUR NERALUR, Bengaluru", "scope": "GOOGLE", "business_status": "OPERATIONAL", "types": ["bank", "finance", "point_of_interest", "establishment"], "icon": "https://maps.gstatic.com/mapfiles/place_api/icons/v1/png_71/bank-71.png"}]}