{"status": "OK", "html_attributions": [], "results": [{"rating": 4.3, "user_ratings_total": 8, "name": "Andhra Bank", "reference": "ChIJwVd7FKwNrjsRzQCovf4AWvQ", "geometry": {"location": {"lat": 12.9378796, "lng": 77.78648609999999}, "viewport": {"northeast": {"lat": 12.9391984302915, "lng": 77.7878388802915}, "southwest": {"lat": 12.93650046970849, "lng": 77.7851409197085}}}, "opening_hours": {"open_now": false}, "place_id": "ChIJwVd7FKwNrjsRzQCovf4AWvQ", "plus_code": {"global_code": "7J4VWQQP+5H", "compound_code": "WQQP+5H Bengaluru, Karnataka, India"}, "vicinity": "Panchayat Community Building, Panchayat Office, Muthsandra Gram Panchayat, Bangalore Rural District, Bengaluru", "scope": "GOOGLE", "business_status": "OPERATIONAL", "types": ["bank", "finance", "point_of_interest", "establishment"], "icon": "https://maps.gstatic.com/mapfiles/place_api/icons/v1/png_71/bank-71.png"}, {"name": "Muthsandra Co-Operative Bank", "reference": "ChIJ1ynAEKwNrjsRVyX6lNcu8Q8", "geometry": {"location": {"lat": 12.9377299, "lng": 77.7860711}, "viewport": {"northeast": {"lat": 12.9391486302915, "lng": 77.7874500802915}, "southwest": {"lat": 12.9364506697085, "lng": 77.78475211970849}}}, "place_id": "ChIJ1ynAEKwNrjsRVyX6lNcu8Q8", "plus_code": {"global_code": "7J4VWQQP+3C", "compound_code": "WQQP+3C Muthsandra, Karnataka, India"}, "vicinity": "Muthsandra", "scope": "GOOGLE", "business_status": "OPERATIONAL", "types": ["bank", "finance", "point_of_interest", "establishment"], "icon": "https://maps.gstatic.com/mapfiles/place_api/icons/v1/png_71/bank-71.png"}, {"name": "Bank of Baroda (E Dena)", "reference": "ChIJ84CN0FoNrjsRrKSElXUG1kc", "geometry": {"location": {"lat": 12.9326783, "lng": 77.7807885}, "viewport": {"northeast": {"lat": 12.9340584802915, "lng": 77.7821417802915}, "southwest": {"lat": 12.9313605197085, "lng": 77.77944381970849}}}, "opening_hours": {"open_now": false}, "place_id": "ChIJ84CN0FoNrjsRrKSElXUG1kc", "plus_code": {"global_code": "7J4VWQMJ+38", "compound_code": "WQMJ+38 Sarjapura, Bengaluru, Karnataka, India"}, "vicinity": "Madarasa Building, Main Road, Dist, Sarjapura", "photos": [{"photo_reference": "ATtYBwJxg5JdRg-nzWGGP-xOiHArX-v7q5QrkyA1pZFMgPRT5TJVzKADrBuWp5WXEPI_rYwgkz4tzQmnvz5MCR5KEIJ-m1HjKXf60mIjr88HWFT7Ta6KfM8tqkg3KQNdOSrMOMQwxFkffN7krGVZdl_XXUcNvgtTdqDyXbzP6HcFpwtQFV79", "width": 512, "html_attributions": ["<a href=\"https://maps.google.com/maps/contrib/113941570625904916323\">Bank of Baroda (E Dena)</a>"], "height": 288}], "scope": "GOOGLE", "business_status": "OPERATIONAL", "types": ["bank", "finance", "point_of_interest", "establishment"], "icon": "https://maps.gstatic.com/mapfiles/place_api/icons/v1/png_71/bank-71.png"}]}