{"status": "OK", "html_attributions": [], "results": [{"rating": 3.9, "user_ratings_total": 13, "name": "State Bank of India", "reference": "ChIJL0BHdeY9rjsRYCODMQhliwY", "geometry": {"location": {"lat": 12.9753123, "lng": 77.4891998}, "viewport": {"northeast": {"lat": 12.9766675802915, "lng": 77.4905523802915}, "southwest": {"lat": 12.9739696197085, "lng": 77.4878544197085}}}, "opening_hours": {"open_now": false}, "place_id": "ChIJL0BHdeY9rjsRYCODMQhliwY", "plus_code": {"global_code": "7J4VXFGQ+4M", "compound_code": "XFGQ+4M Bengaluru, Karnataka, India"}, "vicinity": "near Bsnl Telephone Exchange, No 103, Guru Krupa Manuvana, near Bsnl Telephone Exchange, Da Ra Bendre Road, Vijayanagar, Bengaluru", "photos": [{"photo_reference": "ATtYBwJWxcuAqYS7Be7aKcQqZX1OXrCatWHi4LT1YRaa67dricqMsH7TfOvxUrv3EMbVN812XpJ2Klq9avTzRHUstJX9UQeK4TDPytb-hzWwP5n9HDvv5nm3bCK3twEgYySkwkb4pg-iJPpA7K_AFsjQjTqOLYJTcTgF9jBwiCpcVhJn3yMt", "width": 2560, "html_attributions": ["<a href=\"https://maps.google.com/maps/contrib/113915189928744516195\">Dee Pak</a>"], "height": 1440}], "scope": "GOOGLE", "business_status": "OPERATIONAL", "types": ["bank", "finance", "point_of_interest", "establishment"], "icon": "https://maps.gstatic.com/mapfiles/place_api/icons/v1/png_71/bank-71.png"}, {"rating": 3.6, "user_ratings_total": 11, "name": "Vijaya Bank", "reference": "ChIJQbHhEp8-rjsRhvjGJaAc0OI", "geometry": {"location": {"lat": 12.9586715, "lng": 77.4946618}, "viewport": {"northeast": {"lat": 12.9600781302915, "lng": 77.49602048029152}, "southwest": {"lat": 12.9573801697085, "lng": 77.49332251970851}}}, "opening_hours": {"open_now": false}, "place_id": "ChIJQbHhEp8-rjsRhvjGJaAc0OI", "plus_code": {"global_code": "7J4VXF5V+FV", "compound_code": "XF5V+FV Bengaluru, Karnataka, India"}, "vicinity": "Mallathahalli Lake Road, MPM Layout, ITI Employees Layout, Mallathahalli, Bengaluru", "photos": [{"photo_reference": "ATtYBwKgrrkFaOGZ4kaOg-ZVtk5fIbzc7JxP0UsyqZZncgX62EVbfjvT6LOd95sX4f1ZsJk-DY-CNihTUMBgHXsgk6wMWLWPyoU0Hv12P4k4A0cdyZ99JqUf7QXAHbTaF9RkMeZ5eFqyPcaZYFNvkiyqzPV2lVsm0PRC3C86p5UBY92GFA9v", "width": 1280, "html_attributions": ["<a href=\"https://maps.google.com/maps/contrib/109164419523980412297\">Daksh</a>"], "height": 720}], "scope": "GOOGLE", "business_status": "OPERATIONAL", "types": ["bank", "atm", "finance", "point_of_interest", "establishment"], "icon": "https://maps.gstatic.com/mapfiles/place_api/icons/v1/png_71/bank-71.png"}, {"rating": 2.5, "user_ratings_total": 14, "name": "Karnataka Bank Ltd", "reference": "ChIJ4aBIjBM8rjsRG8kUC--mTSk", "geometry": {"location": {"lat": 12.9704406, "lng": 77.49004959999999}, "viewport": {"northeast": {"lat": 12.9718383302915, "lng": 77.4914171802915}, "southwest": {"lat": 12.9691403697085, "lng": 77.4887192197085}}}, "opening_hours": {"open_now": false}, "place_id": "ChIJ4aBIjBM8rjsRG8kUC--mTSk", "plus_code": {"global_code": "7J4VXFCR+52", "compound_code": "XFCR+52 Bengaluru, Karnataka, India"}, "vicinity": "D.NO, 154, 2nd Main Road, 8th block, SIR M, VISHWESHWARAIH LAYOUT, Bengaluru", "photos": [{"photo_reference": "ATtYBwJA7c_TOi-Q-xA5L_SPw6mPjBsAjswv3jCgKz_MBlsUA5wTbg5FBqcY7vYuLEewPFIuD-JNkqzvgydKsNJTXxQYivjAysDaTyw4SoXx2FEVhGLEY7mQ6eMhSXEzEqtA1jkYZozt5IOUK0HZfIZ_8zxqckug3OaAQKld-_ErqV21mPIa", "width": 4032, "html_attributions": ["<a href=\"https://maps.google.com/maps/contrib/102267757770501566227\">Sangeetha Kamal</a>"], "height": 3024}], "scope": "GOOGLE", "business_status": "OPERATIONAL", "types": ["bank", "atm", "finance", "point_of_interest", "establishment"], "icon": "https://maps.gstatic.com/mapfiles/place_api/icons/v1/png_71/bank-71.png"}, {"rating": 3, "user_ratings_total": 5, "name": "State Bank of India", "reference": "ChIJ5z6yUiI8rjsReQbxA90CTmQ", "geometry": {"location": {"lat": 12.970384, "lng": 77.4961108}, "viewport": {"northeast": {"lat": 12.9717068802915, "lng": 77.4973616802915}, "southwest": {"lat": 12.9690089197085, "lng": 77.49466371970848}}}, "opening_hours": {"open_now": false}, "place_id": "ChIJ5z6yUiI8rjsReQbxA90CTmQ", "plus_code": {"global_code": "7J4VXFCW+5C", "compound_code": "XFCW+5C Bengaluru, Karnataka, India"}, "vicinity": "Akshays Sai Lake View, 60 Feet Road, Vishweshwaraiah, Bengaluru", "photos": [{"photo_reference": "ATtYBwLioZnTeP4qSjjQhVrD4sCH1aCIMH-Wot-0ddsF9ij5Gv5B6SV-LJK9arU8UjAh5LyDlNvVzpNXzkcYl_ZHp7Yp2YnrmZhRniOaZuXp52yRFdX9UqZ7A_R3cIok5-1pkr5GQti9Hnp-I51ePt09kopErvibUTWv2ThWC1TUPAU5boz3", "width": 4608, "html_attributions": ["<a href=\"https://maps.google.com/maps/contrib/118017335787112537181\">satish naidu</a>"], "height": 2592}], "scope": "GOOGLE", "business_status": "OPERATIONAL", "types": ["bank", "finance", "point_of_interest", "establishment"], "icon": "https://maps.gstatic.com/mapfiles/place_api/icons/v1/png_71/bank-71.png"}, {"name": "Axis Bank ATM", "reference": "ChIJOSDeqqE9rjsRngUfHRsyjWQ", "geometry": {"location": {"lat": 12.97387, "lng": 77.49741}, "viewport": {"northeast": {"lat": 12.9752263302915, "lng": 77.4987265302915}, "southwest": {"lat": 12.9725283697085, "lng": 77.4960285697085}}}, "opening_hours": {"open_now": true}, "place_id": "ChIJOSDeqqE9rjsRngUfHRsyjWQ", "plus_code": {"global_code": "7J4VXFFW+GX", "compound_code": "XFFW+GX Bengaluru, Karnataka, India"}, "vicinity": "Survey No 840, 6th Main Road, D-Group Layout, Srigandadakaval, Bengaluru", "scope": "GOOGLE", "business_status": "OPERATIONAL", "types": ["atm", "bank", "finance", "point_of_interest", "establishment"], "icon": "https://maps.gstatic.com/mapfiles/place_api/icons/v1/png_71/atm-71.png"}, {"rating": 3.1, "user_ratings_total": 26, "name": "CANARA BANK - GENERAL BRANCH", "reference": "ChIJAeTENn49rjsRd0B99gBYRAU", "geometry": {"location": {"lat": 12.9756398, "lng": 77.4836656}, "viewport": {"northeast": {"lat": 12.9770816802915, "lng": 77.4849985802915}, "southwest": {"lat": 12.9743837197085, "lng": 77.4823006197085}}}, "place_id": "ChIJAeTENn49rjsRd0B99gBYRAU", "plus_code": {"global_code": "7J4VXFGM+7F", "compound_code": "XFGM+7F Bengaluru, Karnataka, India"}, "vicinity": "EAST WEST INSTITUTIONS, Vishwaneedam, POST, Sunkadakatte, Bengaluru", "photos": [{"photo_reference": "ATtYBwKcoBM3ofKg7UHszB9OZU8ZqNB10IGR1qWXnhv-6bCh0dYhWuasWzzhh-GIW2CDIxsl3lkGheL7G09lLMrExXXex0wX5Ks9TlZ3xDXKsGtk8k-LyuFdfjuLOStvmyBf-PC6hz-RdSFDQTg22T5W6N81f131K6z5MeG5SyjMeiM8wHE7", "width": 839, "html_attributions": ["<a href=\"https://maps.google.com/maps/contrib/115980119189282328859\">Kiran G</a>"], "height": 700}], "scope": "GOOGLE", "business_status": "OPERATIONAL", "types": ["bank", "finance", "point_of_interest", "establishment"], "icon": "https://maps.gstatic.com/mapfiles/place_api/icons/v1/png_71/bank-71.png"}, {"name": "HDFC Bank ATM", "reference": "ChIJiQ9xvVQ9rjsRP26ARh14ZcU", "geometry": {"location": {"lat": 12.9758477, "lng": 77.4831051}, "viewport": {"northeast": {"lat": 12.9770733302915, "lng": 77.48443563029151}, "southwest": {"lat": 12.9743753697085, "lng": 77.4817376697085}}}, "opening_hours": {"open_now": true}, "place_id": "ChIJiQ9xvVQ9rjsRP26ARh14ZcU", "plus_code": {"global_code": "7J4VXFGM+86", "compound_code": "XFGM+86 Bengaluru, Karnataka, India"}, "vicinity": "No, near East West Engineer College, F759, 14th Cross Road, Bharath Nagar, 1st stage, Bengaluru", "photos": [{"photo_reference": "ATtYBwKLdtldVo4B6Za6VHLtsY_vS8N4kxCKY8ozvLhpdnOrbUgfJYC3bPIu9mf6874eUHAwK0IlMlCTrzweNFFv7C0cIMPiE_DrMdUY2bFFH3swD9gG21gmupyJZcuUZxkRTtLQZefWjprjgwqbQeG5DCTxMf1gtA_Ba2-o7k4UagDi-85e", "width": 250, "html_attributions": ["<a href=\"https://maps.google.com/maps/contrib/103708905213616698305\">HDFC Bank ATM</a>"], "height": 250}], "scope": "GOOGLE", "business_status": "OPERATIONAL", "types": ["atm", "bank", "finance", "point_of_interest", "establishment"], "icon": "https://maps.gstatic.com/mapfiles/place_api/icons/v1/png_71/atm-71.png"}, {"name": "HDFC Bank ATM", "reference": "ChIJc7HMSVc9rjsRWn5GFu9RcFw", "geometry": {"location": {"lat": 12.9639778, "lng": 77.49728739999999}, "viewport": {"northeast": {"lat": 12.9653116302915, "lng": 77.4986658302915}, "southwest": {"lat": 12.96261366970849, "lng": 77.4959678697085}}}, "opening_hours": {"open_now": true}, "place_id": "ChIJc7HMSVc9rjsRWn5GFu9RcFw", "plus_code": {"global_code": "7J4VXF7W+HW", "compound_code": "XF7W+HW Bengaluru, Karnataka, India"}, "vicinity": "No 298, Chikka Basti Circle, Ramasandra Main Road, Vishweshwaraiah Layout, Bengaluru", "photos": [{"photo_reference": "ATtYBwKuOQHIodyjKDQSlSLcURdkBrm5OyThzM38QBaSEG0FmLnnD8y0_W12nS-f_9mjn9PTyV6YpW60GKTgh4DgXAZhMGzJZabEy2Vy2F4NgRbSM540OGdeYvE6L3XhwAHCOWuUrOvislSbYP1L5IW6zRQBLTWEJr16MOXAflM-yEUuM8g0", "width": 250, "html_attributions": ["<a href=\"https://maps.google.com/maps/contrib/105008034196938435903\">HDFC Bank ATM</a>"], "height": 250}], "scope": "GOOGLE", "business_status": "OPERATIONAL", "types": ["atm", "bank", "finance", "point_of_interest", "establishment"], "icon": "https://maps.gstatic.com/mapfiles/place_api/icons/v1/png_71/atm-71.png"}, {"rating": 5, "user_ratings_total": 1, "name": "Opp.Ullal RTO O", "reference": "ChIJFVBRvZ0_rjsRetpYJDD7O4M", "geometry": {"location": {"lat": 12.9608524, "lng": 77.4872683}, "viewport": {"northeast": {"lat": 12.9621996302915, "lng": 77.4886242302915}, "southwest": {"lat": 12.9595016697085, "lng": 77.48592626970849}}}, "opening_hours": {"open_now": true}, "place_id": "ChIJFVBRvZ0_rjsRetpYJDD7O4M", "plus_code": {"global_code": "7J4VXF6P+8W", "compound_code": "XF6P+8W Bengaluru, Karnataka, India"}, "vicinity": "Railway Mens Empyloyees Layout 2nd stage, SMV, Railway Layout, Jnana Ganga Nagar, Bengaluru", "photos": [{"photo_reference": "ATtYBwKPPa-HpJ4OpTw9nT3XyOWJvVRNCEwwWk_MplzlHkXCP9YWOLpMTu7LBlRLp2-kZVSKPFU86_NFbc8CfDDXEH3fXs8q8Mwp_zwQMABP-RkQtouVXx7xMKPrOc0YeYgyobVOaT48kudPKW7GW59BgQ5sh2I5h2zbsqP0u0hheSF6ohWa", "width": 3120, "html_attributions": ["<a href=\"https://maps.google.com/maps/contrib/109614073315761470588\">Rangaswamy C L k</a>"], "height": 4160}], "scope": "GOOGLE", "business_status": "OPERATIONAL", "types": ["bank", "finance", "point_of_interest", "establishment"], "icon": "https://maps.gstatic.com/mapfiles/place_api/icons/v1/png_71/bank-71.png"}, {"name": "ICICI Bank Bangalore - Bharath Nagar - Branch & ATM", "reference": "ChIJiSSMtiA9rjsREg3puCdiyW4", "geometry": {"location": {"lat": 12.977791, "lng": 77.483673}, "viewport": {"northeast": {"lat": 12.9792316802915, "lng": 77.48499393029151}, "southwest": {"lat": 12.9765337197085, "lng": 77.4822959697085}}}, "opening_hours": {"open_now": true}, "place_id": "ChIJiSSMtiA9rjsREg3puCdiyW4", "plus_code": {"global_code": "7J4VXFHM+4F", "compound_code": "XFHM+4F Bengaluru, Karnataka, India"}, "vicinity": "No 81/11 & 12, Bharath Nagar, BEL Layout, 1st Phase, Bangalore, Bengaluru", "scope": "GOOGLE", "business_status": "OPERATIONAL", "types": ["bank", "atm", "finance", "point_of_interest", "establishment"], "icon": "https://maps.gstatic.com/mapfiles/place_api/icons/v1/png_71/bank-71.png"}, {"rating": 5, "user_ratings_total": 2, "name": "VIJAYA BANK", "reference": "ChIJBRgcISQ8rjsREseKACT0X40", "geometry": {"location": {"lat": 12.9684945, "lng": 77.5005528}, "viewport": {"northeast": {"lat": 12.9698826302915, "lng": 77.5019176802915}, "southwest": {"lat": 12.9671846697085, "lng": 77.49921971970849}}}, "opening_hours": {"open_now": false}, "place_id": "ChIJBRgcISQ8rjsREseKACT0X40", "plus_code": {"global_code": "7J4VXG92+96", "compound_code": "XG92+96 Bengaluru, Karnataka, India"}, "vicinity": "Door no. 22, 60 Feet Road, ITI employees layout main road, Yashaswini Layout, Mallathahalli, Nagarbhavi, Bengaluru", "photos": [{"photo_reference": "ATtYBwLdI1-T4TaPs9SCV2PUMX2AD1Rejr5KM2jHk2lOKtqQTCKia5T7hNtdbjfOgZY5Xn8uFXHv2ZF9JUqi6GkuhbXBVdMDtEKnodxjhwWmywAX5M08PodYjsPr34z8JNR8888WLZxlQErBHs2oACoUEZwhQ68raNQhzIleaPYvv9hh3G9A", "width": 4032, "html_attributions": ["<a href=\"https://maps.google.com/maps/contrib/102267757770501566227\">Sangeetha Kamal</a>"], "height": 3024}], "scope": "GOOGLE", "business_status": "OPERATIONAL", "types": ["bank", "finance", "point_of_interest", "establishment"], "icon": "https://maps.gstatic.com/mapfiles/place_api/icons/v1/png_71/bank-71.png"}, {"rating": 1, "user_ratings_total": 1, "name": "State Bank of India", "reference": "ChIJwWjRzsw9rjsRd2XKelNURfY", "geometry": {"location": {"lat": 12.9798197, "lng": 77.4847802}, "viewport": {"northeast": {"lat": 12.9811752802915, "lng": 77.48609758029151}, "southwest": {"lat": 12.9784773197085, "lng": 77.4833996197085}}}, "opening_hours": {"open_now": false}, "place_id": "ChIJwWjRzsw9rjsRd2XKelNURfY", "plus_code": {"global_code": "7J4VXFHM+WW", "compound_code": "XFHM+WW Bengaluru, Karnataka, India"}, "vicinity": "F 165, BB Complex, East West College Main Road, BEL Layout, Bharat Nagar, Bengaluru", "scope": "GOOGLE", "business_status": "OPERATIONAL", "types": ["bank", "finance", "point_of_interest", "establishment"], "icon": "https://maps.gstatic.com/mapfiles/place_api/icons/v1/png_71/bank-71.png"}, {"name": "Axis Bank ATM", "reference": "ChIJu9Uk_V49rjsRivqyb3rCON4", "geometry": {"location": {"lat": 12.967054, "lng": 77.501747}, "viewport": {"northeast": {"lat": 12.9684295802915, "lng": 77.50310933029151}, "southwest": {"lat": 12.9657316197085, "lng": 77.5004113697085}}}, "opening_hours": {"open_now": true}, "place_id": "ChIJu9Uk_V49rjsRivqyb3rCON4", "plus_code": {"global_code": "7J4VXG82+RM", "compound_code": "XG82+RM Bengaluru, Karnataka, India"}, "vicinity": "near Deepa Complex, No 98, Ground Floor, near Deepa Complex, ITI Layout, Nagarbhavi 2nd Stage, Marathahalli, Bengaluru", "scope": "GOOGLE", "business_status": "OPERATIONAL", "types": ["atm", "bank", "finance", "point_of_interest", "establishment"], "icon": "https://maps.gstatic.com/mapfiles/place_api/icons/v1/png_71/atm-71.png"}, {"rating": 3, "user_ratings_total": 5, "name": "Axis Bank", "reference": "ChIJm6hTNEo9rjsRv_tSK_J1CPc", "geometry": {"location": {"lat": 12.967054, "lng": 77.501747}, "viewport": {"northeast": {"lat": 12.9684295802915, "lng": 77.50310933029151}, "southwest": {"lat": 12.9657316197085, "lng": 77.5004113697085}}}, "opening_hours": {"open_now": true}, "place_id": "ChIJm6hTNEo9rjsRv_tSK_J1CPc", "plus_code": {"global_code": "7J4VXG82+RM", "compound_code": "XG82+RM Bengaluru, Karnataka, India"}, "vicinity": "near Deepak Complex, No 98, Ground Floor, ITI Layout, near Deepak Complex, Nagarbhavi 2nd Stage, Marathahalli, Bengaluru", "scope": "GOOGLE", "business_status": "OPERATIONAL", "types": ["bank", "finance", "point_of_interest", "establishment"], "icon": "https://maps.gstatic.com/mapfiles/place_api/icons/v1/png_71/bank-71.png"}, {"name": "ICICI BANK ATM", "reference": "ChIJc0AnJSs9rjsRE6XW3Ffza38", "geometry": {"location": {"lat": 12.9809647, "lng": 77.4851837}, "viewport": {"northeast": {"lat": 12.9823273802915, "lng": 77.4864673802915}, "southwest": {"lat": 12.9796294197085, "lng": 77.4837694197085}}}, "opening_hours": {"open_now": true}, "place_id": "ChIJc0AnJSs9rjsRE6XW3Ffza38", "plus_code": {"global_code": "7J4VXFJP+93", "compound_code": "XFJP+93 Bengaluru, Karnataka, India"}, "vicinity": "Near, Ground Floor 1st Stage Bharath Nagar BBMP Ward No. 71, BEL, Bengaluru", "scope": "GOOGLE", "business_status": "OPERATIONAL", "types": ["bank", "finance", "point_of_interest", "establishment"], "icon": "https://maps.gstatic.com/mapfiles/place_api/icons/v1/png_71/bank-71.png"}, {"name": "Bank Of Baroda", "reference": "ChIJD34YVQI8rjsRgO_0-d9zC7k", "geometry": {"location": {"lat": 12.964325, "lng": 77.478656}, "viewport": {"northeast": {"lat": 12.9656675802915, "lng": 77.48000408029151}, "southwest": {"lat": 12.9629696197085, "lng": 77.4773061197085}}}, "opening_hours": {"open_now": false}, "place_id": "ChIJD34YVQI8rjsRgO_0-d9zC7k", "plus_code": {"global_code": "7J4VXF7H+PF", "compound_code": "XF7H+PF Ullal, Karnataka, India"}, "vicinity": "Pavadashree Basavanna Devara Mutt, Pavada, Sondekoppa Main Road, Nelamangala Town", "photos": [{"photo_reference": "ATtYBwKn4h9LuSicT6nlI0vWbH056kmDY0wTZk7Pt6YyXkprBfV7LPeCkBjKHMWRu26m4l09OPQekmAevgCfBDqOiLvv_mWvOBgSP_WD5O4GRC4r15WWf75UXtBiShU04YM1d1L4_tuvlYZkLKpj0qaK-1NCwnHaN7FptPl3sCQd7bGNm5mU", "width": 512, "html_attributions": ["<a href=\"https://maps.google.com/maps/contrib/114763853167130508071\">Bank Of Baroda</a>"], "height": 288}], "scope": "GOOGLE", "business_status": "OPERATIONAL", "types": ["bank", "finance", "point_of_interest", "establishment"], "icon": "https://maps.gstatic.com/mapfiles/place_api/icons/v1/png_71/bank-71.png"}]}