{"status": "OK", "next_page_token": "ATtYBwKCN2A1i8Opfdd5xB2bgzwJb77Qt6ucNHVIqeeO9SELbX7OH_gpHej9r2WldgpA7DkhkF4o43ax8j27SyieNXMlMalqOUS-Jvrjm807yee87TpM-XE4xYWIdgPCbSF7lioBFXNlPYwjWizn1SY2v7atEha3Oeps-Td83_-j6myUZGcnXLBM6Wk1-ijOBA-NWcMBpMUk_-p0tfTpev_fJ2-DJi2SJ9GzLqKt3YVU2MAfE3vzAs0XTtBSt8vRxWmtxWEfo2AXEa1JZOeULLfi0j09p6k44jZ514mBGw6pw6Us8UWnZtWFN645fKc_NAur3C2oAA2W6cA-tEyBIv0TLNXK70bx7G5kTr7zoipgQZwdzwpy3f-xg8tgd7_zgkF3nCKwQ_uwvBJBI0rHHRngOANC4v-_ibhdHU2woRp3eSAlIbQeSSJA9fefQpv0omMQCHk-yjmg83hIK0LbLbVVxbQhPpJBNdoMmwSLiu7l-2_2w6FzcpqSvt6z-c67om8aIYQDkYBfLgEYW9XIeX3l74TnbbHmp9mU89QnstaCiNp51ayX2T8e8A8GyGIKAS4xNN1voofoXj4bkFBpz56Q-YGqoCtxq7vyCiuqGyFB_Ougvxk0RXqLYG1EaPzt0VwS91I", "html_attributions": [], "results": [{"permanently_closed": true, "name": "Tender Hearts School - A Modern Islamic School", "reference": "ChIJUaOdBg_kDDkRIQfqYVriASo", "geometry": {"location": {"lat": 28.5528396, "lng": 77.29466219999999}, "viewport": {"northeast": {"lat": 28.5541792802915, "lng": 77.2959890302915}, "southwest": {"lat": 28.5514813197085, "lng": 77.29329106970849}}}, "place_id": "ChIJUaOdBg_kDDkRIQfqYVriASo", "plus_code": {"global_code": "7JWVH73V+4V", "compound_code": "H73V+4V Delhi, India"}, "vicinity": "1, L 49, Hari Kothi Road, Abul Fazal Enclave, Jamia Nagar, Delhi", "scope": "GOOGLE", "business_status": "CLOSED_TEMPORARILY", "types": ["school", "point_of_interest", "establishment"], "icon": "https://maps.gstatic.com/mapfiles/place_api/icons/v1/png_71/school-71.png"}, {"rating": 5, "user_ratings_total": 1, "permanently_closed": true, "name": "Heritage Global School", "reference": "ChIJx5giUQ7kDDkRm8Lp9r_yNJQ", "geometry": {"location": {"lat": 28.553853, "lng": 77.295553}, "viewport": {"northeast": {"lat": 28.5552061802915, "lng": 77.29690113029152}, "southwest": {"lat": 28.5525082197085, "lng": 77.2942031697085}}}, "place_id": "ChIJx5giUQ7kDDkRm8Lp9r_yNJQ", "vicinity": "G-44, Jamia Nagar, Jasola, New Delhi", "scope": "GOOGLE", "business_status": "CLOSED_TEMPORARILY", "types": ["school", "point_of_interest", "establishment"], "icon": "https://maps.gstatic.com/mapfiles/place_api/icons/v1/png_71/school-71.png"}, {"rating": 4.6, "user_ratings_total": 25, "name": "PIRO Technologies private limited", "reference": "ChIJ1_o9OhzkDDkRo_i2tuyuHQg", "geometry": {"location": {"lat": 28.5435667, "lng": 77.2997184}, "viewport": {"northeast": {"lat": 28.5445761802915, "lng": 77.30154518029151}, "southwest": {"lat": 28.54187821970849, "lng": 77.2988472197085}}}, "opening_hours": {"open_now": false}, "place_id": "ChIJ1_o9OhzkDDkRo_i2tuyuHQg", "plus_code": {"global_code": "7JWVG7VX+CV", "compound_code": "G7VX+CV New Delhi, Delhi, India"}, "vicinity": "G-78, 1st Floor, GD Birla Marg, Kalindi Kunj Road, New Delhi", "photos": [{"photo_reference": "ATtYBwKzY0IkO_gEuT0s8YFW2mDVgI4K-eQcxHH6YArCv_SQbqKk3a7OxlHGl_gOiSMK0ySlsE2XJTozvDJkB7nEcMMv4bcmH3HOoPYOPWZ9gemew3O56N5ly59A4DnJ9ED7y_ohChCRRnPJ2ocQHNuVolUF0fUxq-O5ykBKnocUkmLbzhzi", "width": 1034, "html_attributions": ["<a href=\"https://maps.google.com/maps/contrib/105801776656134729880\">PIRO Technologies private limited</a>"], "height": 570}], "scope": "GOOGLE", "business_status": "OPERATIONAL", "types": ["school", "point_of_interest", "establishment"], "icon": "https://maps.gstatic.com/mapfiles/place_api/icons/v1/png_71/generic_business-71.png"}, {"rating": 4.3, "user_ratings_total": 38, "name": "Action for Autism", "reference": "ChIJeQ_1egPkDDkR12ufSQ9Z_AY", "geometry": {"location": {"lat": 28.5441186, "lng": 77.2956902}, "viewport": {"northeast": {"lat": 28.5453790302915, "lng": 77.2970914802915}, "southwest": {"lat": 28.5426810697085, "lng": 77.29439351970849}}}, "opening_hours": {"open_now": false}, "place_id": "ChIJeQ_1egPkDDkR12ufSQ9Z_AY", "plus_code": {"global_code": "7JWVG7VW+J7", "compound_code": "G7VW+J7 New Delhi, Delhi, India"}, "vicinity": "Allama Shibli Nomani Road, Pocket 7 & 8, Jasola Vihar, New Delhi", "photos": [{"photo_reference": "ATtYBwKsNbtZnZbnt3QNw-WeyPtIFZ555b1W8SUfGWcVByQjLpY5OXoQ9EtPTpMtNEsxUmEB2aldrnWG523fxJa-VMH8y_SwXSDkX6wY6uzsBh2OYlFu53_G132FK0-gFPh3wqStTmn_zuHeikfnIbLFvfIcQuvobCkxL_q5t6ySc09L-Aik", "width": 4128, "html_attributions": ["<a href=\"https://maps.google.com/maps/contrib/106326807909776323741\">Vishwas Apratim</a>"], "height": 3096}], "scope": "GOOGLE", "business_status": "OPERATIONAL", "types": ["school", "point_of_interest", "establishment"], "icon": "https://maps.gstatic.com/mapfiles/place_api/icons/v1/png_71/school-71.png"}, {"rating": 4.9, "user_ratings_total": 10, "name": "Milli Model School", "reference": "ChIJCVYZHAzkDDkR_S3PXFLWV1E", "geometry": {"location": {"lat": 28.5556729, "lng": 77.294041}, "viewport": {"northeast": {"lat": 28.5568889802915, "lng": 77.2954506802915}, "southwest": {"lat": 28.5541910197085, "lng": 77.29275271970849}}}, "opening_hours": {"open_now": false}, "place_id": "ChIJCVYZHAzkDDkR_S3PXFLWV1E", "plus_code": {"global_code": "7JWVH74V+7J", "compound_code": "H74V+7J New Delhi, Delhi, India"}, "vicinity": "309, Abul Fazal Enclave, Part-1 Block D, Jamia Nagar, Okhla, New Delhi", "photos": [{"photo_reference": "ATtYBwK4-0KozcwAmtwDO3fkmfXaD6ce6LtEsfrItmDoIq3TYQLbW0gtDDzMmD1Y1DGymX3vlL5Bv5kfV2BGjoEsyE9DhXZ1O76Ll2IPhV1taizIt1tyb81Z-F2rzSx35d3uiGKL6rEMG2wGU42So0f0BGHflpkDNsmv6th1B_yHM1P8Qguu", "width": 4821, "html_attributions": ["<a href=\"https://maps.google.com/maps/contrib/100689574607420693977\">Mohd Irshad Alam</a>"], "height": 3888}], "scope": "GOOGLE", "business_status": "OPERATIONAL", "types": ["school", "point_of_interest", "establishment"], "icon": "https://maps.gstatic.com/mapfiles/place_api/icons/v1/png_71/school-71.png"}, {"rating": 3.9, "user_ratings_total": 184, "name": "DAV Public School", "reference": "ChIJa4CWTavmDDkRSdbu9oDXwRk", "geometry": {"location": {"lat": 28.5428802, "lng": 77.2960545}, "viewport": {"northeast": {"lat": 28.5441380302915, "lng": 77.2971618802915}, "southwest": {"lat": 28.5414400697085, "lng": 77.29446391970849}}}, "opening_hours": {"open_now": false}, "place_id": "ChIJa4CWTavmDDkRSdbu9oDXwRk", "plus_code": {"global_code": "7JWVG7VW+5C", "compound_code": "G7VW+5C New Delhi, Delhi, India"}, "vicinity": "Plot No 3 ,Pocket 6 ,SARITA VIHAR CHAUHAN MARG OPP PKT, New Delhi", "photos": [{"photo_reference": "ATtYBwK3Yt8C7jGu3sVORHm9zpCZONN5bsD1D3zzTJG6eRzURI5_L_G28t4biccyl3qqq_TRzfZMJUemLMDQnbJLkwm2-W2avO8xkZg1kEm4gcorAvO9CLklJocw4cV0YQUIvlhpPouZz8I4nB65l6JC6DaFe1x-II-k7Xugq_B4eszmrkYn", "width": 4608, "html_attributions": ["<a href=\"https://maps.google.com/maps/contrib/117265697738752811294\">Vikas Bhalla</a>"], "height": 3456}], "scope": "GOOGLE", "business_status": "OPERATIONAL", "types": ["school", "point_of_interest", "establishment"], "icon": "https://maps.gstatic.com/mapfiles/place_api/icons/v1/png_71/school-71.png"}, {"rating": 4.7, "user_ratings_total": 7, "permanently_closed": true, "name": "Dreamville Royale Playschool", "reference": "ChIJGYMrpQPkDDkRlt1kK4LIoEk", "geometry": {"location": {"lat": 28.5426447, "lng": 77.2943997}, "viewport": {"northeast": {"lat": 28.5439487302915, "lng": 77.29577393029152}, "southwest": {"lat": 28.54125076970849, "lng": 77.2930759697085}}}, "place_id": "ChIJGYMrpQPkDDkRlt1kK4LIoEk", "plus_code": {"global_code": "7JWVG7VV+3Q", "compound_code": "G7VV+3Q New Delhi, Delhi, India"}, "vicinity": "87, Pocket 2, Jasola, New Delhi", "photos": [{"photo_reference": "ATtYBwL9HCnnPM9Ja06Zccv4HREg8ms8lDjGlr1j_miMBpM2ENMXdS4zHVErbgkJ-14RGr9sdMNX_tmiKwn9UFCqGr6WrzdnjS2MS7dQN7QvbgSglmYYxtCjSXcTbffTZ1ZpdmA8yTE-YUS4p3iXB_pb4QaYmlrpbvLD1_-rt1xDLtn7llPa", "width": 2592, "html_attributions": ["<a href=\"https://maps.google.com/maps/contrib/105065121392082008005\">mohammad raza</a>"], "height": 4608}], "scope": "GOOGLE", "business_status": "CLOSED_TEMPORARILY", "types": ["school", "point_of_interest", "establishment"], "icon": "https://maps.gstatic.com/mapfiles/place_api/icons/v1/png_71/school-71.png"}, {"rating": 4.9, "user_ratings_total": 304, "permanently_closed": true, "name": "Sanskar Pre School & Day care", "reference": "ChIJ1xVb86fmDDkReP5ev8lfp8w", "geometry": {"location": {"lat": 28.5385464, "lng": 77.29842289999999}, "viewport": {"northeast": {"lat": 28.53986573029151, "lng": 77.29968808029149}, "southwest": {"lat": 28.5371677697085, "lng": 77.29699011970848}}}, "place_id": "ChIJ1xVb86fmDDkReP5ev8lfp8w", "plus_code": {"global_code": "7JWVG7QX+C9", "compound_code": "G7QX+C9 New Delhi, Delhi, India"}, "vicinity": "7-A, Pocket M, Sarita Vihar, New Delhi", "photos": [{"photo_reference": "ATtYBwIBozzqOMkX-iD5TyU2vBj4_-PgFDVhKKNDGVtU6vQHW_LqC8xP4I96PETi01xtQCeiSL-JSbArUC8dDNysvGBqqsAGP_l-BcdGumX-wsHffxy9SWW2jvd7gCahefkSZiqbgCbClag0oMeL7LtvAswbJN30kegt6VFvmx1Aw8GiryOL", "width": 1094, "html_attributions": ["<a href=\"https://maps.google.com/maps/contrib/103826595087140276657\">Sanskar Pre School &amp; Day care</a>"], "height": 730}], "scope": "GOOGLE", "business_status": "CLOSED_TEMPORARILY", "types": ["school", "point_of_interest", "establishment"], "icon": "https://maps.gstatic.com/mapfiles/place_api/icons/v1/png_71/school-71.png"}, {"rating": 4.8, "user_ratings_total": 38, "name": "Listening Ears Jasola - Speech Therapy, Special Education, Center For Autism", "reference": "ChIJvSnD9AHkDDkRxO8auegH4aI", "geometry": {"location": {"lat": 28.5400315, "lng": 77.29203199999999}, "viewport": {"northeast": {"lat": 28.5414808802915, "lng": 77.2933288302915}, "southwest": {"lat": 28.5387829197085, "lng": 77.2906308697085}}}, "opening_hours": {"open_now": false}, "place_id": "ChIJvSnD9AHkDDkRxO8auegH4aI", "plus_code": {"global_code": "7JWVG7RR+2R", "compound_code": "G7RR+2R New Delhi, Delhi, India"}, "vicinity": "FC 33, Plot 13, Institutional Area, Jasola, New Delhi", "photos": [{"photo_reference": "ATtYBwLsoxR8tsSWbmFFtuU0t2itMwpgQAw_fQhxGLPYdoLlIotPZw2O5_XsXhFsYYiFv1c79TanyNtmI3996keDKWV0ONNrHZEyf9radP7Eu81mVV3XhsZqmpV5qBWzD2geAd9Sl0eRfKPyvEOlu7kvRN99OPkE7ZFTj9yTLMA4yyn2OhS-", "width": 1080, "html_attributions": ["<a href=\"https://maps.google.com/maps/contrib/102323891586927588668\">Listening Ears Jasola - Speech Therapy, Special Education, Center For Autism</a>"], "height": 608}], "scope": "GOOGLE", "business_status": "OPERATIONAL", "types": ["school", "health", "point_of_interest", "establishment"], "icon": "https://maps.gstatic.com/mapfiles/place_api/icons/v1/png_71/generic_business-71.png"}, {"rating": 5, "user_ratings_total": 1, "permanently_closed": true, "name": "The national public school", "reference": "ChIJxyj6zQzkDDkR7n2F1TvacmM", "geometry": {"location": {"lat": 28.5615257, "lng": 77.294364}, "viewport": {"northeast": {"lat": 28.56288608029151, "lng": 77.29571548029149}, "southwest": {"lat": 28.5601881197085, "lng": 77.29301751970848}}}, "place_id": "ChIJxyj6zQzkDDkR7n2F1TvacmM", "plus_code": {"global_code": "7JWVH76V+JP", "compound_code": "H76V+JP New Delhi, Delhi, India"}, "vicinity": "m-72, Kalindi Kunj Road, Pamposh Enclave, Okhla, New Delhi", "scope": "GOOGLE", "business_status": "CLOSED_TEMPORARILY", "types": ["school", "point_of_interest", "establishment"], "icon": "https://maps.gstatic.com/mapfiles/place_api/icons/v1/png_71/school-71.png"}, {"rating": 3.8, "user_ratings_total": 50, "name": "ADDZONE HOSPITALITY PROMOTION SERVICES", "reference": "ChIJE7F56HTkDDkRqRSLWGGq7mw", "geometry": {"location": {"lat": 28.550147, "lng": 77.29977029999999}, "viewport": {"northeast": {"lat": 28.55150013029151, "lng": 77.30112398029151}, "southwest": {"lat": 28.5488021697085, "lng": 77.2984260197085}}}, "opening_hours": {"open_now": true}, "place_id": "ChIJE7F56HTkDDkRqRSLWGGq7mw", "plus_code": {"global_code": "7JWVH72X+3W", "compound_code": "H72X+3W New Delhi, Delhi, India"}, "vicinity": "A 60, Third Floor, Street Number 6, Shaheen Bagh, Jamia Nagar, New Delhi", "scope": "GOOGLE", "business_status": "OPERATIONAL", "types": ["school", "point_of_interest", "establishment"], "icon": "https://maps.gstatic.com/mapfiles/place_api/icons/v1/png_71/generic_business-71.png"}, {"permanently_closed": true, "name": "Best english classes", "reference": "ChIJl674KqHlDDkRTGV4vMeHQmM", "geometry": {"location": {"lat": 28.5505016, "lng": 77.30025359999999}, "viewport": {"northeast": {"lat": 28.5518085302915, "lng": 77.3015474802915}, "southwest": {"lat": 28.5491105697085, "lng": 77.2988495197085}}}, "place_id": "ChIJl674KqHlDDkRTGV4vMeHQmM", "plus_code": {"global_code": "7JWVH822+64", "compound_code": "H822+64 New Delhi, Delhi, India"}, "vicinity": "Unnamed Road, Shaheen Bagh, Block B, Jamia Nagar, Jasola, New Delhi", "scope": "GOOGLE", "business_status": "CLOSED_TEMPORARILY", "types": ["school", "point_of_interest", "establishment"], "icon": "https://maps.gstatic.com/mapfiles/place_api/icons/v1/png_71/school-71.png"}, {"permanently_closed": true, "name": "Blue Balloon", "reference": "ChIJnwK88hrkDDkRcEbHzDkF280", "geometry": {"location": {"lat": 28.5494202, "lng": 77.3001998}, "viewport": {"northeast": {"lat": 28.5507541302915, "lng": 77.3015802802915}, "southwest": {"lat": 28.5480561697085, "lng": 77.2988823197085}}}, "place_id": "ChIJnwK88hrkDDkRcEbHzDkF280", "vicinity": "near Al Nazeer Restaurant, N-166, Thokar Number 6, Abul Fazal Enclave Part 1, New Delhi", "scope": "GOOGLE", "business_status": "CLOSED_TEMPORARILY", "types": ["school", "point_of_interest", "establishment"], "icon": "https://maps.gstatic.com/mapfiles/place_api/icons/v1/png_71/school-71.png"}, {"permanently_closed": true, "name": "Alen music", "reference": "ChIJW4EdEkTlDDkRTr6VD34gpoU", "geometry": {"location": {"lat": 28.549596, "lng": 77.2994494}, "viewport": {"northeast": {"lat": 28.55096238029151, "lng": 77.3008223802915}, "southwest": {"lat": 28.5482644197085, "lng": 77.2981244197085}}}, "place_id": "ChIJW4EdEkTlDDkRTr6VD34gpoU", "plus_code": {"global_code": "7JWVG7XX+RQ", "compound_code": "G7XX+RQ New Delhi, Delhi, India"}, "vicinity": "inayat apartment, Shaheen bagh thokar no 6, A-102 building, New Delhi", "scope": "GOOGLE", "business_status": "CLOSED_TEMPORARILY", "types": ["school", "point_of_interest", "establishment"], "icon": "https://maps.gstatic.com/mapfiles/place_api/icons/v1/png_71/school-71.png"}, {"permanently_closed": true, "name": "Ansari Manzil", "reference": "ChIJmyXKP3vlDDkRBF4E3cinz5Q", "geometry": {"location": {"lat": 28.5503918, "lng": 77.3006784}, "viewport": {"northeast": {"lat": 28.5517675802915, "lng": 77.30205648029151}, "southwest": {"lat": 28.54906961970849, "lng": 77.29935851970849}}}, "place_id": "ChIJmyXKP3vlDDkRBF4E3cinz5Q", "plus_code": {"global_code": "7JWVH822+57", "compound_code": "H822+57 New Delhi, Delhi, India"}, "vicinity": "Lane Number 2, Block B, Jamia Nagar, Jasola, New Delhi", "scope": "GOOGLE", "business_status": "CLOSED_TEMPORARILY", "types": ["school", "point_of_interest", "establishment"], "icon": "https://maps.gstatic.com/mapfiles/place_api/icons/v1/png_71/school-71.png"}, {"permanently_closed": true, "name": "Skylark Public School", "reference": "ChIJ9ZwVAmHlDDkRaFsZCwX9pW8", "geometry": {"location": {"lat": 28.5503733, "lng": 77.3008028}, "viewport": {"northeast": {"lat": 28.5517068802915, "lng": 77.3021340302915}, "southwest": {"lat": 28.54900891970849, "lng": 77.29943606970849}}}, "place_id": "ChIJ9ZwVAmHlDDkRaFsZCwX9pW8", "plus_code": {"global_code": "7JWVH822+48", "compound_code": "H822+48 Okhla, New Delhi, Delhi, India"}, "vicinity": "A 9, Shaheen Bagh, Jamia Nagar, Okhla", "scope": "GOOGLE", "business_status": "CLOSED_TEMPORARILY", "types": ["school", "point_of_interest", "establishment"], "icon": "https://maps.gstatic.com/mapfiles/place_api/icons/v1/png_71/school-71.png"}, {"rating": 4, "user_ratings_total": 1, "permanently_closed": true, "name": "Alen music institute", "reference": "ChIJN-FKYQ3lDDkRqZVESf0-gRo", "geometry": {"location": {"lat": 28.5495326, "lng": 77.2992344}, "viewport": {"northeast": {"lat": 28.5508442302915, "lng": 77.3004923802915}, "southwest": {"lat": 28.5481462697085, "lng": 77.2977944197085}}}, "place_id": "ChIJN-FKYQ3lDDkRqZVESf0-gRo", "plus_code": {"global_code": "7JWVG7XX+RM", "compound_code": "G7XX+RM New Delhi, Delhi, India"}, "vicinity": "118, Maulana Azad Road, Shaheen Bagh, Block A, Jamia Nagar, Okhla, New Delhi", "scope": "GOOGLE", "business_status": "CLOSED_TEMPORARILY", "types": ["school", "point_of_interest", "establishment"], "icon": "https://maps.gstatic.com/mapfiles/place_api/icons/v1/png_71/school-71.png"}, {"permanently_closed": true, "name": "Al Zameer Coaching Center", "reference": "ChIJYSam7hrkDDkRSh6XejK-eXI", "geometry": {"location": {"lat": 28.5490806, "lng": 77.2998195}, "viewport": {"northeast": {"lat": 28.5504351802915, "lng": 77.3011755802915}, "southwest": {"lat": 28.5477372197085, "lng": 77.29847761970849}}}, "place_id": "ChIJYSam7hrkDDkRSh6XejK-eXI", "plus_code": {"global_code": "7JWVG7XX+JW", "compound_code": "G7XX+JW New Delhi, Delhi, India"}, "vicinity": "Shaheen Bagh, Shaheen Bagh, Jamia Nagar, Okhla, New Delhi", "scope": "GOOGLE", "business_status": "CLOSED_TEMPORARILY", "types": ["school", "point_of_interest", "establishment"], "icon": "https://maps.gstatic.com/mapfiles/place_api/icons/v1/png_71/school-71.png"}, {"rating": 4.3, "user_ratings_total": 6, "permanently_closed": true, "name": "Little Genius School", "reference": "ChIJh4gdpBrkDDkRPna_bpold9E", "geometry": {"location": {"lat": 28.5504105, "lng": 77.299035}, "viewport": {"northeast": {"lat": 28.5517978802915, "lng": 77.30035508029151}, "southwest": {"lat": 28.5490999197085, "lng": 77.29765711970849}}}, "place_id": "ChIJh4gdpBrkDDkRPna_bpold9E", "plus_code": {"global_code": "7JWVH72X+5J", "compound_code": "H72X+5J New Delhi, Delhi, India"}, "vicinity": "A 94 6, Thokar No 8, Abul Fazal Enclave Part 2, Jamia Nagar, Okhla, New Delhi", "photos": [{"photo_reference": "ATtYBwJ-887v5g2U_n7BQu4sNJEoMhuMkUKkaCqvRRE_S9Aj0dUpqQVMYLTPcBQfVuLlxZzCldw7EcKJ-d_6wdruaeFGvmulMisGVLx2cmIfrE1VMOZfY5m25P_Mt1hv-FWZnKuyvVkoItIpXDMll6KvO0lQc93j7KOEQ7C2aB3HefEItkZy", "width": 4128, "html_attributions": ["<a href=\"https://maps.google.com/maps/contrib/103721153082042420859\">Congress Dilse</a>"], "height": 2322}], "scope": "GOOGLE", "business_status": "CLOSED_TEMPORARILY", "types": ["school", "point_of_interest", "establishment"], "icon": "https://maps.gstatic.com/mapfiles/place_api/icons/v1/png_71/school-71.png"}, {"rating": 5, "user_ratings_total": 2, "name": "Spoken English with Sohrab Sir", "reference": "ChIJf6Rlr93lDDkR_VTifmt2vng", "geometry": {"location": {"lat": 28.5495269, "lng": 77.2988974}, "viewport": {"northeast": {"lat": 28.5508941302915, "lng": 77.30030013029152}, "southwest": {"lat": 28.5481961697085, "lng": 77.29760216970851}}}, "place_id": "ChIJf6Rlr93lDDkR_VTifmt2vng", "plus_code": {"global_code": "7JWVG7XX+RH", "compound_code": "G7XX+RH New Delhi, Delhi, India"}, "vicinity": "A-126/5 fourth floor, Thokar No 6, Shaheen Bagh, New Delhi", "photos": [{"photo_reference": "ATtYBwLw7V2I12sczplu0pt8HH6iVwIcBlHbhmBejdeRSREGyA3rcafyGS-woG4p_iL8pinyBlqY4c_lanfTPSlHwqeSAVArETz3c7vrtCZrHQ9SZ4k-BGTB8USeGZwSiWVK-NcSx8ihw0WH3hDbZaKKv0vFoyu9sDWrpaaaweEXzaJ342Ut", "width": 2560, "html_attributions": ["<a href=\"https://maps.google.com/maps/contrib/105250306993370413121\">Spoken English with Sohrab Sir</a>"], "height": 1440}], "scope": "GOOGLE", "business_status": "OPERATIONAL", "types": ["school", "point_of_interest", "establishment"], "icon": "https://maps.gstatic.com/mapfiles/place_api/icons/v1/png_71/school-71.png"}]}