{"status": "OK", "html_attributions": [], "results": [{"rating": 4, "user_ratings_total": 26, "name": "Rajkiya Sarvodya Kanya Vidyalaya", "reference": "ChIJ7Y8beejkDDkRTRV7T__1knI", "geometry": {"location": {"lat": 28.6068739, "lng": 77.3207943}, "viewport": {"northeast": {"lat": 28.6082991302915, "lng": 77.32229508029151}, "southwest": {"lat": 28.6056011697085, "lng": 77.3195971197085}}}, "opening_hours": {"open_now": false}, "place_id": "ChIJ7Y8beejkDDkRTRV7T__1knI", "plus_code": {"global_code": "7JWVJ84C+P8", "compound_code": "J84C+P8 New Delhi, Delhi, India"}, "vicinity": "15, Dallupura Road, Harijan Basti, Kondli, New Delhi", "photos": [{"photo_reference": "ATtYBwKxIlGGjLW4Hg0OgGyRiWo4JSu1-ranuVUdb1Msvs8_EiIaUaKpPELljyBerarUYlGGEj3JFrsYuHwM7YVUA1VILOduhTbMNOWX9eEgsslQHK8cCyMZd6NCuXADBXAZ2crrbht8-2BOc5J20N73lFLKR5JKBFiMIwb5hm3bV1jkl6uR", "width": 2322, "html_attributions": ["<a href=\"https://maps.google.com/maps/contrib/113350142835193691261\">Thepoor Kid</a>"], "height": 4128}], "scope": "GOOGLE", "business_status": "OPERATIONAL", "types": ["school", "point_of_interest", "establishment"], "icon": "https://maps.gstatic.com/mapfiles/place_api/icons/v1/png_71/school-71.png"}, {"rating": 5, "user_ratings_total": 6, "name": "National Herald Public School", "reference": "ChIJh5Phd93kDDkR5u1cn4f_SKg", "geometry": {"location": {"lat": 28.6113215, "lng": 77.32382090000002}, "viewport": {"northeast": {"lat": 28.6126482302915, "lng": 77.3252193302915}, "southwest": {"lat": 28.6099502697085, "lng": 77.3225213697085}}}, "place_id": "ChIJh5Phd93kDDkR5u1cn4f_SKg", "plus_code": {"global_code": "7JWVJ86F+GG", "compound_code": "J86F+GG New Delhi, Delhi, India"}, "vicinity": "Nirvan Mohalla, Block E, Kondli, New Delhi", "scope": "GOOGLE", "business_status": "OPERATIONAL", "types": ["school", "point_of_interest", "establishment"], "icon": "https://maps.gstatic.com/mapfiles/place_api/icons/v1/png_71/school-71.png"}, {"rating": 4, "user_ratings_total": 10, "name": "Navodit Public School", "reference": "ChIJcYFumujkDDkRNYVIfjYK04E", "geometry": {"location": {"lat": 28.6063685, "lng": 77.3202948}, "viewport": {"northeast": {"lat": 28.6077568802915, "lng": 77.32167598029152}, "southwest": {"lat": 28.6050589197085, "lng": 77.3189780197085}}}, "place_id": "ChIJcYFumujkDDkRNYVIfjYK04E", "plus_code": {"global_code": "7JWVJ84C+G4", "compound_code": "J84C+G4 New Delhi, Delhi, India"}, "vicinity": "Dallupura, New Delhi", "photos": [{"photo_reference": "ATtYBwKGo5YCln-LyRF98c6IrfQm40WB4zgw1PrEo9sRymxPSNP1Xp87H2-LducmCqNJsLyroycpE9u7cNmFoP3gfldUP0TXoWPsxE6hzUff1FYeRjKvUSnhMdMYQ5i6_pnHba4G_ag9AUnMyQASwkv0L-4vQ6saJNE0Iw3J05VZ9eADAVld", "width": 4032, "html_attributions": ["<a href=\"https://maps.google.com/maps/contrib/100020708536462761066\">Alina Sagar</a>"], "height": 3024}], "scope": "GOOGLE", "business_status": "OPERATIONAL", "types": ["school", "point_of_interest", "establishment"], "icon": "https://maps.gstatic.com/mapfiles/place_api/icons/v1/png_71/school-71.png"}, {"name": "Bittu Boss kirana Store", "reference": "ChIJS5w3GfPlDDkREJ7njiPsD8U", "geometry": {"location": {"lat": 28.6070229, "lng": 77.3175219}, "viewport": {"northeast": {"lat": 28.6083867802915, "lng": 77.31888078029151}, "southwest": {"lat": 28.6056888197085, "lng": 77.3161828197085}}}, "place_id": "ChIJS5w3GfPlDDkREJ7njiPsD8U", "plus_code": {"global_code": "7JWVJ849+R2", "compound_code": "J849+R2 New Delhi, Delhi, India"}, "vicinity": "Unnamed Road, Dallupura, New Delhi", "scope": "GOOGLE", "business_status": "OPERATIONAL", "types": ["school", "point_of_interest", "establishment"], "icon": "https://maps.gstatic.com/mapfiles/place_api/icons/v1/png_71/school-71.png"}, {"name": "Birth boss", "reference": "ChIJLXU-XQrlDDkRoE84zIr5sz4", "geometry": {"location": {"lat": 28.6071125, "lng": 77.317375}, "viewport": {"northeast": {"lat": 28.6084657802915, "lng": 77.3187268802915}, "southwest": {"lat": 28.6057678197085, "lng": 77.3160289197085}}}, "place_id": "ChIJLXU-XQrlDDkRoE84zIr5sz4", "plus_code": {"global_code": "7JWVJ848+RW", "compound_code": "J848+RW New Delhi, Delhi, India"}, "vicinity": "Unnamed Road, Dallupura, New Delhi", "scope": "GOOGLE", "business_status": "OPERATIONAL", "types": ["school", "point_of_interest", "establishment"], "icon": "https://maps.gstatic.com/mapfiles/place_api/icons/v1/png_71/school-71.png"}, {"permanently_closed": true, "name": "Champion Gym", "reference": "ChIJ7_kC6wflDDkRxaRLwZaS79k", "geometry": {"location": {"lat": 28.6126306, "lng": 77.3230899}, "viewport": {"northeast": {"lat": 28.6139933302915, "lng": 77.3244483802915}, "southwest": {"lat": 28.6112953697085, "lng": 77.3217504197085}}}, "place_id": "ChIJ7_kC6wflDDkRxaRLwZaS79k", "plus_code": {"global_code": "7JWVJ87F+36", "compound_code": "J87F+36 Kondli, New Delhi, India"}, "vicinity": "Unnamed Road, Block A, Kondli", "scope": "GOOGLE", "business_status": "CLOSED_TEMPORARILY", "types": ["school", "point_of_interest", "establishment"], "icon": "https://maps.gstatic.com/mapfiles/place_api/icons/v1/png_71/school-71.png"}, {"rating": 3.2, "user_ratings_total": 10, "permanently_closed": true, "name": "Indal Memorial Public School", "reference": "ChIJUZbkGt3kDDkRy1sBp1MSvLA", "geometry": {"location": {"lat": 28.612758, "lng": 77.322981}, "viewport": {"northeast": {"lat": 28.6141286802915, "lng": 77.3242833802915}, "southwest": {"lat": 28.6114307197085, "lng": 77.3215854197085}}}, "place_id": "ChIJUZbkGt3kDDkRy1sBp1MSvLA", "plus_code": {"global_code": "7JWVJ87F+45", "compound_code": "J87F+45 Delhi, India"}, "vicinity": "Dallupura Road, Block A, Old Kondli, Delhi", "scope": "GOOGLE", "business_status": "CLOSED_TEMPORARILY", "types": ["school", "point_of_interest", "establishment"], "icon": "https://maps.gstatic.com/mapfiles/place_api/icons/v1/png_71/school-71.png"}, {"permanently_closed": true, "name": "Sanfeep", "reference": "ChIJB6EXZyvlDDkRUChe8SMoAZg", "geometry": {"location": {"lat": 28.6069444, "lng": 77.31716399999999}, "viewport": {"northeast": {"lat": 28.60838493029151, "lng": 77.3185739802915}, "southwest": {"lat": 28.6056869697085, "lng": 77.31587601970848}}}, "place_id": "ChIJB6EXZyvlDDkRUChe8SMoAZg", "plus_code": {"global_code": "7JWVJ848+QV", "compound_code": "J848+QV New Delhi, Delhi, India"}, "vicinity": "Unnamed Road, Dallupura, New Delhi", "scope": "GOOGLE", "business_status": "CLOSED_TEMPORARILY", "types": ["school", "point_of_interest", "establishment"], "icon": "https://maps.gstatic.com/mapfiles/place_api/icons/v1/png_71/school-71.png"}, {"rating": 5, "user_ratings_total": 2, "permanently_closed": true, "name": "GBSSSchoolKalyanPuri", "reference": "ChIJrfrrMMLkDDkRu0HbQF7cZTE", "geometry": {"location": {"lat": 28.6115124, "lng": 77.3157695}, "viewport": {"northeast": {"lat": 28.6128431302915, "lng": 77.3171254802915}, "southwest": {"lat": 28.6101451697085, "lng": 77.31442751970849}}}, "place_id": "ChIJrfrrMMLkDDkRu0HbQF7cZTE", "plus_code": {"global_code": "7JWVJ868+J8", "compound_code": "J868+J8 New Delhi, Delhi, India"}, "vicinity": "Lalshani House, 323, 2nd Block Road, Block 2, Part 1, Trilokpuri, New Delhi", "scope": "GOOGLE", "business_status": "CLOSED_TEMPORARILY", "types": ["school", "point_of_interest", "establishment"], "icon": "https://maps.gstatic.com/mapfiles/place_api/icons/v1/png_71/school-71.png"}, {"name": "Pt. Kashi Nath Shastri", "reference": "ChIJnec5xRblDDkRDN3D_it_siU", "geometry": {"location": {"lat": 28.6060044, "lng": 77.3195535}, "viewport": {"northeast": {"lat": 28.6073501802915, "lng": 77.32090253029149}, "southwest": {"lat": 28.6046522197085, "lng": 77.31820456970848}}}, "opening_hours": {"open_now": true}, "place_id": "ChIJnec5xRblDDkRDN3D_it_siU", "plus_code": {"global_code": "7JWVJ849+CR", "compound_code": "J849+CR New Delhi, Delhi, India"}, "vicinity": "Saini Road, Dallupura, New Delhi", "photos": [{"photo_reference": "ATtYBwLYeN5nQtZPKG6iXNgn50Vb_5VuD_BZ1wZNthOfyNXl9ZYco0WxkHe1ccgFjgCFaPsdiZ6PuPVUnDMmxh3kqO52G5TwFO_HkdH_2ncQNbfiVBPRM6rSg9nmO74BKUetMYhX0ggdV0of5wOy2hKWB8gJ1CWPUDE1mEYDGMQ_-JT3dqOm", "width": 1920, "html_attributions": ["<a href=\"https://maps.google.com/maps/contrib/105524445014611325449\">Kashi Tiwari</a>"], "height": 1080}], "scope": "GOOGLE", "business_status": "OPERATIONAL", "types": ["school", "point_of_interest", "establishment"], "icon": "https://maps.gstatic.com/mapfiles/place_api/icons/v1/png_71/school-71.png"}, {"rating": 4.5, "user_ratings_total": 2, "name": "Maitrey Public School", "reference": "ChIJmUqj49zkDDkR60dNnfnmbfg", "geometry": {"location": {"lat": 28.6134371, "lng": 77.3227037}, "viewport": {"northeast": {"lat": 28.6147305302915, "lng": 77.3239882802915}, "southwest": {"lat": 28.61203256970849, "lng": 77.3212903197085}}}, "opening_hours": {"open_now": false}, "place_id": "ChIJmUqj49zkDDkR60dNnfnmbfg", "plus_code": {"global_code": "7JWVJ87F+93", "compound_code": "J87F+93 Delhi, India"}, "vicinity": "near sbi bank, old Kondli, near sbi bank, Kondli, Delhi", "photos": [{"photo_reference": "ATtYBwLfGY2TQfnEEkCTwke5vAZLFwG4nZiBYzwaX7DhKUuyb7R6wd8KMALAP9cNCQBs0Hj0wdU3TZ87tqjbHufZ20bzLVOPBwzu_dlcAxVpccVq4JGNfCxgWR6iqUmn-W8OHPG291GFV0-IscRqq4toX8DZ5K8cEB9tSE5eU3mVDlqFOHU0", "width": 4608, "html_attributions": ["<a href=\"https://maps.google.com/maps/contrib/112289476622828293262\">Anika Sharma</a>"], "height": 2176}], "scope": "GOOGLE", "business_status": "OPERATIONAL", "types": ["school", "point_of_interest", "establishment"], "icon": "https://maps.gstatic.com/mapfiles/place_api/icons/v1/png_71/school-71.png"}, {"permanently_closed": true, "name": "bodh vihar maitrya public school", "reference": "ChIJwcrecgPlDDkRl5RaLj3cI3Y", "geometry": {"location": {"lat": 28.6135515, "lng": 77.322583}, "viewport": {"northeast": {"lat": 28.6148676302915, "lng": 77.3238473802915}, "southwest": {"lat": 28.6121696697085, "lng": 77.32114941970849}}}, "place_id": "ChIJwcrecgPlDDkRl5RaLj3cI3Y", "plus_code": {"global_code": "7JWVJ87F+C2", "compound_code": "J87F+C2 Delhi, India"}, "vicinity": "Kondli Extension, Delhi", "scope": "GOOGLE", "business_status": "CLOSED_TEMPORARILY", "types": ["school", "point_of_interest", "establishment"], "icon": "https://maps.gstatic.com/mapfiles/place_api/icons/v1/png_71/school-71.png"}, {"rating": 5, "user_ratings_total": 1, "permanently_closed": true, "name": "JESUS CHRIST ROADS", "reference": "ChIJvRPnVM3lDDkR_ZEmW9Queu8", "geometry": {"location": {"lat": 28.6136713, "lng": 77.32236940000001}, "viewport": {"northeast": {"lat": 28.6150395802915, "lng": 77.3236893302915}, "southwest": {"lat": 28.6123416197085, "lng": 77.3209913697085}}}, "place_id": "ChIJvRPnVM3lDDkR_ZEmW9Queu8", "plus_code": {"global_code": "7JWVJ87C+FW", "compound_code": "J87C+FW Delhi, India"}, "vicinity": "Jesus Christ road, Kondli, Delhi", "scope": "GOOGLE", "business_status": "CLOSED_TEMPORARILY", "types": ["school", "point_of_interest", "establishment"], "icon": "https://maps.gstatic.com/mapfiles/place_api/icons/v1/png_71/school-71.png"}, {"rating": 5, "user_ratings_total": 1, "permanently_closed": true, "name": "Ujjwal Suratiya", "reference": "ChIJKd2wtzDlDDkRWzr9N_1VKnE", "geometry": {"location": {"lat": 28.6104068, "lng": 77.3250061}, "viewport": {"northeast": {"lat": 28.6117556302915, "lng": 77.3263909802915}, "southwest": {"lat": 28.6090576697085, "lng": 77.3236930197085}}}, "place_id": "ChIJKd2wtzDlDDkRWzr9N_1VKnE", "plus_code": {"global_code": "7JWVJ86G+52", "compound_code": "J86G+52 Delhi, India"}, "vicinity": "Unnamed Road, Nirvan Mohalla, Block E, Kondli, Delhi", "photos": [{"photo_reference": "ATtYBwLwQ2OmGKxeH7dzB1x0rbXTgFh2m417LlwYT4f7OOkfxEdQE0IGG6jYSOjsK4BrVEaY_6syU9SXicRQbQRb5w8a3zIFLkZak2PqfXMLqJpVNB8Bx114t5CHXp820DicEd2nWcGAtETU5EFqDgyUKWZAum1ZD2tQSZmRGVOx-lfxSQwZ", "width": 3456, "html_attributions": ["<a href=\"https://maps.google.com/maps/contrib/110267282865034326156\">Ujjwal Suratiya Vlogs</a>"], "height": 4608}], "scope": "GOOGLE", "business_status": "CLOSED_TEMPORARILY", "types": ["school", "point_of_interest", "establishment"], "icon": "https://maps.gstatic.com/mapfiles/place_api/icons/v1/png_71/school-71.png"}, {"rating": 4.3, "user_ratings_total": 4, "name": "Pubg lite gameplay", "reference": "ChIJEZhmOjvlDDkR4QulWAOgEYc", "geometry": {"location": {"lat": 28.6121868, "lng": 77.31547359999999}, "viewport": {"northeast": {"lat": 28.6135653802915, "lng": 77.3168102802915}, "southwest": {"lat": 28.6108674197085, "lng": 77.31411231970849}}}, "place_id": "ChIJEZhmOjvlDDkR4QulWAOgEYc", "plus_code": {"global_code": "7JWVJ868+V5", "compound_code": "J868+V5 New Delhi, Delhi, India"}, "vicinity": "482, Subhash Market, Block 1, Part 1, Trilokpuri, New Delhi", "scope": "GOOGLE", "business_status": "OPERATIONAL", "types": ["school", "point_of_interest", "establishment"], "icon": "https://maps.gstatic.com/mapfiles/place_api/icons/v1/png_71/school-71.png"}, {"rating": 3.6, "user_ratings_total": 17, "permanently_closed": true, "name": "Government Senior Secondary School (boys)", "reference": "ChIJkSwwa8PkDDkRcnURCN95MKw", "geometry": {"location": {"lat": 28.6145116, "lng": 77.3192471}, "viewport": {"northeast": {"lat": 28.6159185302915, "lng": 77.3205249302915}, "southwest": {"lat": 28.6132205697085, "lng": 77.31782696970848}}}, "place_id": "ChIJkSwwa8PkDDkRcnURCN95MKw", "plus_code": {"global_code": "7JWVJ879+RM", "compound_code": "J879+RM Delhi, India"}, "vicinity": "Block 2, Part 1, Kalyan Puri, Delhi", "photos": [{"photo_reference": "ATtYBwKeTNFS8WSvTWcHTIJGdusDa2BCn6BP6aXPaiFqA2eQYYzWSQqg_PnoOwc27C4wCdJE9-rCuiax1LNIaqp5sy9K8IE_VzAf0yGV7Jp2YcoWSYd6IaPWpZ_B7FOv7_jgfJtthPj0xKjgVQwz8f6-8jTCk8YTqgMjN1jtz7R-1ZLedB4Z", "width": 3264, "html_attributions": ["<a href=\"https://maps.google.com/maps/contrib/116711562995933531287\">Krishna Kumar</a>"], "height": 1836}], "scope": "GOOGLE", "business_status": "CLOSED_TEMPORARILY", "types": ["school", "point_of_interest", "establishment"], "icon": "https://maps.gstatic.com/mapfiles/place_api/icons/v1/png_71/school-71.png"}, {"name": "GGSSS kalyanpuri school", "reference": "ChIJdz0oAYHlDDkRgnkaEn1q3Ak", "geometry": {"location": {"lat": 28.6123781, "lng": 77.31552239999999}, "viewport": {"northeast": {"lat": 28.6137283302915, "lng": 77.3168759802915}, "southwest": {"lat": 28.6110303697085, "lng": 77.31417801970849}}}, "place_id": "ChIJdz0oAYHlDDkRgnkaEn1q3Ak", "plus_code": {"global_code": "7JWVJ868+X6", "compound_code": "J868+X6 Delhi, India"}, "vicinity": "Subhash Market, Block 1, Part 1, Trilokpuri, Delhi", "photos": [{"photo_reference": "ATtYBwJag0u_ion_DfdnAk6zhE1aEPhkAq7d7gEH3XvYJxtrSP7SzueVDMVUFLjSPySJ5YI1CsQLTM96j_xTPX8vMkJBLWLjI56Z2IDdQUwpJXbpBMLAdcBYMZ-1LOOY-NWCbeZXg0X14AG9O19M42-zkVMT8b8OrMRLkZ-vWoveI9iLVo3S", "width": 720, "html_attributions": ["<a href=\"https://maps.google.com/maps/contrib/115171330578762388764\">Amit Singh</a>"], "height": 721}], "scope": "GOOGLE", "business_status": "OPERATIONAL", "types": ["school", "point_of_interest", "establishment"], "icon": "https://maps.gstatic.com/mapfiles/place_api/icons/v1/png_71/school-71.png"}, {"rating": 3.7, "user_ratings_total": 6, "permanently_closed": true, "name": "Sarvodaya Kanya Vidyalaya", "reference": "ChIJYTLrncHkDDkRBH6HJD-CVv8", "geometry": {"location": {"lat": 28.6129055, "lng": 77.3158912}, "viewport": {"northeast": {"lat": 28.6144340302915, "lng": 77.31718678029151}, "southwest": {"lat": 28.6117360697085, "lng": 77.31448881970849}}}, "place_id": "ChIJYTLrncHkDDkRBH6HJD-CVv8", "plus_code": {"global_code": "7JWVJ878+59", "compound_code": "J878+59 Delhi, India"}, "vicinity": "Dr. Ashwani Kumar Sen, east 91, Sharda Rd, Meerut", "photos": [{"photo_reference": "ATtYBwI2VmguiHwO0PYwPI8q3Fwi6SDN9OgGkEIAJGSOufJHJ79W9c4vvJAdCwSLDQyBgTqtw55zz3pSSn74C3ruJkblMwfToDYKS5FEYVWRIu5_RBH2yXVHEpRDQll2JbVCo2N__jmldOT6RL6jPkJD2ioX5SBgdmgCeq_O4jVgip0ZLFjQ", "width": 3120, "html_attributions": ["<a href=\"https://maps.google.com/maps/contrib/109567219065214658041\">Karan Kumar</a>"], "height": 4160}], "scope": "GOOGLE", "business_status": "CLOSED_TEMPORARILY", "types": ["school", "point_of_interest", "establishment"], "icon": "https://maps.gstatic.com/mapfiles/place_api/icons/v1/png_71/school-71.png"}, {"permanently_closed": true, "name": "Rohit Kirana Store", "reference": "ChIJHY0Tc-nkDDkROaL7qCytMxo", "geometry": {"location": {"lat": 28.606511, "lng": 77.3165333}, "viewport": {"northeast": {"lat": 28.6077659802915, "lng": 77.3178271302915}, "southwest": {"lat": 28.60506801970849, "lng": 77.3151291697085}}}, "place_id": "ChIJHY0Tc-nkDDkROaL7qCytMxo", "plus_code": {"global_code": "7JWVJ848+JJ", "compound_code": "J848+JJ New Delhi, Delhi, India"}, "vicinity": "Dallupura, New Delhi", "scope": "GOOGLE", "business_status": "CLOSED_TEMPORARILY", "types": ["school", "point_of_interest", "establishment"], "icon": "https://maps.gstatic.com/mapfiles/place_api/icons/v1/png_71/school-71.png"}, {"permanently_closed": true, "name": "Le Apex Modal School", "reference": "ChIJ_dSC_tzkDDkRL8zdbZLqnpI", "geometry": {"location": {"lat": 28.61359249999999, "lng": 77.32347890000001}, "viewport": {"northeast": {"lat": 28.6149620302915, "lng": 77.3247867302915}, "southwest": {"lat": 28.61226406970849, "lng": 77.32208876970849}}}, "place_id": "ChIJ_dSC_tzkDDkRL8zdbZLqnpI", "plus_code": {"global_code": "7JWVJ87F+C9", "compound_code": "J87F+C9 Delhi, India"}, "vicinity": "A-, Pocket 2, Kondli Extension, Kondli, Delhi", "scope": "GOOGLE", "business_status": "CLOSED_TEMPORARILY", "types": ["school", "point_of_interest", "establishment"], "icon": "https://maps.gstatic.com/mapfiles/place_api/icons/v1/png_71/school-71.png"}]}