{"status": "OK", "next_page_token": "ATtYBwKjJ1Xwk4qQzW-Y6CWU_vPGpfzTytn0nzljJ5Kk7FSkKeRlhT6U-yLa_Vjvt5ATVa5xeo39a4wTry2VhtqU7GwZoFY3NcKO7S_r4sMbrvnQz-m436iFK1P0wlsgzfDjqny4VTr_dUOCaOyI1PzBue7tJPq1sBNNL0OPPoBUKIcwVytjL8REGlV2_gvGNajGavr55v8Qmlt7B1zSXBHag4uEnt2v711BCJRn7DYlzKRuBC85lNjaiKA2LWQLVY2oyvpToXnOtd0PmPwtNoacQO48oBJP2lEGYJrHlh8k6-sqmQ8ACQ3PtI5hZmNfL-mTApLj22BCyK7cVDkp5p2bfphydFNMpyTHIrWot2w4yiRR-6Go032mVoDiK4-xUrd7OiunQFS7eyoDcYDKgjFxzmwwd9IljMZ702ONNNU2VPd6Hw", "html_attributions": [], "results": [{"rating": 3.8, "user_ratings_total": 22, "permanently_closed": true, "name": "Saini Public School", "reference": "ChIJ_Q0sDwzdDDkR3NvAa0A8KUE", "geometry": {"location": {"lat": 28.4232958, "lng": 77.3387953}, "viewport": {"northeast": {"lat": 28.4246438802915, "lng": 77.3401018802915}, "southwest": {"lat": 28.4219459197085, "lng": 77.33740391970849}}}, "place_id": "ChIJ_Q0sDwzdDDkR3NvAa0A8KUE", "plus_code": {"global_code": "7JWVC8FQ+8G", "compound_code": "C8FQ+8G Faridabad, Haryana, India"}, "vicinity": "Bharat colony saini shiv Mandir, 45 Feet Road, Neharpar Faridabad, Faridabad", "photos": [{"photo_reference": "ATtYBwI7s1Of0J5rQe_Mt8Blxv697G_fgPH-WfsfXJwMZ4EcHpqFJ6qiZ-eixfRDM8YJywZ68oitBPGkqHxZ8MjgWNLKM5_gAp9HBKKXbJZW73V7KfhD_Xw4vVrtxqt3VQLrNN1fcNCzgv9oX2mNAS38xW2Pj1MnbFm2X6kaM4WGqSYbclK1", "width": 3456, "html_attributions": ["<a href=\"https://maps.google.com/maps/contrib/103671336616786889899\">Krishan Saini</a>"], "height": 4608}], "scope": "GOOGLE", "business_status": "CLOSED_TEMPORARILY", "types": ["school", "point_of_interest", "establishment"], "icon": "https://maps.gstatic.com/mapfiles/place_api/icons/v1/png_71/school-71.png"}, {"permanently_closed": true, "name": "S.D. Public School", "reference": "ChIJpQmejQ7dDDkRoik5MGYOBs8", "geometry": {"location": {"lat": 28.421426, "lng": 77.340407}, "viewport": {"northeast": {"lat": 28.4227645302915, "lng": 77.34175358029151}, "southwest": {"lat": 28.42006656970849, "lng": 77.3390556197085}}}, "place_id": "ChIJpQmejQ7dDDkRoik5MGYOBs8", "plus_code": {"global_code": "7JWVC8CR+H5", "compound_code": "C8CR+H5 Faridabad, Haryana, India"}, "vicinity": "Khedi Road, Bharat Colony, Hanuman Nagar, Sector 87, Faridabad", "photos": [{"photo_reference": "ATtYBwLdQ415aj41AC7vo_X4kADtmAdPJakgWUt8iIjODJvqtM1dZDVmiJaqayt92uzTJSX7sdLpAmhz4cfLoTB3eNKLIEMo6LkzEbHLwA03Gw9ndWaeR-EXMcaxtw3DRIx8HqzSsvgol9iGUKlv8te0ahU_-LzNHN70P4p_SGpHyq1ORoHJ", "width": 2448, "html_attributions": ["<a href=\"https://maps.google.com/maps/contrib/106246988609116175721\">Bhoj Prakash</a>"], "height": 3264}], "scope": "GOOGLE", "business_status": "CLOSED_TEMPORARILY", "types": ["school", "point_of_interest", "establishment"], "icon": "https://maps.gstatic.com/mapfiles/place_api/icons/v1/png_71/school-71.png"}, {"rating": 3.9, "user_ratings_total": 37, "permanently_closed": true, "name": "R S Vidya Mandir sr secondary school", "reference": "ChIJm17OIQrdDDkRjgQ3kYx0PSI", "geometry": {"location": {"lat": 28.42226639999999, "lng": 77.3339505}, "viewport": {"northeast": {"lat": 28.4236274302915, "lng": 77.3352611302915}, "southwest": {"lat": 28.42092946970849, "lng": 77.3325631697085}}}, "place_id": "ChIJm17OIQrdDDkRjgQ3kYx0PSI", "plus_code": {"global_code": "7JWVC8CM+WH", "compound_code": "C8CM+WH Faridabad, Haryana, India"}, "vicinity": "Hanuman Nagar, Sector 87, Neharpar Faridabad, Faridabad", "photos": [{"photo_reference": "ATtYBwL_iuNl0jEjtRg2orAtoJEt9VqQ4FTPKR3rxMrNyRap97st1OBqQpKDuE1iD8TGXiF0XlcpFEXBJYKxEG-7d4BCo6j5-El4fGGaZeg081FkMjUzl3YXYsA6sypFbZVo2fTHmaaLVPcL4KyQPV_mQdSnC7bBN-myyBtG2wrNbEicZ_N6", "width": 780, "html_attributions": ["<a href=\"https://maps.google.com/maps/contrib/102155998151733401472\">Vishesh Roy</a>"], "height": 1040}], "scope": "GOOGLE", "business_status": "CLOSED_TEMPORARILY", "types": ["school", "point_of_interest", "establishment"], "icon": "https://maps.gstatic.com/mapfiles/place_api/icons/v1/png_71/school-71.png"}, {"rating": 3.8, "user_ratings_total": 48, "name": "Shraddha Mandir School", "reference": "ChIJC4F9ARrdDDkRpag9DqDaBeo", "geometry": {"location": {"lat": 28.4194875, "lng": 77.34464609999999}, "viewport": {"northeast": {"lat": 28.4206578, "lng": 77.35234380000001}, "southwest": {"lat": 28.4159766, "lng": 77.3420802}}}, "opening_hours": {"open_now": false}, "place_id": "ChIJC4F9ARrdDDkRpag9DqDaBeo", "plus_code": {"global_code": "7JWVC89V+QV", "compound_code": "C89V+QV Faridabad, Haryana, India"}, "vicinity": "Greater Faridabad Welfare Association (GFWA), Gali Number 5, Bharat Colony, Sector 87, Neharpar Faridabad, Faridabad", "photos": [{"photo_reference": "ATtYBwLtOLtsGDlskFeLFquj1EIx1ei3LKQ3gz6BapXk2PXuvi5BUr2PEEsuVQ0Kfhobog11IZhaVGbLi08wW5m8B66e-5ITUYzF32PjUtHRkN_HycYm3tF-u0DyiUeNrtDdQPFG-XWrT_e-i6ZQYDiEEvQksb1Gerne0LGkDaZZXcOxWral", "width": 2048, "html_attributions": ["<a href=\"https://maps.google.com/maps/contrib/107760216368467830411\">DR. G. S. ARYA</a>"], "height": 1152}], "scope": "GOOGLE", "business_status": "OPERATIONAL", "types": ["school", "point_of_interest", "establishment"], "icon": "https://maps.gstatic.com/mapfiles/place_api/icons/v1/png_71/school-71.png"}, {"rating": 3.5, "user_ratings_total": 2, "permanently_closed": true, "name": "Modern R S Public School", "reference": "ChIJ_f__v3TdDDkRBxj3Gp1ZtNM", "geometry": {"location": {"lat": 28.4295136, "lng": 77.3367499}, "viewport": {"northeast": {"lat": 28.4309177302915, "lng": 77.3380987802915}, "southwest": {"lat": 28.4282197697085, "lng": 77.3354008197085}}}, "place_id": "ChIJ_f__v3TdDDkRBxj3Gp1ZtNM", "plus_code": {"global_code": "7JWVC8HP+RM", "compound_code": "C8HP+RM Faridabad, Haryana, India"}, "vicinity": "Jeevan Nagar, Neharpar Faridabad, Faridabad", "scope": "GOOGLE", "business_status": "CLOSED_TEMPORARILY", "types": ["school", "point_of_interest", "establishment"], "icon": "https://maps.gstatic.com/mapfiles/place_api/icons/v1/png_71/school-71.png"}, {"rating": 5, "user_ratings_total": 3, "permanently_closed": true, "name": "Brilliant And Model School", "reference": "ChIJYyTE2IXdDDkRrAupu0ofBHA", "geometry": {"location": {"lat": 28.4252241, "lng": 77.3399142}, "viewport": {"northeast": {"lat": 28.4266068302915, "lng": 77.3412691802915}, "southwest": {"lat": 28.4239088697085, "lng": 77.33857121970848}}}, "place_id": "ChIJYyTE2IXdDDkRrAupu0ofBHA", "plus_code": {"global_code": "7JWVC8GQ+3X", "compound_code": "C8GQ+3X Faridabad, Haryana, India"}, "vicinity": "Hanuman Nagar, Sector 87, Neharpar Faridabad, Faridabad", "photos": [{"photo_reference": "ATtYBwIZruQXV19ICgUKwFIQwFW4j_OGkJ1dxFI6A7Yzxm-aFsfovG_kGwvEzzpNroA8NR1hQbAx-_6-vVbD-3oAiqtdaktohFau5p6ec9S1hYtO0-r4_JMM3xzQxYLO-f34ZJnzStMacw7670LUg6im5E7bUmAbNhlwKLHRpkh9wXp2U9jp", "width": 3024, "html_attributions": ["<a href=\"https://maps.google.com/maps/contrib/106435154478031240504\">vishal prajapati</a>"], "height": 4032}], "scope": "GOOGLE", "business_status": "CLOSED_TEMPORARILY", "types": ["school", "point_of_interest", "establishment"], "icon": "https://maps.gstatic.com/mapfiles/place_api/icons/v1/png_71/school-71.png"}, {"permanently_closed": true, "name": "Vishwa Bharti Public School", "reference": "ChIJ7SdH0kXdDDkR1M7b1WXoKoI", "geometry": {"location": {"lat": 28.4238348, "lng": 77.3358899}, "viewport": {"northeast": {"lat": 28.4251837802915, "lng": 77.3372746802915}, "southwest": {"lat": 28.42248581970849, "lng": 77.33457671970848}}}, "place_id": "ChIJ7SdH0kXdDDkR1M7b1WXoKoI", "plus_code": {"global_code": "7JWVC8FP+G9", "compound_code": "C8FP+G9 Faridabad, Haryana, India"}, "vicinity": "Gali Number 2, Hanuman Nagar, Sector 87, Neharpar Faridabad, Faridabad", "scope": "GOOGLE", "business_status": "CLOSED_TEMPORARILY", "types": ["school", "point_of_interest", "establishment"], "icon": "https://maps.gstatic.com/mapfiles/place_api/icons/v1/png_71/school-71.png"}, {"permanently_closed": true, "name": "The blossom play school", "reference": "ChIJU0ph4pbdDDkRyJ-oQoHV-o4", "geometry": {"location": {"lat": 28.4245804, "lng": 77.3453639}, "viewport": {"northeast": {"lat": 28.42589763029151, "lng": 77.34656678029151}, "southwest": {"lat": 28.4231996697085, "lng": 77.34386881970849}}}, "place_id": "ChIJU0ph4pbdDDkRyJ-oQoHV-o4", "plus_code": {"global_code": "7JWVC8FW+R4", "compound_code": "C8FW+R4 Faridabad, Haryana, India"}, "vicinity": "Hanuman Nagar, Sector 87, Neharpar Faridabad, Faridabad", "scope": "GOOGLE", "business_status": "CLOSED_TEMPORARILY", "types": ["school", "point_of_interest", "establishment"], "icon": "https://maps.gstatic.com/mapfiles/place_api/icons/v1/png_71/school-71.png"}, {"permanently_closed": true, "name": "New Ved Public School", "reference": "ChIJwS2b9QrdDDkRnb7UnI8DRoQ", "geometry": {"location": {"lat": 28.4249937, "lng": 77.33401289999999}, "viewport": {"northeast": {"lat": 28.4262823302915, "lng": 77.3353861802915}, "southwest": {"lat": 28.4235843697085, "lng": 77.33268821970849}}}, "place_id": "ChIJwS2b9QrdDDkRnb7UnI8DRoQ", "plus_code": {"global_code": "7JWVC8FM+XJ", "compound_code": "C8FM+XJ Faridabad, Haryana, India"}, "vicinity": "New Indra Complex, 2-5, Wazirpur Road, Hanuman Nagar, Sector 87, Faridabad", "scope": "GOOGLE", "business_status": "CLOSED_TEMPORARILY", "types": ["school", "point_of_interest", "establishment"], "icon": "https://maps.gstatic.com/mapfiles/place_api/icons/v1/png_71/school-71.png"}, {"rating": 4.9, "user_ratings_total": 13, "permanently_closed": true, "name": "PETER'S PLAY SCHOOL", "reference": "ChIJjbyYfYbdDDkRkkftuPDnKP0", "geometry": {"location": {"lat": 28.4236625, "lng": 77.335844}, "viewport": {"northeast": {"lat": 28.4250113802915, "lng": 77.3372017802915}, "southwest": {"lat": 28.42231341970849, "lng": 77.33450381970849}}}, "place_id": "ChIJjbyYfYbdDDkRkkftuPDnKP0", "plus_code": {"global_code": "7JWVC8FP+F8", "compound_code": "C8FP+F8 Faridabad, Haryana, India"}, "vicinity": "Karnal Vihar, 24 Feet Road Gali No 2, NEAR POST OFFICE, Kheri Road, Neharpar Faridabad, Faridabad", "photos": [{"photo_reference": "ATtYBwKQ4bD89hkF_ERgii3OLP_Hmvs4bKQiQQaygI4Dx9wf563UyO0gCI314-kindaCaomhHK2JqH94sAlO8qVWvlpPQ4f_grBFsgrUrSaJTpMjdKWDq9lez5DVTMBHJ_KFdtQNYSk5sx5yjReUZtFPWhwwjAt5-Dmt7VjZ-qqV7X1tPCpM", "width": 960, "html_attributions": ["<a href=\"https://maps.google.com/maps/contrib/106832599440073745352\">PETER&#39;S PLAY SCHOOL</a>"], "height": 719}], "scope": "GOOGLE", "business_status": "CLOSED_TEMPORARILY", "types": ["school", "point_of_interest", "establishment"], "icon": "https://maps.gstatic.com/mapfiles/place_api/icons/v1/png_71/school-71.png"}, {"permanently_closed": true, "name": "\u0905\u0928\u0939\u0930\u093f\u092f\u093e \u092c\u093e\u092c\u093e \u092e\u0902\u0926\u093f\u0930", "reference": "ChIJse7C5JTdDDkRm_bT2zGuftE", "geometry": {"location": {"lat": 28.4348129, "lng": 77.3331168}, "viewport": {"northeast": {"lat": 28.4361648802915, "lng": 77.33442248029151}, "southwest": {"lat": 28.4334669197085, "lng": 77.3317245197085}}}, "place_id": "ChIJse7C5JTdDDkRm_bT2zGuftE", "plus_code": {"global_code": "7JWVC8MM+W6", "compound_code": "C8MM+W6 Faridabad, Haryana, India"}, "vicinity": "Unnamed Road, Mavai Village, Faridabad", "scope": "GOOGLE", "business_status": "CLOSED_TEMPORARILY", "types": ["school", "point_of_interest", "establishment"], "icon": "https://maps.gstatic.com/mapfiles/place_api/icons/v1/png_71/school-71.png"}, {"permanently_closed": true, "name": "V.J. International School", "reference": "ChIJdWmrk_PdDDkRxTUkf9k1Wg0", "geometry": {"location": {"lat": 28.4340656, "lng": 77.3320878}, "viewport": {"northeast": {"lat": 28.4354134302915, "lng": 77.3332728302915}, "southwest": {"lat": 28.4327154697085, "lng": 77.3305748697085}}}, "place_id": "ChIJdWmrk_PdDDkRxTUkf9k1Wg0", "plus_code": {"global_code": "7JWVC8MJ+JR", "compound_code": "C8MJ+JR Faridabad, Haryana, India"}, "vicinity": "Mavai Village, Faridabad", "scope": "GOOGLE", "business_status": "CLOSED_TEMPORARILY", "types": ["school", "point_of_interest", "establishment"], "icon": "https://maps.gstatic.com/mapfiles/place_api/icons/v1/png_71/school-71.png"}, {"rating": 3.3, "user_ratings_total": 3, "permanently_closed": true, "name": "New Millenium Public School", "reference": "ChIJi7OhyA7dDDkR1SUNcrzt32o", "geometry": {"location": {"lat": 28.4220135, "lng": 77.3386029}, "viewport": {"northeast": {"lat": 28.4233625302915, "lng": 77.3399496802915}, "southwest": {"lat": 28.4206645697085, "lng": 77.33725171970849}}}, "place_id": "ChIJi7OhyA7dDDkR1SUNcrzt32o", "plus_code": {"global_code": "7JWVC8CQ+RC", "compound_code": "C8CQ+RC Faridabad, Haryana, India"}, "vicinity": "Gali Number 8, Bharat Colony, Sector 87, Neharpar Faridabad, Faridabad", "scope": "GOOGLE", "business_status": "CLOSED_TEMPORARILY", "types": ["school", "point_of_interest", "establishment"], "icon": "https://maps.gstatic.com/mapfiles/place_api/icons/v1/png_71/school-71.png"}, {"permanently_closed": true, "name": "Grace Public School", "reference": "ChIJtUZXs5_dDDkRl4WsK05QWp8", "geometry": {"location": {"lat": 28.4220146, "lng": 77.3381683}, "viewport": {"northeast": {"lat": 28.4233634802915, "lng": 77.33954278029151}, "southwest": {"lat": 28.42066551970849, "lng": 77.33684481970849}}}, "place_id": "ChIJtUZXs5_dDDkRl4WsK05QWp8", "plus_code": {"global_code": "7JWVC8CQ+R7", "compound_code": "C8CQ+R7 Faridabad, Haryana, India"}, "vicinity": "H-Block, Gali No. 3-5, Hanuman Nagar, Bharat Colony, Sector 87, Neharpar Faridabad, Faridabad", "photos": [{"photo_reference": "ATtYBwJVwn0idkz465TCN-dwy4IFTMjSJtZN59wyley1qcx5efj6pciSCbtFasBpxWf4LdzCgJ3OSUJn6Wo3P0OCT8E88joOTYq2XApda2WIH1K8FFYflqITGc6QiAEyrOHbj5LxWvUuZtcgeM018vOFsauMhNpKqqW23gGe2yv_rFAsMDpr", "width": 4000, "html_attributions": ["<a href=\"https://maps.google.com/maps/contrib/117687594833836764591\">Grace Public School</a>"], "height": 3000}], "scope": "GOOGLE", "business_status": "CLOSED_TEMPORARILY", "types": ["school", "point_of_interest", "establishment"], "icon": "https://maps.gstatic.com/mapfiles/place_api/icons/v1/png_71/school-71.png"}, {"rating": 4.8, "user_ratings_total": 4, "permanently_closed": true, "name": "Sun Shine Public School", "reference": "ChIJaRYyug7dDDkRvGlYOUtE4cE", "geometry": {"location": {"lat": 28.4215255, "lng": 77.33906429999999}, "viewport": {"northeast": {"lat": 28.4228744802915, "lng": 77.3403889802915}, "southwest": {"lat": 28.4201765197085, "lng": 77.33769101970849}}}, "place_id": "ChIJaRYyug7dDDkRvGlYOUtE4cE", "plus_code": {"global_code": "7JWVC8CQ+JJ", "compound_code": "C8CQ+JJ Faridabad, Haryana, India"}, "vicinity": "Gali Number 8, Hanuman Nagar, Sector 87, Neharpar Faridabad, Faridabad", "scope": "GOOGLE", "business_status": "CLOSED_TEMPORARILY", "types": ["school", "point_of_interest", "establishment"], "icon": "https://maps.gstatic.com/mapfiles/place_api/icons/v1/png_71/school-71.png"}, {"rating": 5, "user_ratings_total": 4, "permanently_closed": true, "name": "VID Public School", "reference": "ChIJC4FKJArdDDkRUJE6HnPyGhg", "geometry": {"location": {"lat": 28.4229107, "lng": 77.3346255}, "viewport": {"northeast": {"lat": 28.4241815802915, "lng": 77.33582803029152}, "southwest": {"lat": 28.4214836197085, "lng": 77.3331300697085}}}, "place_id": "ChIJC4FKJArdDDkRUJE6HnPyGhg", "plus_code": {"global_code": "7JWVC8FM+5V", "compound_code": "C8FM+5V Faridabad, Haryana, India"}, "vicinity": "Naharpur, Sector 87, Neharpar Faridabad, Faridabad", "photos": [{"photo_reference": "ATtYBwLK7lckZqQ_Vwmu2ZeCdXV7K2Oqxc6YEz8j1lkqHmJuRk5ZrZK4nf4adyoK6L23an7VGJlYVTV9t10YdP2BSfg7DWSPy4k6n_6ItEhzzCPkG1Kh2AxTHYKNy8H_5Gcfag_LEynIO8Z5lKPu6KwmEPiDYefUMGIp34Rp27QolypI0QXe", "width": 1920, "html_attributions": ["<a href=\"https://maps.google.com/maps/contrib/101333300743099924338\">AMIT SIR</a>"], "height": 1080}], "scope": "GOOGLE", "business_status": "CLOSED_TEMPORARILY", "types": ["school", "point_of_interest", "establishment"], "icon": "https://maps.gstatic.com/mapfiles/place_api/icons/v1/png_71/school-71.png"}, {"rating": 2, "user_ratings_total": 3, "permanently_closed": true, "name": "National Convent Public School", "reference": "ChIJyZsCsJ_dDDkRNaatFP5T1dg", "geometry": {"location": {"lat": 28.4301896, "lng": 77.33026439999999}, "viewport": {"northeast": {"lat": 28.4315631302915, "lng": 77.3316304302915}, "southwest": {"lat": 28.4288651697085, "lng": 77.32893246970849}}}, "place_id": "ChIJyZsCsJ_dDDkRNaatFP5T1dg", "plus_code": {"global_code": "7JWVC8JJ+34", "compound_code": "C8JJ+34 Faridabad, Haryana, India"}, "vicinity": "Jeevan Nagar, Sector 87, Neharpar Faridabad, Faridabad", "photos": [{"photo_reference": "ATtYBwKR2atKuSERUyNQqJc2i13VHe159ImNo2-G1c5DAzp3n1IfkAJr9P6IE1waZUZpJhaFl-qIOhAuKeFJ6PJ6ZGOcp5qE53WRanAmX5gRBGlMg7L5Bj764I2yAfrRODRf5SNCRtd7elZnA9Q0UvSAJOQQwXBbCsXj5oWO8Z5q7WIZ_cvl", "width": 3456, "html_attributions": ["<a href=\"https://maps.google.com/maps/contrib/117288478946257807270\">Mohammad hasan</a>"], "height": 4608}], "scope": "GOOGLE", "business_status": "CLOSED_TEMPORARILY", "types": ["school", "point_of_interest", "establishment"], "icon": "https://maps.gstatic.com/mapfiles/place_api/icons/v1/png_71/school-71.png"}, {"permanently_closed": true, "name": "Prgyam school Jan parivatan sanshta", "reference": "ChIJrzg6Uc_dDDkRps1Qb2IEivg", "geometry": {"location": {"lat": 28.4214727, "lng": 77.3413578}, "viewport": {"northeast": {"lat": 28.4227086302915, "lng": 77.3426944302915}, "southwest": {"lat": 28.4200106697085, "lng": 77.3399964697085}}}, "place_id": "ChIJrzg6Uc_dDDkRps1Qb2IEivg", "plus_code": {"global_code": "7JWVC8CR+HG", "compound_code": "C8CR+HG Faridabad, Haryana, India"}, "vicinity": "Bharat Colony, Sector 87, Neharpar Faridabad, Faridabad", "scope": "GOOGLE", "business_status": "CLOSED_TEMPORARILY", "types": ["school", "point_of_interest", "establishment"], "icon": "https://maps.gstatic.com/mapfiles/place_api/icons/v1/png_71/school-71.png"}, {"permanently_closed": true, "name": "Oxford School", "reference": "ChIJkRcZqxTdDDkRnwFaJK7iyro", "geometry": {"location": {"lat": 28.4292082, "lng": 77.34987869999999}, "viewport": {"northeast": {"lat": 28.4307662302915, "lng": 77.3511714802915}, "southwest": {"lat": 28.4280682697085, "lng": 77.34847351970849}}}, "place_id": "ChIJkRcZqxTdDDkRnwFaJK7iyro", "plus_code": {"global_code": "7JWVC8HX+MX", "compound_code": "C8HX+MX Faridabad, Haryana, India"}, "vicinity": "RPS City, Sector 88, Faridabad", "scope": "GOOGLE", "business_status": "CLOSED_TEMPORARILY", "types": ["school", "point_of_interest", "establishment"], "icon": "https://maps.gstatic.com/mapfiles/place_api/icons/v1/png_71/school-71.png"}, {"rating": 3.5, "user_ratings_total": 2, "permanently_closed": true, "name": "Rose Mount School", "reference": "ChIJ60tQXJ7dDDkRC3ttTmoFU1o", "geometry": {"location": {"lat": 28.4315424, "lng": 77.3300711}, "viewport": {"northeast": {"lat": 28.4328617802915, "lng": 77.3314195302915}, "southwest": {"lat": 28.4301638197085, "lng": 77.32872156970849}}}, "place_id": "ChIJ60tQXJ7dDDkRC3ttTmoFU1o", "plus_code": {"global_code": "7JWVC8JJ+J2", "compound_code": "C8JJ+J2 Faridabad, Haryana, India"}, "vicinity": "Jeevan Nagar, Sector 87, Neharpar Faridabad, Faridabad", "scope": "GOOGLE", "business_status": "CLOSED_TEMPORARILY", "types": ["school", "point_of_interest", "establishment"], "icon": "https://maps.gstatic.com/mapfiles/place_api/icons/v1/png_71/school-71.png"}]}