{"status": "OK", "next_page_token": "ATtYBwJsO83REDiSp_vHvUS5vWO7wFD37rdnUItc0Cu_2v_v37ognVUQerxmbC4wsAjbej_kF9PdScrRd3VFSeEhZo5pNrXPE6A-uM16FOxQkmoha7Rj_DXtcv6ZA2iFsS-D35JVkMW1c0FII5Pr-CoAr3bPUKqeTImkkn9bxLv4deFcYX8KhWE4C2Dznyg8LYgbdEn2jDUCvsmdpzSZEElhqGnU9eINNEZ8R6eKsOQyKTRAHe2Nr37qgQLlxOezzkJ28d3y-w4PZrpZI6p2Q_KhiXEUZ94sSks1TKvenKj1xL0lKEYgG-MBJGjsJFF2xHVEh5McZ4TtuSzFplFCvJ8ko_L2fC47a1viVpGv7mlWczeByfAnpf7b8NIYnbJd-b-ESf-68kah4QC3egJHnd4qeKX3VzLjAUHn1mOAF19NCu0o5Q_oyHdFL86mHUWhF2t2bh7o_2u_7M24_KFXZ_ijTEtZAuqybgKYnkonWmkI4O2f19WGcBQEV_2XnlhRI1qDYDJXC6AQAO09b5cSD-8w6xT_IEaIXng_3uAduvD7ESdDOiaxqov0jjiULIEAzPfT9k6iYQWdLTMa-RsMN3ZXus7SAqLuPLIxb2sQpbU2HQlSEuENz-W9IngjMV90HASZvlY", "html_attributions": [], "results": [{"name": "Vidya Niketan Public School", "reference": "ChIJCR1yyP_7DDkRVELSDqHYhQ4", "geometry": {"location": {"lat": 28.6684519, "lng": 77.3430308}, "viewport": {"northeast": {"lat": 28.6698222302915, "lng": 77.34439113029151}, "southwest": {"lat": 28.6671242697085, "lng": 77.34169316970849}}}, "place_id": "ChIJCR1yyP_7DDkRVELSDqHYhQ4", "plus_code": {"global_code": "7JWVM89V+96", "compound_code": "M89V+96 Ghaziabad, Uttar Pradesh, India"}, "vicinity": "Unnamed Road, Karkar Mandan, Sahibabad Industrial Area Site 4, Sahibabad, Ghaziabad", "photos": [{"photo_reference": "ATtYBwL1D81Ksw2G8Ma3ecN8ZG02Na2fSb6mVV941iBgsQ8PghoPTCuoVD8k1dYDn_X_aXfUqVkLYgCnGdxAGjsQcOS0wiTy4xxJp84AQIadRoqxK61TyxV27eI2xhfpomuLxpNesPO86YY5uZnuab0dCyR6sUM0ItPKLFQbWKwg-VRkyS0", "width": 6000, "html_attributions": ["<a href=\"https://maps.google.com/maps/contrib/109851055710530352698\">vip india</a>"], "height": 4000}], "scope": "GOOGLE", "business_status": "OPERATIONAL", "types": ["school", "point_of_interest", "establishment"], "icon": "https://maps.gstatic.com/mapfiles/place_api/icons/v1/png_71/school-71.png"}, {"name": "Azad khan", "reference": "ChIJG6MCRIj7DDkRhBigIz7lkYQ", "geometry": {"location": {"lat": 28.66883019999999, "lng": 77.3432474}, "viewport": {"northeast": {"lat": 28.6701813802915, "lng": 77.3445878302915}, "southwest": {"lat": 28.6674834197085, "lng": 77.3418898697085}}}, "place_id": "ChIJG6MCRIj7DDkRhBigIz7lkYQ", "plus_code": {"global_code": "7JWVM89V+G7", "compound_code": "M89V+G7 Ghaziabad, Uttar Pradesh, India"}, "vicinity": "Karkar Mandan, Sahibabad Industrial Area Site 4, Sahibabad, Ghaziabad", "scope": "GOOGLE", "business_status": "OPERATIONAL", "types": ["school", "point_of_interest", "establishment"], "icon": "https://maps.gstatic.com/mapfiles/place_api/icons/v1/png_71/school-71.png"}, {"rating": 1, "user_ratings_total": 1, "permanently_closed": true, "name": "DS public school", "reference": "ChIJ7_wTLxf7DDkRVwq2Je8g3D0", "geometry": {"location": {"lat": 28.6672795, "lng": 77.34184239999999}, "viewport": {"northeast": {"lat": 28.66862738029149, "lng": 77.34319028029151}, "southwest": {"lat": 28.6659294197085, "lng": 77.3404923197085}}}, "place_id": "ChIJ7_wTLxf7DDkRVwq2Je8g3D0", "plus_code": {"global_code": "7JWVM88R+WP", "compound_code": "M88R+WP Ghaziabad, Uttar Pradesh, India"}, "vicinity": "Unnamed Road, Karkar Mandan, Sahibabad Industrial Area Site 4, Sahibabad, Ghaziabad", "scope": "GOOGLE", "business_status": "CLOSED_TEMPORARILY", "types": ["school", "point_of_interest", "establishment"], "icon": "https://maps.gstatic.com/mapfiles/place_api/icons/v1/png_71/school-71.png"}, {"rating": 5, "user_ratings_total": 1, "name": "Petals Pre School", "reference": "ChIJeQ1APhv7DDkR0UBmvBzNW_g", "geometry": {"location": {"lat": 28.6721121, "lng": 77.3372856}, "viewport": {"northeast": {"lat": 28.6734718802915, "lng": 77.3386326302915}, "southwest": {"lat": 28.67077391970851, "lng": 77.3359346697085}}}, "opening_hours": {"open_now": false}, "place_id": "ChIJeQ1APhv7DDkR0UBmvBzNW_g", "plus_code": {"global_code": "7JWVM8CP+RW", "compound_code": "M8CP+RW Ghaziabad, Uttar Pradesh, India"}, "vicinity": "No C, 395, Block C, Surya Nagar, Ghaziabad", "photos": [{"photo_reference": "ATtYBwKvvMzvdDPumNyycg8CSTvTGyVcgQYL_vrs69WHx50v6pm2_taYRoIFOgMZ6IrRSGERq06JCPfGgb7A6f0edzzA0rtZgCI-TLuHIABnn1GSjoMW6t3gsZ6DXaOXGiKGzxZKGpW5M6I3qitGMUvepuEjarJsJhzFN7LZY5-mAZ-fwoYX", "width": 2048, "html_attributions": ["<a href=\"https://maps.google.com/maps/contrib/111813389344988020455\">Sandeep Jain</a>"], "height": 1536}], "scope": "GOOGLE", "business_status": "OPERATIONAL", "types": ["school", "point_of_interest", "establishment"], "icon": "https://maps.gstatic.com/mapfiles/place_api/icons/v1/png_71/school-71.png"}, {"name": "SharpMind Coaching Center", "reference": "ChIJ58ZgD_77DDkRABIb5pno764", "geometry": {"location": {"lat": 28.6725602, "lng": 77.33716989999999}, "viewport": {"northeast": {"lat": 28.67392363029149, "lng": 77.3385161302915}, "southwest": {"lat": 28.6712256697085, "lng": 77.33581816970849}}}, "opening_hours": {"open_now": false}, "place_id": "ChIJ58ZgD_77DDkRABIb5pno764", "plus_code": {"global_code": "7JWVM8FP+2V", "compound_code": "M8FP+2V Ghaziabad, Uttar Pradesh, India"}, "vicinity": "Block C, Brij Vihar, Surya Nagar, Ghaziabad", "scope": "GOOGLE", "business_status": "OPERATIONAL", "types": ["school", "point_of_interest", "establishment"], "icon": "https://maps.gstatic.com/mapfiles/place_api/icons/v1/png_71/school-71.png"}, {"name": "kad kad modal sahibabad", "reference": "ChIJwTH18Wj7DDkRdwzB2mmpVUg", "geometry": {"location": {"lat": 28.67057819999999, "lng": 77.3443272}, "viewport": {"northeast": {"lat": 28.6719571802915, "lng": 77.3455256302915}, "southwest": {"lat": 28.6692592197085, "lng": 77.34282766970848}}}, "place_id": "ChIJwTH18Wj7DDkRdwzB2mmpVUg", "plus_code": {"global_code": "7JWVM8CV+6P", "compound_code": "M8CV+6P Ghaziabad, Uttar Pradesh, India"}, "vicinity": "Gamma, Karkar Mandan, Sahibabad Industrial Area Site 4, Sahibabad, Ghaziabad", "scope": "GOOGLE", "business_status": "OPERATIONAL", "types": ["school", "point_of_interest", "establishment"], "icon": "https://maps.gstatic.com/mapfiles/place_api/icons/v1/png_71/school-71.png"}, {"permanently_closed": true, "name": "Bal Utthan Vidyalaya", "reference": "ChIJESRF-vz6DDkRHMmEjyXLWuM", "geometry": {"location": {"lat": 28.6714112, "lng": 77.3359069}, "viewport": {"northeast": {"lat": 28.6727280802915, "lng": 77.33726588029151}, "southwest": {"lat": 28.6700301197085, "lng": 77.33456791970849}}}, "place_id": "ChIJESRF-vz6DDkRHMmEjyXLWuM", "plus_code": {"global_code": "7JWVM8CP+H9", "compound_code": "M8CP+H9 Ghaziabad, Uttar Pradesh, India"}, "vicinity": "85, HIG Flats, Brij Vihar, Surya Nagar, Ghaziabad", "photos": [{"photo_reference": "ATtYBwJLjk8MxhG7lheE1snXNouVXBFW0qu0m9JuvIbPjdIVi5_3AXqeARAPC_48ZXjXT_vA4smPr3-HlgYTdIRTSs67DvnD6lgBWGXPxWrsmVD9vpZHzd4t1e7I2ffMRQyU8c-Z-H4NULYGrDvtOUUQgyjtwfl_tmZpNIEEkJBS1ZXcz_Ig", "width": 4208, "html_attributions": ["<a href=\"https://maps.google.com/maps/contrib/115601210859332321414\">Bal Utthan Vidyalaya</a>"], "height": 3120}], "scope": "GOOGLE", "business_status": "CLOSED_TEMPORARILY", "types": ["school", "point_of_interest", "establishment"], "icon": "https://maps.gstatic.com/mapfiles/place_api/icons/v1/png_71/school-71.png"}, {"rating": 5, "user_ratings_total": 3, "permanently_closed": true, "name": "Vanasthali Public School", "reference": "ChIJJ50E70b7DDkREvhGGIPvCR4", "geometry": {"location": {"lat": 28.6713799, "lng": 77.3358332}, "viewport": {"northeast": {"lat": 28.6727472802915, "lng": 77.3371749302915}, "southwest": {"lat": 28.6700493197085, "lng": 77.33447696970849}}}, "place_id": "ChIJJ50E70b7DDkREvhGGIPvCR4", "plus_code": {"global_code": "7JWVM8CP+H8", "compound_code": "M8CP+H8 Ghaziabad, Uttar Pradesh, India"}, "vicinity": "C-220, Brij Vihar, Ghaziabad", "photos": [{"photo_reference": "ATtYBwJOZeyNJXY1390EnexfW32rcGW11opEF4HWbJpWTUc19OsWR4v0Whn2eukSY4DxLC2ql98Rsqx26YbRDIVf52BBfsi8rgnoZ7yY5JvNiELzttyhMMB5T2x-2LXlr37FRTl4KW-TpTxn7E_JZlwRc7MIq_kfoQo-ZYaE09aFyvUutbYa", "width": 3000, "html_attributions": ["<a href=\"https://maps.google.com/maps/contrib/112348818832605558968\">Kunal Kulshrestha</a>"], "height": 4000}], "scope": "GOOGLE", "business_status": "CLOSED_TEMPORARILY", "types": ["school", "point_of_interest", "establishment"], "icon": "https://maps.gstatic.com/mapfiles/place_api/icons/v1/png_71/school-71.png"}, {"rating": 5, "user_ratings_total": 5, "permanently_closed": true, "name": "Mahesh Raghav Himanshu", "reference": "ChIJgdP4HZz7DDkRnW_F3KL1m4U", "geometry": {"location": {"lat": 28.6701252, "lng": 77.34480529999999}, "viewport": {"northeast": {"lat": 28.6714475802915, "lng": 77.34633083029149}, "southwest": {"lat": 28.6687496197085, "lng": 77.34363286970849}}}, "place_id": "ChIJgdP4HZz7DDkRnW_F3KL1m4U", "plus_code": {"global_code": "7JWVM8CV+3W", "compound_code": "M8CV+3W Ghaziabad, Uttar Pradesh, India"}, "vicinity": "Gamma, Karkar Mandan, Sahibabad Industrial Area Site 4, Sahibabad, Ghaziabad", "photos": [{"photo_reference": "ATtYBwKZH3VOIcD10gHnEJojJ69Ec_rl8tgGdJlb3_5oaJZPTuVg3ehakAFernpBtd0SgziFYIpEaOGiSOSLHGMz1aVyQlCBUvh6zBqTjUs9Jd7stplDSHhtMFPe3KyVRwfk9qWaBnWvKG_tFNgnO7LG9MRxpM3GG-6drhv1eQYOQSDCZlA", "width": 2448, "html_attributions": ["<a href=\"https://maps.google.com/maps/contrib/107573645261475153104\">Brotherhood loving Mishra</a>"], "height": 3264}], "scope": "GOOGLE", "business_status": "CLOSED_TEMPORARILY", "types": ["school", "point_of_interest", "establishment"], "icon": "https://maps.gstatic.com/mapfiles/place_api/icons/v1/png_71/school-71.png"}, {"permanently_closed": true, "name": "Arya Public School", "reference": "ChIJ_z_dHev7DDkRyhv836ZYD5E", "geometry": {"location": {"lat": 28.6687407, "lng": 77.3446958}, "viewport": {"northeast": {"lat": 28.6700841802915, "lng": 77.34605408029151}, "southwest": {"lat": 28.6673862197085, "lng": 77.34335611970849}}}, "place_id": "ChIJ_z_dHev7DDkRyhv836ZYD5E", "plus_code": {"global_code": "7JWVM89V+FV", "compound_code": "M89V+FV Ghaziabad, Uttar Pradesh, India"}, "vicinity": "Unnamed Road, Karkar Mandan, Sahibabad Industrial Area Site 4, Sahibabad, Ghaziabad", "scope": "GOOGLE", "business_status": "CLOSED_TEMPORARILY", "types": ["school", "point_of_interest", "establishment"], "icon": "https://maps.gstatic.com/mapfiles/place_api/icons/v1/png_71/school-71.png"}, {"permanently_closed": true, "name": "M.S.R. PUBLIC SCHOOL", "reference": "ChIJe8r-qtv7DDkRYY07OAAwQF8", "geometry": {"location": {"lat": 28.66775, "lng": 77.3444164}, "viewport": {"northeast": {"lat": 28.6690721302915, "lng": 77.34573738029151}, "southwest": {"lat": 28.6663741697085, "lng": 77.34303941970849}}}, "place_id": "ChIJe8r-qtv7DDkRYY07OAAwQF8", "plus_code": {"global_code": "7JWVM89V+3Q", "compound_code": "M89V+3Q Ghaziabad, Uttar Pradesh, India"}, "vicinity": "Karkar Model, New Hanuman Mandir Gali Near Ramlila Maidan, Sahibabad Industrial Area Site 4, Ghaziabad", "scope": "GOOGLE", "business_status": "CLOSED_TEMPORARILY", "types": ["school", "point_of_interest", "establishment"], "icon": "https://maps.gstatic.com/mapfiles/place_api/icons/v1/png_71/school-71.png"}, {"permanently_closed": true, "name": "Red rose public school..karkar modal sahibabad", "reference": "ChIJx1iG6gr7DDkRPvatgYy7c9Q", "geometry": {"location": {"lat": 28.6673661, "lng": 77.3442613}, "viewport": {"northeast": {"lat": 28.6686282802915, "lng": 77.3457208302915}, "southwest": {"lat": 28.6659303197085, "lng": 77.34302286970849}}}, "place_id": "ChIJx1iG6gr7DDkRPvatgYy7c9Q", "plus_code": {"global_code": "7JWVM88V+WP", "compound_code": "M88V+WP Ghaziabad, Uttar Pradesh, India"}, "vicinity": "Karkar Mandan, Sahibabad Industrial Area Site 4, Sahibabad, Ghaziabad", "scope": "GOOGLE", "business_status": "CLOSED_TEMPORARILY", "types": ["school", "point_of_interest", "establishment"], "icon": "https://maps.gstatic.com/mapfiles/place_api/icons/v1/png_71/school-71.png"}, {"rating": 4.5, "user_ratings_total": 2, "permanently_closed": true, "name": "VGM PUBLIC SCHOOL", "reference": "ChIJr3UU4OL6DDkRSiv3nCrOIDA", "geometry": {"location": {"lat": 28.66746820000001, "lng": 77.3352403}, "viewport": {"northeast": {"lat": 28.6688213302915, "lng": 77.3365852302915}, "southwest": {"lat": 28.6661233697085, "lng": 77.3338872697085}}}, "place_id": "ChIJr3UU4OL6DDkRSiv3nCrOIDA", "plus_code": {"global_code": "7JWVM88P+X3", "compound_code": "M88P+X3 Brij Vihar, Surya Nagar, Ghaziabad, Uttar Pradesh, India"}, "vicinity": "Vaishnodevi Temple, Subhash Rd, Bharat Electronics Limited Staff Quarters, Brij Vihar, Malad East, Mumbai", "scope": "GOOGLE", "business_status": "CLOSED_TEMPORARILY", "types": ["school", "point_of_interest", "establishment"], "icon": "https://maps.gstatic.com/mapfiles/place_api/icons/v1/png_71/school-71.png"}, {"rating": 3, "user_ratings_total": 1, "permanently_closed": true, "name": "Government Primary School", "reference": "ChIJycsdsgr7DDkRPNIPS683X_o", "geometry": {"location": {"lat": 28.6710902, "lng": 77.3455766}, "viewport": {"northeast": {"lat": 28.6724010302915, "lng": 77.3468720302915}, "southwest": {"lat": 28.6697030697085, "lng": 77.34417406970849}}}, "place_id": "ChIJycsdsgr7DDkRPNIPS683X_o", "plus_code": {"global_code": "7JWVM8CW+C6", "compound_code": "M8CW+C6 Ghaziabad, Uttar Pradesh, India"}, "vicinity": "Karkar Mandan, Sahibabad Industrial Area Site 4, Sahibabad, Ghaziabad", "scope": "GOOGLE", "business_status": "CLOSED_TEMPORARILY", "types": ["school", "point_of_interest", "establishment"], "icon": "https://maps.gstatic.com/mapfiles/place_api/icons/v1/png_71/school-71.png"}, {"rating": 3.8, "user_ratings_total": 5, "permanently_closed": true, "name": "Jain Study Point", "reference": "ChIJDy4XEf36DDkRzAPivZNC7AU", "geometry": {"location": {"lat": 28.670822, "lng": 77.33433819999999}, "viewport": {"northeast": {"lat": 28.6721382302915, "lng": 77.33569798029151}, "southwest": {"lat": 28.6694402697085, "lng": 77.3330000197085}}}, "place_id": "ChIJDy4XEf36DDkRzAPivZNC7AU", "plus_code": {"global_code": "7JWVM8CM+8P", "compound_code": "M8CM+8P Ghaziabad, Uttar Pradesh, India"}, "vicinity": "Block B, Brij Vihar, Surya Nagar, Ghaziabad", "scope": "GOOGLE", "business_status": "CLOSED_TEMPORARILY", "types": ["school", "point_of_interest", "establishment"], "icon": "https://maps.gstatic.com/mapfiles/place_api/icons/v1/png_71/school-71.png"}, {"rating": 5, "user_ratings_total": 1, "permanently_closed": true, "name": "Kids Stepping Stone", "reference": "ChIJb_BOSyH7DDkRZ-CN3Vq3a0A", "geometry": {"location": {"lat": 28.6748016, "lng": 77.3419542}, "viewport": {"northeast": {"lat": 28.6763105302915, "lng": 77.3432935802915}, "southwest": {"lat": 28.6736125697085, "lng": 77.3405956197085}}}, "place_id": "ChIJb_BOSyH7DDkRZ-CN3Vq3a0A", "plus_code": {"global_code": "7JWVM8FR+WQ", "compound_code": "M8FR+WQ Noida, Uttar Pradesh, India"}, "vicinity": "Flat No: KM9/0005,Kosmos,Jaypee Greens Sector-134,Noida, Noida", "scope": "GOOGLE", "business_status": "CLOSED_TEMPORARILY", "types": ["school", "point_of_interest", "establishment"], "icon": "https://maps.gstatic.com/mapfiles/place_api/icons/v1/png_71/school-71.png"}, {"permanently_closed": true, "name": "Red rose public school", "reference": "ChIJfWEoSff7DDkRH3CUTDAuXCY", "geometry": {"location": {"lat": 28.6704617, "lng": 77.346048}, "viewport": {"northeast": {"lat": 28.6717787802915, "lng": 77.3473613302915}, "southwest": {"lat": 28.6690808197085, "lng": 77.34466336970848}}}, "place_id": "ChIJfWEoSff7DDkRH3CUTDAuXCY", "plus_code": {"global_code": "7JWVM8CW+5C", "compound_code": "M8CW+5C Ghaziabad, Uttar Pradesh, India"}, "vicinity": "Gamma, Karkar Mandan, Sahibabad Industrial Area Site 4, Sahibabad, Ghaziabad", "scope": "GOOGLE", "business_status": "CLOSED_TEMPORARILY", "types": ["school", "point_of_interest", "establishment"], "icon": "https://maps.gstatic.com/mapfiles/place_api/icons/v1/png_71/school-71.png"}, {"rating": 4, "user_ratings_total": 1, "permanently_closed": true, "name": "Umesh Cycle Works", "reference": "ChIJkWB6CA37DDkRbfYtlqJE4Hw", "geometry": {"location": {"lat": 28.6706723, "lng": 77.3460312}, "viewport": {"northeast": {"lat": 28.67213268029149, "lng": 77.3474675802915}, "southwest": {"lat": 28.66943471970849, "lng": 77.34476961970849}}}, "place_id": "ChIJkWB6CA37DDkRbfYtlqJE4Hw", "plus_code": {"global_code": "7JWVM8CW+7C", "compound_code": "M8CW+7C Ghaziabad, Uttar Pradesh, India"}, "vicinity": "Karkar Mandan, Sahibabad Industrial Area Site 4, Sahibabad, Ghaziabad", "photos": [{"photo_reference": "ATtYBwJfPlYnR0z1jOmtjTfjq1U0HlEHbzChYe3Cvg2IC6q3Z5Bi50HsVZOrn36qM7_GQYR11nscvkmQvepEfsIalvcxq81OKoCfB_XppZFAo6xLQDk4zmZ_YdwRlr6QaK-hRUCxfw35iodHrto1T-9id7UBpCRZmh5E0BoIu9psi7euPhCd", "width": 3120, "html_attributions": ["<a href=\"https://maps.google.com/maps/contrib/116524150824482465434\">Umesh sahni</a>"], "height": 4160}], "scope": "GOOGLE", "business_status": "CLOSED_TEMPORARILY", "types": ["school", "point_of_interest", "establishment"], "icon": "https://maps.gstatic.com/mapfiles/place_api/icons/v1/png_71/school-71.png"}, {"rating": 5, "user_ratings_total": 1, "permanently_closed": true, "name": "Mr Akshay Singhal", "reference": "ChIJ1ygqBOj7DDkRVbsRf0NVnoY", "geometry": {"location": {"lat": 28.67027299999999, "lng": 77.33383769999999}, "viewport": {"northeast": {"lat": 28.6715776302915, "lng": 77.3352026802915}, "southwest": {"lat": 28.6688796697085, "lng": 77.33250471970848}}}, "place_id": "ChIJ1ygqBOj7DDkRVbsRf0NVnoY", "plus_code": {"global_code": "7JWVM8CM+4G", "compound_code": "M8CM+4G Ghaziabad, Uttar Pradesh, India"}, "vicinity": "B-24, Block B, Brij Vihar, Ghaziabad", "scope": "GOOGLE", "business_status": "CLOSED_TEMPORARILY", "types": ["school", "point_of_interest", "establishment"], "icon": "https://maps.gstatic.com/mapfiles/place_api/icons/v1/png_71/school-71.png"}, {"rating": 2, "user_ratings_total": 1, "permanently_closed": true, "name": "Kanchan", "reference": "ChIJqVZ3Hx77DDkRwlJ7a_RZcOI", "geometry": {"location": {"lat": 28.670634, "lng": 77.33371489999999}, "viewport": {"northeast": {"lat": 28.6719504802915, "lng": 77.33495318029152}, "southwest": {"lat": 28.6692525197085, "lng": 77.3322552197085}}}, "place_id": "ChIJqVZ3Hx77DDkRwlJ7a_RZcOI", "plus_code": {"global_code": "7JWVM8CM+7F", "compound_code": "M8CM+7F Ghaziabad, Uttar Pradesh, India"}, "vicinity": "Block B, Brij Vihar, Surya Nagar, Ghaziabad", "scope": "GOOGLE", "business_status": "CLOSED_TEMPORARILY", "types": ["school", "point_of_interest", "establishment"], "icon": "https://maps.gstatic.com/mapfiles/place_api/icons/v1/png_71/school-71.png"}]}