{"status": "OK", "html_attributions": [], "results": [{"name": "Amrapali Public School", "reference": "ChIJZcAhD-r7DDkRKB3TkRDOpVU", "geometry": {"location": {"lat": 28.6697587, "lng": 77.3335772}, "viewport": {"northeast": {"lat": 28.6711075802915, "lng": 77.3349248302915}, "southwest": {"lat": 28.6684096197085, "lng": 77.33222686970849}}}, "place_id": "ChIJZcAhD-r7DDkRKB3TkRDOpVU", "plus_code": {"global_code": "7JWVM89M+WC", "compound_code": "M89M+WC Ghaziabad, Uttar Pradesh, India"}, "vicinity": "A41 Bridge Bihar, A Block, Sector 4, Rajendra Nagar, Ghaziabad", "photos": [{"photo_reference": "ATtYBwJlIxjZKSR3UZhUjttQIiSc2EW2kw1RoJMZ1GaH1AcKOE9b7kTDIQCCgdQyQBaGw6ZwM22RXZekU3A6Dr6k0BZX9KL_k7J1NsL0moNivPNEM_HMC5IAxGRzJhUZcHZRAlB7iq9L02z7yiM0NIk6nPWmR79pnqF8mInsvKmIfMJriIjb", "width": 2304, "html_attributions": ["<a href=\"https://maps.google.com/maps/contrib/102715762940823265042\">real gamer 4.12 team</a>"], "height": 4096}], "scope": "GOOGLE", "business_status": "OPERATIONAL", "types": ["school", "point_of_interest", "establishment"], "icon": "https://maps.gstatic.com/mapfiles/place_api/icons/v1/png_71/school-71.png"}, {"permanently_closed": true, "name": "friends public school", "reference": "ChIJxbK8hv36DDkRI2BgS1xgCYc", "geometry": {"location": {"lat": 28.6720309, "lng": 77.3327563}, "viewport": {"northeast": {"lat": 28.6733711302915, "lng": 77.33405953029151}, "southwest": {"lat": 28.6706731697085, "lng": 77.33136156970849}}}, "place_id": "ChIJxbK8hv36DDkRI2BgS1xgCYc", "plus_code": {"global_code": "7JWVM8CM+R4", "compound_code": "M8CM+R4 Ghaziabad, Uttar Pradesh, India"}, "vicinity": "Brij Vihar Road, Block B, Brij Vihar, Surya Nagar, Ghaziabad", "scope": "GOOGLE", "business_status": "CLOSED_TEMPORARILY", "types": ["school", "point_of_interest", "establishment"], "icon": "https://maps.gstatic.com/mapfiles/place_api/icons/v1/png_71/school-71.png"}, {"name": "Virat offset printing machine cylinder repair", "reference": "ChIJt5yDvg37DDkRN5cEteoacOg", "geometry": {"location": {"lat": 28.6751594, "lng": 77.3351443}, "viewport": {"northeast": {"lat": 28.6765083802915, "lng": 77.3364932802915}, "southwest": {"lat": 28.6738104197085, "lng": 77.3337953197085}}}, "opening_hours": {"open_now": true}, "place_id": "ChIJt5yDvg37DDkRN5cEteoacOg", "plus_code": {"global_code": "7JWVM8GP+33", "compound_code": "M8GP+33 Ghaziabad, Uttar Pradesh, India"}, "vicinity": "Unnamed Road, Prakash Industrial Estate, Sahibabad Industrial Area Site 4, Sahibabad, Ghaziabad", "photos": [{"photo_reference": "ATtYBwKWrU1pP06bbXl_98PyePhT6XOg7EpCyiTUKn6ZHUatKc9c7EvhZYnArGbqZGv8reqw95TwPpI0qtCXt3ia8f62ucElvxk_-W0zZO_AnDHE5GTxHqviwOIcV96n3j5BJZCbx9xPEOrE_CPtkI6P5VGS3z_DOfgDpGaEGkkc1WviNwGD", "width": 738, "html_attributions": ["<a href=\"https://maps.google.com/maps/contrib/115674521325141500551\">Pramod Kumar</a>"], "height": 944}], "scope": "GOOGLE", "business_status": "OPERATIONAL", "types": ["school", "point_of_interest", "establishment"], "icon": "https://maps.gstatic.com/mapfiles/place_api/icons/v1/png_71/school-71.png"}, {"rating": 5, "user_ratings_total": 6, "permanently_closed": true, "name": "Brahmakumaris center, Brij Vihar", "reference": "ChIJff2Jw9X7DDkR3IL34QMdYTw", "geometry": {"location": {"lat": 28.6704773, "lng": 77.3323083}, "viewport": {"northeast": {"lat": 28.6718693302915, "lng": 77.3336412802915}, "southwest": {"lat": 28.6691713697085, "lng": 77.3309433197085}}}, "place_id": "ChIJff2Jw9X7DDkR3IL34QMdYTw", "plus_code": {"global_code": "7JWVM8CJ+5W", "compound_code": "M8CJ+5W Ghaziabad, Uttar Pradesh, India"}, "vicinity": "HIG Flats in front of water tank, Ghaziabad", "photos": [{"photo_reference": "ATtYBwL_eehfIJTYgjlMEQLGSEWMGzsoXcNCtQ977xiJ5-wYrxLaEZXw8x7ZlmHWRf0qkZypMYGEgE_r7D7XzOziuS1B5TbXMj3JmgZRhcxz_V4lPM45LR80QmDsE9MZyATT2KgmB5vbzJXTEFrQ8V69ewitVFg2aAOmowU7o0xnrvHAhQle", "width": 1280, "html_attributions": ["<a href=\"https://maps.google.com/maps/contrib/100348742584318180149\">Aditya Sharma</a>"], "height": 853}], "scope": "GOOGLE", "business_status": "CLOSED_TEMPORARILY", "types": ["school", "point_of_interest", "establishment"], "icon": "https://maps.gstatic.com/mapfiles/place_api/icons/v1/png_71/school-71.png"}, {"rating": 4.9, "user_ratings_total": 26, "name": "Passion Studio of Performing Arts", "reference": "ChIJc2X7iY_7DDkRf1MOOJh0qlo", "geometry": {"location": {"lat": 28.6754258, "lng": 77.3448995}, "viewport": {"northeast": {"lat": 28.6767789802915, "lng": 77.3463733802915}, "southwest": {"lat": 28.6740810197085, "lng": 77.34367541970849}}}, "opening_hours": {"open_now": false}, "place_id": "ChIJc2X7iY_7DDkRf1MOOJh0qlo", "plus_code": {"global_code": "7JWVM8GV+5X", "compound_code": "M8GV+5X Ghaziabad, Uttar Pradesh, India"}, "vicinity": "metro station, Plot No 2, Sector -5, Rajendra Nagar Sahibabad , opp Major Mohit sharma, Ghaziabad", "photos": [{"photo_reference": "ATtYBwJwN44kdNO6ARwbEO-gJUvNOABzla-zBEffk46IlPldSm1J8CHo4j5WpQrhTVvghmavY6VSh4c842X2YJXvHBMvwR9LFOjOGe7a0v1XFNzFn4nPhReBP3pow6BQbMlzz0qvJdKJOgGVEony8t_mM2AyPB9UHojOGlY8CTR4PYydpjMn", "width": 1032, "html_attributions": ["<a href=\"https://maps.google.com/maps/contrib/118118025356814432346\">Passion Studio of Performing Arts</a>"], "height": 774}], "scope": "GOOGLE", "business_status": "OPERATIONAL", "types": ["university", "school", "point_of_interest", "establishment"], "icon": "https://maps.gstatic.com/mapfiles/place_api/icons/v1/png_71/school-71.png"}, {"permanently_closed": true, "name": "A.S. Model School", "reference": "ChIJBxgX8_36DDkRhj4dI_bt7yA", "geometry": {"location": {"lat": 28.6731582, "lng": 77.3329275}, "viewport": {"northeast": {"lat": 28.6745037802915, "lng": 77.3342765302915}, "southwest": {"lat": 28.6718058197085, "lng": 77.3315785697085}}}, "place_id": "ChIJBxgX8_36DDkRhj4dI_bt7yA", "plus_code": {"global_code": "7JWVM8FM+75", "compound_code": "M8FM+75 Ghaziabad, Uttar Pradesh, India"}, "vicinity": "B-295, Block B, Block B, Surya Nagar, Ghaziabad", "scope": "GOOGLE", "business_status": "CLOSED_TEMPORARILY", "types": ["school", "point_of_interest", "establishment"], "icon": "https://maps.gstatic.com/mapfiles/place_api/icons/v1/png_71/school-71.png"}, {"rating": 5, "user_ratings_total": 2, "permanently_closed": true, "name": "Jitendra Tiwari Classes", "reference": "ChIJaSPmk1z7DDkRVloFYFEnncc", "geometry": {"location": {"lat": 28.6726401, "lng": 77.3326003}, "viewport": {"northeast": {"lat": 28.6739808802915, "lng": 77.3339061302915}, "southwest": {"lat": 28.6712829197085, "lng": 77.33120816970849}}}, "place_id": "ChIJaSPmk1z7DDkRVloFYFEnncc", "plus_code": {"global_code": "7JWVM8FM+32", "compound_code": "M8FM+32 Ghaziabad, Uttar Pradesh, India"}, "vicinity": "355, Block B, Brij Vihar, Surya Nagar, Ghaziabad", "scope": "GOOGLE", "business_status": "CLOSED_TEMPORARILY", "types": ["school", "point_of_interest", "establishment"], "icon": "https://maps.gstatic.com/mapfiles/place_api/icons/v1/png_71/school-71.png"}, {"permanently_closed": true, "name": "Bharat Rajput Mobile Repairing Shop", "reference": "ChIJta6-4EP7DDkRm3zj4QZ_xG4", "geometry": {"location": {"lat": 28.66875719999999, "lng": 77.3479346}, "viewport": {"northeast": {"lat": 28.67013963029149, "lng": 77.34937863029151}, "southwest": {"lat": 28.6674416697085, "lng": 77.34668066970849}}}, "place_id": "ChIJta6-4EP7DDkRm3zj4QZ_xG4", "plus_code": {"global_code": "7JWVM89X+G5", "compound_code": "M89X+G5 Ghaziabad, Uttar Pradesh, India"}, "vicinity": "Unnamed Road, Gamma 2, Sahibabad Industrial Area Site 4, Sahibabad, Ghaziabad", "photos": [{"photo_reference": "ATtYBwJ8pINQG1XoHIkeia6O3rDKDwAsiTErZ78qA3KtLqQG9C_azWfOwj5Tpit93WDKVsCW2Rvcc8AJHF4T3JuuRMMudldlfEQFnsz4Dyetih3pkO6czlEAfn5iiRXUBVB6rANycOw4Ny2XOsiM1OAhmtUUk0Q67bWFkatSFscGRvhTF1w", "width": 2448, "html_attributions": ["<a href=\"https://maps.google.com/maps/contrib/107573645261475153104\">Brotherhood loving Mishra</a>"], "height": 3264}], "scope": "GOOGLE", "business_status": "CLOSED_TEMPORARILY", "types": ["school", "point_of_interest", "establishment"], "icon": "https://maps.gstatic.com/mapfiles/place_api/icons/v1/png_71/school-71.png"}, {"permanently_closed": true, "name": "Delhi school", "reference": "ChIJ9dbj6fn6DDkR8rk-3g-Vd6g", "geometry": {"location": {"lat": 28.6768511, "lng": 77.34291809999999}, "viewport": {"northeast": {"lat": 28.67818988029149, "lng": 77.3442675302915}, "southwest": {"lat": 28.6754919197085, "lng": 77.3415695697085}}}, "place_id": "ChIJ9dbj6fn6DDkR8rk-3g-Vd6g", "plus_code": {"global_code": "7JWVM8GV+P5", "compound_code": "M8GV+P5 Ghaziabad, Uttar Pradesh, India"}, "vicinity": "Pipe Market, 95b, Grand Trunk Road, Prakash Industrial Area, Sahibabad Industrial Area Site 4, Sahibabad, Ghaziabad", "scope": "GOOGLE", "business_status": "CLOSED_TEMPORARILY", "types": ["primary_school", "school", "point_of_interest", "establishment"], "icon": "https://maps.gstatic.com/mapfiles/place_api/icons/v1/png_71/school-71.png"}, {"permanently_closed": true, "name": "Ps Logistic", "reference": "ChIJnVIBYhb7DDkRzQUMZ66ShT0", "geometry": {"location": {"lat": 28.6771461, "lng": 77.3375542}, "viewport": {"northeast": {"lat": 28.6785028302915, "lng": 77.3387666802915}, "southwest": {"lat": 28.6758048697085, "lng": 77.33606871970849}}}, "place_id": "ChIJnVIBYhb7DDkRzQUMZ66ShT0", "plus_code": {"global_code": "7JWVM8GQ+V2", "compound_code": "M8GQ+V2 Ghaziabad, Uttar Pradesh, India"}, "vicinity": "Shyam Enclave, Janak Puri, Ghaziabad", "scope": "GOOGLE", "business_status": "CLOSED_TEMPORARILY", "types": ["school", "point_of_interest", "establishment"], "icon": "https://maps.gstatic.com/mapfiles/place_api/icons/v1/png_71/school-71.png"}, {"rating": 5, "user_ratings_total": 1, "permanently_closed": true, "name": "Muskan school", "reference": "ChIJq6qqegL7DDkRpCiqCE_9VUU", "geometry": {"location": {"lat": 28.6722212, "lng": 77.3317246}, "viewport": {"northeast": {"lat": 28.6734986302915, "lng": 77.33309103029151}, "southwest": {"lat": 28.6708006697085, "lng": 77.33039306970849}}}, "place_id": "ChIJq6qqegL7DDkRpCiqCE_9VUU", "plus_code": {"global_code": "7JWVM8CJ+VM", "compound_code": "M8CJ+VM Ghaziabad, Uttar Pradesh, India"}, "vicinity": "B-67, Block B, Brij Vihar, Surya Nagar, Ghaziabad", "scope": "GOOGLE", "business_status": "CLOSED_TEMPORARILY", "types": ["school", "point_of_interest", "establishment"], "icon": "https://maps.gstatic.com/mapfiles/place_api/icons/v1/png_71/school-71.png"}, {"rating": 5, "user_ratings_total": 1, "permanently_closed": true, "name": "N.D.S.A Public school Ekta Colony", "reference": "ChIJD46BsFj7DDkRsiSHJTWqQsY", "geometry": {"location": {"lat": 28.6774576, "lng": 77.3379618}, "viewport": {"northeast": {"lat": 28.67846048029149, "lng": 77.3393257302915}, "southwest": {"lat": 28.6757625197085, "lng": 77.3366277697085}}}, "place_id": "ChIJD46BsFj7DDkRsiSHJTWqQsY", "plus_code": {"global_code": "7JWVM8GQ+X5", "compound_code": "M8GQ+X5 Ghaziabad, Uttar Pradesh, India"}, "vicinity": "Grand Trunk Road, Ekta Colony, Shyam Enclave, Janak Puri, Ghaziabad", "photos": [{"photo_reference": "ATtYBwLavJ5nMq1vyEv5P00thhi8WmejRSaSB7Xwi1jC12kS5Wy0KUe8NnpTSn_MBMQJMS7xVExxSjAACyFkp0n6rr-eYDUojYpTOtok6RvkpWwzglhFWAz2mMd0sam4izVbrhQ8qJt-_MVrqmOpuLDmgy5M4h5uiwbnwrAla7x1g7ehqEEL", "width": 3120, "html_attributions": ["<a href=\"https://maps.google.com/maps/contrib/111022622431293270351\">raj bhatt</a>"], "height": 4160}], "scope": "GOOGLE", "business_status": "CLOSED_TEMPORARILY", "types": ["school", "point_of_interest", "establishment"], "icon": "https://maps.gstatic.com/mapfiles/place_api/icons/v1/png_71/school-71.png"}, {"rating": 4.8, "user_ratings_total": 4, "permanently_closed": true, "name": "Genesis of Design", "reference": "ChIJ6WZOBEX7DDkRIJNvW5XW9kg", "geometry": {"location": {"lat": 28.67686019999999, "lng": 77.34446}, "viewport": {"northeast": {"lat": 28.6781738302915, "lng": 77.3458100802915}, "southwest": {"lat": 28.6754758697085, "lng": 77.34311211970848}}}, "place_id": "ChIJ6WZOBEX7DDkRIJNvW5XW9kg", "plus_code": {"global_code": "7JWVM8GV+PQ", "compound_code": "M8GV+PQ Ghaziabad, Uttar Pradesh, India"}, "vicinity": "Hall no. 1, floor no. 2, Plot no. 3, Main GT Road, Opp. Pillar No. 2/33, Near Rajbagh Metro Station, Sahibabad, Ghaziabad", "scope": "GOOGLE", "business_status": "CLOSED_TEMPORARILY", "types": ["school", "point_of_interest", "establishment"], "icon": "https://maps.gstatic.com/mapfiles/place_api/icons/v1/png_71/school-71.png"}, {"rating": 5, "user_ratings_total": 1, "permanently_closed": true, "name": "Yoga Classes", "reference": "ChIJJ1124PP7DDkRhYpi-yPWvTE", "geometry": {"location": {"lat": 28.6680721, "lng": 77.3309618}, "viewport": {"northeast": {"lat": 28.66945918029149, "lng": 77.3323618302915}, "southwest": {"lat": 28.66676121970849, "lng": 77.3296638697085}}}, "place_id": "ChIJJ1124PP7DDkRhYpi-yPWvTE", "plus_code": {"global_code": "7JWVM89J+69", "compound_code": "M89J+69 Ghaziabad, Uttar Pradesh, India"}, "vicinity": "Gaurs Residency, Flat no. 411, Chander Nagar, Gzb, Ghaziabad", "scope": "GOOGLE", "business_status": "CLOSED_TEMPORARILY", "types": ["school", "point_of_interest", "establishment"], "icon": "https://maps.gstatic.com/mapfiles/place_api/icons/v1/png_71/school-71.png"}, {"rating": 4, "user_ratings_total": 1, "permanently_closed": true, "name": "New Convent Public School", "reference": "ChIJtVacNaf7DDkRoT2MQJc-ckc", "geometry": {"location": {"lat": 28.66195219999999, "lng": 77.3367001}, "viewport": {"northeast": {"lat": 28.6632809802915, "lng": 77.33796788029152}, "southwest": {"lat": 28.6605830197085, "lng": 77.3352699197085}}}, "place_id": "ChIJtVacNaf7DDkRoT2MQJc-ckc", "plus_code": {"global_code": "7JWVM86P+QM", "compound_code": "M86P+QM Ghaziabad, Uttar Pradesh, India"}, "vicinity": "Mangal Wali Gali Village, Sahibabad, Ghaziabad", "photos": [{"photo_reference": "ATtYBwJYwmlWORU3zUALy2jBZH6Yi8_NIJVXaiQn6wcyopj4gHbXSMkqkFtEgmWFOONTbjOgmKKFAomvafwk1haZdxJoxKt7u4ML0SrUuSYw9zuFwYJH8OgqmiNvf2cK2XCAqiLNk2S2fiojRs6w_kGN_63iJJ0pUgP21uci9LYrhR3kOfRi", "width": 3680, "html_attributions": ["<a href=\"https://maps.google.com/maps/contrib/111165341390114030474\">Shivani Baliyan</a>"], "height": 1395}], "scope": "GOOGLE", "business_status": "CLOSED_TEMPORARILY", "types": ["school", "point_of_interest", "establishment"], "icon": "https://maps.gstatic.com/mapfiles/place_api/icons/v1/png_71/school-71.png"}, {"permanently_closed": true, "name": "Bharti Public School", "reference": "ChIJf4cfnPf7DDkRUFKsiQUoX_U", "geometry": {"location": {"lat": 28.66195219999999, "lng": 77.3367001}, "viewport": {"northeast": {"lat": 28.6632594302915, "lng": 77.3379865302915}, "southwest": {"lat": 28.6605614697085, "lng": 77.3352885697085}}}, "place_id": "ChIJf4cfnPf7DDkRUFKsiQUoX_U", "plus_code": {"global_code": "7JWVM86P+QM", "compound_code": "M86P+QM Ghaziabad, Uttar Pradesh, India"}, "vicinity": "Sahibabad, Ghaziabad", "photos": [{"photo_reference": "ATtYBwLBOjKV3RMuxvhXuCrwgiC30_dYrvtvhL6LFduyOKiGnGoFDGM3CiVeTISiBZpzPnR6O9k7AFgJXhT8I9Scn2K7XCk9PSr039ng39Dyz2oXkXnUlZvfXGaex6-4c6epZGBRRgk1-9hOnUtNVABbXKsoFfpB81IvIPS_1Zko7Cj9MBrq", "width": 2250, "html_attributions": ["<a href=\"https://maps.google.com/maps/contrib/104613970752678928373\">Bilal khan 111</a>"], "height": 4000}], "scope": "GOOGLE", "business_status": "CLOSED_TEMPORARILY", "types": ["school", "point_of_interest", "establishment"], "icon": "https://maps.gstatic.com/mapfiles/place_api/icons/v1/png_71/school-71.png"}, {"name": "\u0936\u0947\u092a\u094d\u0930\u094b\u0928 \u092a\u094d\u0930\u0940 \u0938\u094d\u0915\u0942\u0932", "reference": "ChIJfemsBFP7DDkR_8Q_5OHwkTk", "geometry": {"location": {"lat": 28.6698777, "lng": 77.3301187}, "viewport": {"northeast": {"lat": 28.67125178029149, "lng": 77.3315215802915}, "southwest": {"lat": 28.6685538197085, "lng": 77.32882361970849}}}, "place_id": "ChIJfemsBFP7DDkR_8Q_5OHwkTk", "plus_code": {"global_code": "7JWVM89J+X2", "compound_code": "M89J+X2 Ghaziabad, Uttar Pradesh, India"}, "vicinity": "A 86 VASCODA APARTMENT, Rampuri, Surya Nagar, Ghaziabad", "scope": "GOOGLE", "business_status": "OPERATIONAL", "types": ["school", "point_of_interest", "establishment"], "icon": "https://maps.gstatic.com/mapfiles/place_api/icons/v1/png_71/school-71.png"}, {"rating": 5, "user_ratings_total": 3, "permanently_closed": true, "name": "Mahajan La Petite Play School", "reference": "ChIJ5RAkUQL7DDkRkWlCGdfX1IY", "geometry": {"location": {"lat": 28.671686, "lng": 77.3300825}, "viewport": {"northeast": {"lat": 28.6730832302915, "lng": 77.33152748029151}, "southwest": {"lat": 28.6703852697085, "lng": 77.3288295197085}}}, "place_id": "ChIJ5RAkUQL7DDkRkWlCGdfX1IY", "plus_code": {"global_code": "7JWVM8CJ+M2", "compound_code": "M8CJ+M2 Ghaziabad, Uttar Pradesh, India"}, "vicinity": "B 1, Block B, Rampuri, Surya Nagar, Ghaziabad", "photos": [{"photo_reference": "ATtYBwId2mNs0j00o1feA3z7CLR9BSfi4F0vd_GByuOY2VghdFry8At5ynwi9AylmSD325uYICxMnl1KhTegBxilMEo3nbPavuiyEOuHoyhURXnrALa2JjGCCL69QFCms6u8dbKZQdng_npjIwRcnROl-2J4lzLjHEmVg7a3mRritrVoGR_X", "width": 4608, "html_attributions": ["<a href=\"https://maps.google.com/maps/contrib/109299182913344437751\">preksha aggarwal</a>"], "height": 3456}], "scope": "GOOGLE", "business_status": "CLOSED_TEMPORARILY", "types": ["school", "point_of_interest", "establishment"], "icon": "https://maps.gstatic.com/mapfiles/place_api/icons/v1/png_71/school-71.png"}, {"rating": 4.6, "user_ratings_total": 5, "permanently_closed": true, "name": "EuroKids Pre-School Vaishali", "reference": "ChIJ9d7NQij7DDkR3C9nexgnfGA", "geometry": {"location": {"lat": 28.6609173, "lng": 77.3410569}, "viewport": {"northeast": {"lat": 28.6623552802915, "lng": 77.34253203029151}, "southwest": {"lat": 28.6596573197085, "lng": 77.3398340697085}}}, "place_id": "ChIJ9d7NQij7DDkR3C9nexgnfGA", "plus_code": {"global_code": "7JWVM86R+9C", "compound_code": "M86R+9C Ghaziabad, Uttar Pradesh, India"}, "vicinity": "Vaishali House No. IIIA/14, Rachna, Vaishali, Ghaziabad", "photos": [{"photo_reference": "ATtYBwLGE7PfE9uuhF96LaeuZhP9Gf310VMyI_bReC8wNlEDMzT54TWBHpx0Zt_eVXuvKMV2p-ppGFmGetYeUtySDMzRIJgh73mUP3735xFD4vHw3athCtSajKEGzGC36GVAIAUYt_aoy0zGO6uUDYQDhFcn_bOPrsJr61gIQowji6uLaaui", "width": 3480, "html_attributions": ["<a href=\"https://maps.google.com/maps/contrib/100173215075129597627\">Aditya Anand</a>"], "height": 4640}], "scope": "GOOGLE", "business_status": "CLOSED_TEMPORARILY", "types": ["school", "point_of_interest", "establishment"], "icon": "https://maps.gstatic.com/mapfiles/place_api/icons/v1/png_71/school-71.png"}, {"permanently_closed": true, "name": "New Hope Academy", "reference": "ChIJw1EIHvLxDDkRKH2TPLyNn34", "geometry": {"location": {"lat": 28.6609173, "lng": 77.3410569}, "viewport": {"northeast": {"lat": 28.6623552802915, "lng": 77.34253203029151}, "southwest": {"lat": 28.6596573197085, "lng": 77.3398340697085}}}, "place_id": "ChIJw1EIHvLxDDkRKH2TPLyNn34", "plus_code": {"global_code": "7JWVM86R+9C", "compound_code": "M86R+9C Ghaziabad, Uttar Pradesh, India"}, "vicinity": "912, Flat No. G2, 3, Sector 3, Vasundhara, Ghaziabad", "scope": "GOOGLE", "business_status": "CLOSED_TEMPORARILY", "types": ["school", "point_of_interest", "establishment"], "icon": "https://maps.gstatic.com/mapfiles/place_api/icons/v1/png_71/school-71.png"}]}