{"status": "OK", "html_attributions": [], "results": [{"rating": 4.2, "user_ratings_total": 51, "permanently_closed": true, "name": "S P S", "reference": "ChIJH27XBgH5DDkRtc5dGSwUFF4", "geometry": {"location": {"lat": 28.7685282, "lng": 77.3291709}, "viewport": {"northeast": {"lat": 28.7700217802915, "lng": 77.33061483029151}, "southwest": {"lat": 28.7673238197085, "lng": 77.32791686970849}}}, "place_id": "ChIJH27XBgH5DDkRtc5dGSwUFF4", "plus_code": {"global_code": "7JWVQ89H+CM", "compound_code": "Q89H+CM Chirauri, Uttar Pradesh, India"}, "vicinity": "Chirauri", "photos": [{"photo_reference": "ATtYBwIVW7SeYXMQj9av2-jyO1pzgLbVRHel1r2_5BYH93J6ieEhe_dl0WsLCr6MqeUO_EtK2JC2JAbyqUtU1Fv_StkpAuDLSYgOgs-Bwn5D4eOIb06UlE4zaAOY5BDtmFGZcSx4J98vi-VO8zzLlu_rjx2SUJRfJBOrcz8qIbS7OAsZ6rle", "width": 4288, "html_attributions": ["<a href=\"https://maps.google.com/maps/contrib/101307519384936597823\">vinay shackti</a>"], "height": 2848}], "scope": "GOOGLE", "business_status": "CLOSED_TEMPORARILY", "types": ["school", "point_of_interest", "establishment"], "icon": "https://maps.gstatic.com/mapfiles/place_api/icons/v1/png_71/school-71.png"}, {"rating": 3.3, "user_ratings_total": 15, "permanently_closed": true, "name": "K.R.Inter College,Chirori", "reference": "ChIJ91AKyqz5DDkR56jRrLv8to8", "geometry": {"location": {"lat": 28.7722967, "lng": 77.3396301}, "viewport": {"northeast": {"lat": 28.77385513029149, "lng": 77.34084008029151}, "southwest": {"lat": 28.77115716970849, "lng": 77.33814211970851}}}, "place_id": "ChIJ91AKyqz5DDkR56jRrLv8to8", "plus_code": {"global_code": "7JWVQ8CQ+WV", "compound_code": "Q8CQ+WV Chirauri, Uttar Pradesh, India"}, "vicinity": "Chirauri", "photos": [{"photo_reference": "ATtYBwJSgjjlxHly8w1nLdv_T2g-fTeBngBsPmTKxmX8P8-pWugUCkkK2sMjmbdyZHcqXaEDnNrixznm364__GWv673wWZzvqTdUYVWRAO9ZhUtWUC6a0jkr5SApPtO-SpZvXqaSVReELyFExub9bIhjfCw7cL-E-PgUq3CbrY9hoFidTQmL", "width": 2560, "html_attributions": ["<a href=\"https://maps.google.com/maps/contrib/102783875257663825582\">Mohit Prjapati</a>"], "height": 1440}], "scope": "GOOGLE", "business_status": "CLOSED_TEMPORARILY", "types": ["school", "point_of_interest", "establishment"], "icon": "https://maps.gstatic.com/mapfiles/place_api/icons/v1/png_71/school-71.png"}, {"rating": 5, "user_ratings_total": 1, "permanently_closed": true, "name": "\u0935\u093f\u091c\u092f \u0938\u093f\u0902\u0939 \u092a\u0925\u093f\u0915 \u0907\u0902\u091f\u0930 \u0915\u093e\u0932\u0947\u091c", "reference": "ChIJJfnteNn5DDkRshmqczKRjiA", "geometry": {"location": {"lat": 28.77438470000001, "lng": 77.340244}, "viewport": {"northeast": {"lat": 28.7757159802915, "lng": 77.3417026802915}, "southwest": {"lat": 28.7730180197085, "lng": 77.33900471970848}}}, "place_id": "ChIJJfnteNn5DDkRshmqczKRjiA", "plus_code": {"global_code": "7JWVQ8FR+Q3", "compound_code": "Q8FR+Q3 Chirodi, Uttar Pradesh, India"}, "vicinity": "Chirodi", "scope": "GOOGLE", "business_status": "CLOSED_TEMPORARILY", "types": ["school", "point_of_interest", "establishment"], "icon": "https://maps.gstatic.com/mapfiles/place_api/icons/v1/png_71/school-71.png"}, {"rating": 4.5, "user_ratings_total": 16, "name": "Adarsh Gyan Sarovar Public School", "reference": "ChIJ4QTselT4DDkReKQ-FGl5ksg", "geometry": {"location": {"lat": 28.7758565, "lng": 77.3375822}, "viewport": {"northeast": {"lat": 28.77718678029149, "lng": 77.33895773029151}, "southwest": {"lat": 28.77448881970849, "lng": 77.33625976970849}}}, "opening_hours": {"open_now": false}, "place_id": "ChIJ4QTselT4DDkReKQ-FGl5ksg", "plus_code": {"global_code": "7JWVQ8GQ+82", "compound_code": "Q8GQ+82 Chirauri, Uttar Pradesh, India"}, "vicinity": "Chirodi - Mewla Bhatti Road, Chirauri", "photos": [{"photo_reference": "ATtYBwJJkV594_FlBP8L0LYrrspHJlo5tMfopZaem1HsmrML59mGMCZ7OGdvne4G1yQQa3xDivrHAjT96Fg2j4aFZK60w227YuQ6tqoIR0WfVAaGb47JL9W1QQAWQd14_R0m1Q24CnA4efoBmxHI23bLivcWy59d2orShyaovyZxOvfl-DWX", "width": 3264, "html_attributions": ["<a href=\"https://maps.google.com/maps/contrib/114649660885536081384\">Adarsh Gyan Sarovar Public School</a>"], "height": 2448}], "scope": "GOOGLE", "business_status": "OPERATIONAL", "types": ["school", "point_of_interest", "establishment"], "icon": "https://maps.gstatic.com/mapfiles/place_api/icons/v1/png_71/school-71.png"}, {"rating": 5, "user_ratings_total": 1, "permanently_closed": true, "name": "Paarth Rockstar Academy", "reference": "ChIJjy95YVb4DDkR8BsV5etetfY", "geometry": {"location": {"lat": 28.7789817, "lng": 77.335121}, "viewport": {"northeast": {"lat": 28.7802484302915, "lng": 77.33644053029151}, "southwest": {"lat": 28.7775504697085, "lng": 77.33374256970849}}}, "place_id": "ChIJjy95YVb4DDkR8BsV5etetfY", "plus_code": {"global_code": "7JWVQ8HP+H2", "compound_code": "Q8HP+H2 Chirodi, Uttar Pradesh, India"}, "vicinity": "Chirodi", "scope": "GOOGLE", "business_status": "CLOSED_TEMPORARILY", "types": ["school", "point_of_interest", "establishment"], "icon": "https://maps.gstatic.com/mapfiles/place_api/icons/v1/png_71/school-71.png"}, {"permanently_closed": true, "name": "Mohit Sharna, arpit sharma home chirori", "reference": "ChIJ1xI5XbT5DDkRroLGaMf1Omo", "geometry": {"location": {"lat": 28.77943089999999, "lng": 77.3362327}, "viewport": {"northeast": {"lat": 28.7807786302915, "lng": 77.3375850302915}, "southwest": {"lat": 28.7780806697085, "lng": 77.3348870697085}}}, "place_id": "ChIJ1xI5XbT5DDkRroLGaMf1Omo", "plus_code": {"global_code": "7JWVQ8HP+QF", "compound_code": "Q8HP+QF Chirauri, Uttar Pradesh, India"}, "vicinity": "Mohit arpit sharma, home, Loni Dehat, Chirauri", "photos": [{"photo_reference": "ATtYBwKJs-EA2VfumoOq8zwAYgK48MeEbChbtaJ4_a0fE-H_orHA9_99CAoZ6sn45IMFrKrW1La-ucMA9MRrpfxnMhAl0hin1DfwYhlt0lZWfuVCut8nBxsvgBqKNNcx0hPhg8WP4gzYbErAeP6ZZRhE_zwN2eC_0VYgCchRnkEmwS9YndYu", "width": 4160, "html_attributions": ["<a href=\"https://maps.google.com/maps/contrib/112497473689230851185\">Poonam Sharma</a>"], "height": 3120}], "scope": "GOOGLE", "business_status": "CLOSED_TEMPORARILY", "types": ["school", "point_of_interest", "establishment"], "icon": "https://maps.gstatic.com/mapfiles/place_api/icons/v1/png_71/school-71.png"}, {"permanently_closed": true, "name": "Chhota Madrasa", "reference": "ChIJAZJR6o_5DDkRnVRdnnBora0", "geometry": {"location": {"lat": 28.7772491, "lng": 77.3320804}, "viewport": {"northeast": {"lat": 28.7786791302915, "lng": 77.3334872302915}, "southwest": {"lat": 28.7759811697085, "lng": 77.33078926970848}}}, "place_id": "ChIJAZJR6o_5DDkRnVRdnnBora0", "plus_code": {"global_code": "7JWVQ8GJ+VR", "compound_code": "Q8GJ+VR Chirodi, Uttar Pradesh, India"}, "vicinity": "Chirodi", "scope": "GOOGLE", "business_status": "CLOSED_TEMPORARILY", "types": ["school", "point_of_interest", "establishment"], "icon": "https://maps.gstatic.com/mapfiles/place_api/icons/v1/png_71/school-71.png"}, {"rating": 1, "user_ratings_total": 1, "permanently_closed": true, "name": "Sarpanch Darghai stadium", "reference": "ChIJa4Jt8Qr5DDkRNIRmQBSPmFY", "geometry": {"location": {"lat": 28.77455500000001, "lng": 77.3292305}, "viewport": {"northeast": {"lat": 28.7758673302915, "lng": 77.33055093029151}, "southwest": {"lat": 28.7731693697085, "lng": 77.32785296970849}}}, "place_id": "ChIJa4Jt8Qr5DDkRNIRmQBSPmFY", "plus_code": {"global_code": "7JWVQ8FH+RM", "compound_code": "Q8FH+RM Chirauri, Uttar Pradesh, India"}, "vicinity": "Chirauri", "scope": "GOOGLE", "business_status": "CLOSED_TEMPORARILY", "types": ["school", "point_of_interest", "establishment"], "icon": "https://maps.gstatic.com/mapfiles/place_api/icons/v1/png_71/school-71.png"}, {"name": "Ayush Janrel stoer", "reference": "ChIJr4fsse_5DDkR4gRKvMhhptw", "geometry": {"location": {"lat": 28.77270020000001, "lng": 77.3283514}, "viewport": {"northeast": {"lat": 28.7745087802915, "lng": 77.3295063302915}, "southwest": {"lat": 28.77181081970851, "lng": 77.32680836970849}}}, "place_id": "ChIJr4fsse_5DDkR4gRKvMhhptw", "plus_code": {"global_code": "7JWVQ8FH+38", "compound_code": "Q8FH+38 Fatiyabad Nithora, Uttar Pradesh, India"}, "vicinity": "Unnamed Road, Fatiyabad Nithora", "photos": [{"photo_reference": "ATtYBwLOaTbSnd3KbcQrncQgeU38UCF-i0rO4F-x5OxPRk_DUyPq9EDPepmAzgHglNKpLDGc3ql0oTqNSkCtlWRiasjAA34_Ykt7I42yhxoh-Y9MxS6bSwhBUbBnK4vI2nhh_tEdptkemgwe3s1m79NvHGxBnl4iD3nDejvc7S0RlWynPU_D", "width": 2128, "html_attributions": ["<a href=\"https://maps.google.com/maps/contrib/110013635150071972745\">Rahul Gupta prank video</a>"], "height": 2128}], "scope": "GOOGLE", "business_status": "OPERATIONAL", "types": ["school", "point_of_interest", "establishment"], "icon": "https://maps.gstatic.com/mapfiles/place_api/icons/v1/png_71/school-71.png"}, {"rating": 1, "user_ratings_total": 1, "permanently_closed": true, "name": "\u0906\u0902\u0917\u0928\u0935\u093e\u0921\u093c\u0940 \u0915\u0947\u0902\u0926\u094d\u0930 \u091a\u093f\u0930\u094c\u0921\u0940 ( \u0917\u093e\u091c\u093f\u092f\u093e\u092c\u093e\u0926 )", "reference": "ChIJy4OZvz35DDkRDMBV8e-eKFo", "geometry": {"location": {"lat": 28.7796199, "lng": 77.3344876}, "viewport": {"northeast": {"lat": 28.7809554302915, "lng": 77.33587663029151}, "southwest": {"lat": 28.7782574697085, "lng": 77.33317866970849}}}, "place_id": "ChIJy4OZvz35DDkRDMBV8e-eKFo", "plus_code": {"global_code": "7JWVQ8HM+RQ", "compound_code": "Q8HM+RQ Chirauri, Uttar Pradesh, India"}, "vicinity": "Unnamed Road, Chirauri", "photos": [{"photo_reference": "ATtYBwIq_uHJsBw3UpWrUZT3jDPJVOuOytsKuNyYqtv0Dkvefm-e0gooHSpEM4pnsXVZNnN1kAuGYaJygJYO9fwsvXY4GQs9EbmNOjxquDBowuk7y0HirQFOzkZfFtx5aoMNWRwP42w4tDgEVja4yexQ9pg0XNrpm62k95D6A6o-h6s3PPBi", "width": 4000, "html_attributions": ["<a href=\"https://maps.google.com/maps/contrib/105382826147650989481\">Suaib Khan</a>"], "height": 3000}], "scope": "GOOGLE", "business_status": "CLOSED_TEMPORARILY", "types": ["school", "point_of_interest", "establishment"], "icon": "https://maps.gstatic.com/mapfiles/place_api/icons/v1/png_71/school-71.png"}, {"permanently_closed": true, "name": "Bada Madrasa", "reference": "ChIJt4B1w2z5DDkRqI4V0-wzmMk", "geometry": {"location": {"lat": 28.7813003, "lng": 77.3356484}, "viewport": {"northeast": {"lat": 28.7826534802915, "lng": 77.33698753029151}, "southwest": {"lat": 28.7799555197085, "lng": 77.3342895697085}}}, "place_id": "ChIJt4B1w2z5DDkRqI4V0-wzmMk", "plus_code": {"global_code": "7JWVQ8JP+G7", "compound_code": "Q8JP+G7 Chirauri, Uttar Pradesh, India"}, "vicinity": "Chirauri", "scope": "GOOGLE", "business_status": "CLOSED_TEMPORARILY", "types": ["school", "point_of_interest", "establishment"], "icon": "https://maps.gstatic.com/mapfiles/place_api/icons/v1/png_71/school-71.png"}, {"permanently_closed": true, "name": "\u0642\u0627\u0631\u06cc \u0639\u0628\u062f\u0627\u0644\u0645\u0648\u0645\u0646 \u0635\u0627\u062d\u0628", "reference": "ChIJod7AtXL5DDkROmZhf5bN9Fs", "geometry": {"location": {"lat": 28.7822468, "lng": 77.33612149999999}, "viewport": {"northeast": {"lat": 28.7835823302915, "lng": 77.3375032802915}, "southwest": {"lat": 28.7808843697085, "lng": 77.33480531970848}}}, "place_id": "ChIJod7AtXL5DDkROmZhf5bN9Fs", "plus_code": {"global_code": "7JWVQ8JP+VC", "compound_code": "Q8JP+VC Chirauri, Uttar Pradesh, India"}, "vicinity": "Chirauri", "scope": "GOOGLE", "business_status": "CLOSED_TEMPORARILY", "types": ["school", "point_of_interest", "establishment"], "icon": "https://maps.gstatic.com/mapfiles/place_api/icons/v1/png_71/school-71.png"}]}