{"status": "OK", "html_attributions": [], "results": [{"rating": 4.9, "user_ratings_total": 56, "name": "Kingdom of Toddlers play school", "reference": "ChIJwYgPyU0JDTkRE9QEDogTwYY", "geometry": {"location": {"lat": 28.69143249999999, "lng": 76.9327138}, "viewport": {"northeast": {"lat": 28.6927563302915, "lng": 76.9340421802915}, "southwest": {"lat": 28.6900583697085, "lng": 76.93134421970849}}}, "opening_hours": {"open_now": false}, "place_id": "ChIJwYgPyU0JDTkRE9QEDogTwYY", "plus_code": {"global_code": "7JWRMWRM+H3", "compound_code": "MWRM+H3 Bahadurgarh, India"}, "vicinity": "GALI NO 1, Nahra Nahri Road, Model Town, Bahadurgarh", "photos": [{"photo_reference": "ATtYBwIyahS-oDmppRIZ1dmuU8DeNjldHFlsRkZjTYvmqODh1Gf-aZOUou-YdSRgKCg0IE3Qj_WWi6M0eVx5I0Qv-KI0pWsReUCmZb_YOdH0g7ETiihxGBeSVwWzu-Q_r5A3tE5x4SY3Td2runLERZw5wa2uBhx0pfqKKmoEr6v3Kh_16c3_", "width": 2448, "html_attributions": ["<a href=\"https://maps.google.com/maps/contrib/111908966388758763867\">Kingdom of Toddlers play school</a>"], "height": 3264}], "scope": "GOOGLE", "business_status": "OPERATIONAL", "types": ["school", "point_of_interest", "establishment"], "icon": "https://maps.gstatic.com/mapfiles/place_api/icons/v1/png_71/school-71.png"}, {"rating": 4.5, "user_ratings_total": 8, "permanently_closed": true, "name": "Aplomb classes", "reference": "ChIJYXDiA7QJDTkRdQUxN5Fuyno", "geometry": {"location": {"lat": 28.691356, "lng": 76.93256199999999}, "viewport": {"northeast": {"lat": 28.6928628802915, "lng": 76.9334333302915}, "southwest": {"lat": 28.6901649197085, "lng": 76.9307353697085}}}, "place_id": "ChIJYXDiA7QJDTkRdQUxN5Fuyno", "plus_code": {"global_code": "7JWRMWRM+G2", "compound_code": "MWRM+G2 Bahadurgarh, India"}, "vicinity": "Nahra Nahri Road, Model Town, Bahadurgarh", "photos": [{"photo_reference": "ATtYBwICC6XE4Rrd2w-_L54ye3yDFzk0J15MMbl-nU046f90B-A45w1kkG6ULDSp3cOq5nkdvFT1no1PgM0wyzkqNdQeuU2FRvZxMHFlcZYEtMhATSjL6gHrAUr6DyDHP4oUkaMWA9cwMDJb6Y2H3K2gad43wAq75Nfw6gmGIyInLJnaL2s_", "width": 4144, "html_attributions": ["<a href=\"https://maps.google.com/maps/contrib/107460309301626264834\">PHYSICS BY MAK</a>"], "height": 1968}], "scope": "GOOGLE", "business_status": "CLOSED_TEMPORARILY", "types": ["school", "point_of_interest", "establishment"], "icon": "https://maps.gstatic.com/mapfiles/place_api/icons/v1/png_71/school-71.png"}, {"permanently_closed": true, "name": "Rtyy", "reference": "ChIJIcdTE54JDTkRHsP4mYFugyI", "geometry": {"location": {"lat": 28.6940611, "lng": 76.933077}, "viewport": {"northeast": {"lat": 28.6953520302915, "lng": 76.93442543029151}, "southwest": {"lat": 28.6926540697085, "lng": 76.93172746970849}}}, "place_id": "ChIJIcdTE54JDTkRHsP4mYFugyI", "plus_code": {"global_code": "7JWRMWVM+J6", "compound_code": "MWVM+J6 Bahadurgarh, India"}, "vicinity": "Model Town, Bahadurgarh", "scope": "GOOGLE", "business_status": "CLOSED_TEMPORARILY", "types": ["school", "point_of_interest", "establishment"], "icon": "https://maps.gstatic.com/mapfiles/place_api/icons/v1/png_71/school-71.png"}, {"name": "Sharp Brain Academy Model Town", "reference": "ChIJ6Z7EddYJDTkRKcEJ7pPZhCU", "geometry": {"location": {"lat": 28.69468139999999, "lng": 76.933556}, "viewport": {"northeast": {"lat": 28.6960897802915, "lng": 76.93477398029151}, "southwest": {"lat": 28.6933918197085, "lng": 76.9320760197085}}}, "place_id": "ChIJ6Z7EddYJDTkRKcEJ7pPZhCU", "plus_code": {"global_code": "7JWRMWVM+VC", "compound_code": "MWVM+VC Bahadurgarh, India"}, "vicinity": "Malik Complex, Nahra Nahri Road, Model Town, Bahadurgarh", "scope": "GOOGLE", "business_status": "OPERATIONAL", "types": ["school", "point_of_interest", "establishment"], "icon": "https://maps.gstatic.com/mapfiles/place_api/icons/v1/png_71/school-71.png"}, {"rating": 5, "user_ratings_total": 56, "permanently_closed": true, "name": "Tiny Tots Play School", "reference": "ChIJudDmDE0JDTkRXptuZ0_-vvA", "geometry": {"location": {"lat": 28.6896879, "lng": 76.9314502}, "viewport": {"northeast": {"lat": 28.6910976802915, "lng": 76.9328273302915}, "southwest": {"lat": 28.6883997197085, "lng": 76.9301293697085}}}, "place_id": "ChIJudDmDE0JDTkRXptuZ0_-vvA", "plus_code": {"global_code": "7JWRMWQJ+VH", "compound_code": "MWQJ+VH Bahadurgarh, India"}, "vicinity": "Main Bazar, Old Najafgarh Road, Basant Vihar, Bahadurgarh", "photos": [{"photo_reference": "ATtYBwJxFd0UypqjEUJw8D8DD7UWBZonuduEBBbm-1iWgzatwjINgE1VqkAZ4-zq3juSoWhiRkKTcWu4SjmCfyZdtYIjkZmNfPfvRqClpFeunM4EbB9GIshosrn9KpU82iNiTWMJjTBfKNkG7Cp708nmPZafOG7lUew_P1c2436L9Ch5eWz6", "width": 853, "html_attributions": ["<a href=\"https://maps.google.com/maps/contrib/101138981084722852516\">Tiny Tots Play School</a>"], "height": 478}], "scope": "GOOGLE", "business_status": "CLOSED_TEMPORARILY", "types": ["school", "point_of_interest", "establishment"], "icon": "https://maps.gstatic.com/mapfiles/place_api/icons/v1/png_71/school-71.png"}, {"permanently_closed": true, "name": "Opeaducation p", "reference": "ChIJHfJHr50JDTkR5Eu1cWw1_iw", "geometry": {"location": {"lat": 28.6913756, "lng": 76.9314064}, "viewport": {"northeast": {"lat": 28.6927583802915, "lng": 76.93276628029152}, "southwest": {"lat": 28.6900604197085, "lng": 76.93006831970851}}}, "place_id": "ChIJHfJHr50JDTkR5Eu1cWw1_iw", "plus_code": {"global_code": "7JWRMWRJ+HH", "compound_code": "MWRJ+HH Bahadurgarh, India"}, "vicinity": "mod, Bahadurgarh", "scope": "GOOGLE", "business_status": "CLOSED_TEMPORARILY", "types": ["school", "point_of_interest", "establishment"], "icon": "https://maps.gstatic.com/mapfiles/place_api/icons/v1/png_71/school-71.png"}, {"rating": 5, "user_ratings_total": 7, "permanently_closed": true, "name": "The Art of Living Happiness Center", "reference": "ChIJz0vZSDUJDTkRZK6E5LrHi1Q", "geometry": {"location": {"lat": 28.6913756, "lng": 76.9314064}, "viewport": {"northeast": {"lat": 28.6927583802915, "lng": 76.93276628029152}, "southwest": {"lat": 28.6900604197085, "lng": 76.93006831970851}}}, "place_id": "ChIJz0vZSDUJDTkRZK6E5LrHi1Q", "plus_code": {"global_code": "7JWRMWRJ+HH", "compound_code": "MWRJ+HH Bahadurgarh, India"}, "vicinity": "JJ Institute of Medical Science, Bahadurgarh, Bahadurgarh Near PDM metro station, West Delhi, Bahadurgarh", "photos": [{"photo_reference": "ATtYBwJz2zRqLQB_PBF4wk5h13pPeRHiYZmG8u3tR7Rcag6QP2FEuLOnd8r8Vd-6bYAex3USMEAnOLtf6QGai6U-YSkV8jhuQ2AeQo05koObE27JEo1V6J0YdL1gN4uphA0I8iQGV9c8trIKh8fLRA1UcdDizdZpW4uqHxxdzoPlb56k0oOt", "width": 1280, "html_attributions": ["<a href=\"https://maps.google.com/maps/contrib/113805077628812087059\">Prabhdeep Singh</a>"], "height": 960}], "scope": "GOOGLE", "business_status": "CLOSED_TEMPORARILY", "types": ["school", "health", "point_of_interest", "establishment"], "icon": "https://maps.gstatic.com/mapfiles/place_api/icons/v1/png_71/school-71.png"}, {"name": "SchoolGullak", "reference": "ChIJz6j8LAQJDTkRiZpckrLIkgg", "geometry": {"location": {"lat": 28.6913756, "lng": 76.9314064}, "viewport": {"northeast": {"lat": 28.6927245802915, "lng": 76.93275538029151}, "southwest": {"lat": 28.6900266197085, "lng": 76.93005741970849}}}, "opening_hours": {"open_now": false}, "place_id": "ChIJz6j8LAQJDTkRiZpckrLIkgg", "plus_code": {"global_code": "7JWRMWRJ+HH", "compound_code": "MWRJ+HH Bahadurgarh, India"}, "vicinity": "Bahadurgarh", "scope": "GOOGLE", "business_status": "OPERATIONAL", "types": ["school", "point_of_interest", "establishment"], "icon": "https://maps.gstatic.com/mapfiles/place_api/icons/v1/png_71/school-71.png"}, {"permanently_closed": true, "name": "New era senior secondary school", "reference": "ChIJB73jPZoJDTkRMFhvhsGoAqQ", "geometry": {"location": {"lat": 28.6913756, "lng": 76.9314064}, "viewport": {"northeast": {"lat": 28.6927583802915, "lng": 76.93276628029152}, "southwest": {"lat": 28.6900604197085, "lng": 76.93006831970851}}}, "place_id": "ChIJB73jPZoJDTkRMFhvhsGoAqQ", "plus_code": {"global_code": "7JWRMWRJ+HH", "compound_code": "MWRJ+HH Bahadurgarh, India"}, "vicinity": "Nai basti, Bahadurgarh", "scope": "GOOGLE", "business_status": "CLOSED_TEMPORARILY", "types": ["school", "point_of_interest", "establishment"], "icon": "https://maps.gstatic.com/mapfiles/place_api/icons/v1/png_71/school-71.png"}, {"permanently_closed": true, "name": "Ankita", "reference": "ChIJHcNS40oJDTkROCxF4YFQNqY", "geometry": {"location": {"lat": 28.6913756, "lng": 76.9314064}, "viewport": {"northeast": {"lat": 28.6927583802915, "lng": 76.93276628029152}, "southwest": {"lat": 28.6900604197085, "lng": 76.93006831970851}}}, "place_id": "ChIJHcNS40oJDTkROCxF4YFQNqY", "plus_code": {"global_code": "7JWRMWRJ+HH", "compound_code": "MWRJ+HH Bahadurgarh, India"}, "vicinity": "Bahadurgarh", "scope": "GOOGLE", "business_status": "CLOSED_TEMPORARILY", "types": ["school", "point_of_interest", "establishment"], "icon": "https://maps.gstatic.com/mapfiles/place_api/icons/v1/png_71/school-71.png"}, {"permanently_closed": true, "name": "Sushma davi", "reference": "ChIJxyouLwYJDTkRRcjGnezPwcg", "geometry": {"location": {"lat": 28.6913756, "lng": 76.9314064}, "viewport": {"northeast": {"lat": 28.6927583802915, "lng": 76.93276628029152}, "southwest": {"lat": 28.6900604197085, "lng": 76.93006831970851}}}, "place_id": "ChIJxyouLwYJDTkRRcjGnezPwcg", "plus_code": {"global_code": "7JWRMWRJ+HH", "compound_code": "MWRJ+HH Bahadurgarh, India"}, "vicinity": "Bahadurgarh", "scope": "GOOGLE", "business_status": "CLOSED_TEMPORARILY", "types": ["school", "point_of_interest", "establishment"], "icon": "https://maps.gstatic.com/mapfiles/place_api/icons/v1/png_71/school-71.png"}, {"rating": 3.2, "user_ratings_total": 5, "permanently_closed": true, "name": "Government High School Bahadurgarh", "reference": "ChIJ69oDe04JDTkRwVE4lz1lAwo", "geometry": {"location": {"lat": 28.6935263, "lng": 76.9322062}, "viewport": {"northeast": {"lat": 28.69480598029149, "lng": 76.93370308029151}, "southwest": {"lat": 28.6921080197085, "lng": 76.9310051197085}}}, "place_id": "ChIJ69oDe04JDTkRwVE4lz1lAwo", "plus_code": {"global_code": "7JWRMWVJ+CV", "compound_code": "MWVJ+CV Delhi, India"}, "vicinity": "Nahra Nahri Road, Model Town, Delhi", "scope": "GOOGLE", "business_status": "CLOSED_TEMPORARILY", "types": ["school", "point_of_interest", "establishment"], "icon": "https://maps.gstatic.com/mapfiles/place_api/icons/v1/png_71/school-71.png"}, {"rating": 5, "user_ratings_total": 3, "permanently_closed": true, "name": "Govt Higher Secondry School", "reference": "ChIJwTirek4JDTkRtKadWXvMyQo", "geometry": {"location": {"lat": 28.6935207, "lng": 76.9320312}, "viewport": {"northeast": {"lat": 28.6947691302915, "lng": 76.93359488029151}, "southwest": {"lat": 28.6920711697085, "lng": 76.9308969197085}}}, "place_id": "ChIJwTirek4JDTkRtKadWXvMyQo", "plus_code": {"global_code": "7JWRMWVJ+CR", "compound_code": "MWVJ+CR Bahadurgarh, India"}, "vicinity": "33, Nahra Nahri Road, Model Town, Bahadurgarh", "scope": "GOOGLE", "business_status": "CLOSED_TEMPORARILY", "types": ["school", "point_of_interest", "establishment"], "icon": "https://maps.gstatic.com/mapfiles/place_api/icons/v1/png_71/school-71.png"}, {"rating": 4.1, "user_ratings_total": 15, "name": "Government Senior Secondary School Bahadurgarh", "reference": "ChIJE2xyek4JDTkRqbU7r47ewvo", "geometry": {"location": {"lat": 28.6935196, "lng": 76.93196619999999}, "viewport": {"northeast": {"lat": 28.69508533029149, "lng": 76.93335888029151}, "southwest": {"lat": 28.6923873697085, "lng": 76.93066091970849}}}, "opening_hours": {"open_now": false}, "place_id": "ChIJE2xyek4JDTkRqbU7r47ewvo", "plus_code": {"global_code": "7JWRMWVJ+CQ", "compound_code": "MWVJ+CQ Bahadurgarh, India"}, "vicinity": "Model Town, Bahadurgarh", "photos": [{"photo_reference": "ATtYBwJb725WlhKDbRT18CQj9qiU6mxxJnq5lZ4yl8ikg4kBvCqk5tteeecbrKKRPe0VoTAubfkHIZyv3aelm8WmsnnMPSuxU8IJzNW1nRlZPrsv6C8pSNyDmfxBoO3YDHY-ihDmYAJbjjtDujVvr-oyQtmQTcA-W5-B68L5YeV2LE6pelbD", "width": 3456, "html_attributions": ["<a href=\"https://maps.google.com/maps/contrib/105000305209830166594\">Dinesh Kumar</a>"], "height": 4608}], "scope": "GOOGLE", "business_status": "OPERATIONAL", "types": ["school", "point_of_interest", "establishment"], "icon": "https://maps.gstatic.com/mapfiles/place_api/icons/v1/png_71/school-71.png"}, {"rating": 4, "user_ratings_total": 1, "permanently_closed": true, "name": "Govt Primary School Hasanpur", "reference": "ChIJm6m64jYJDTkR0O5MBxQVfR4", "geometry": {"location": {"lat": 28.6971423, "lng": 76.9446463}, "viewport": {"northeast": {"lat": 28.6984585302915, "lng": 76.94605208029151}, "southwest": {"lat": 28.6957605697085, "lng": 76.9433541197085}}}, "place_id": "ChIJm6m64jYJDTkR0O5MBxQVfR4", "plus_code": {"global_code": "7JWRMWWV+VV", "compound_code": "MWWV+VV Bahadurgarh, India"}, "vicinity": "Aggarwal Colony, Bahadurgarh", "photos": [{"photo_reference": "ATtYBwJKZGgzenmebmt5zOmSVcudqjRUJNocd4a7FDo_ydP8u1gLmVVSJ1GGxAFq_NWfsiszHrD1HB_8YcDYg0e2z0KE49x2JCkzf9ERwY00OvTsQE5k7fTyHsxTxwHNmH_UKKlr1wr7PbE0tdtUHQ4V55cgBVmboQAqPJ6CPUDHejKl20xU", "width": 4128, "html_attributions": ["<a href=\"https://maps.google.com/maps/contrib/112170739731320375726\">Professional Gyan</a>"], "height": 3096}], "scope": "GOOGLE", "business_status": "CLOSED_TEMPORARILY", "types": ["school", "point_of_interest", "establishment"], "icon": "https://maps.gstatic.com/mapfiles/place_api/icons/v1/png_71/school-71.png"}, {"rating": 2.5, "user_ratings_total": 2, "permanently_closed": true, "name": "Govt Primary School Parnala", "reference": "ChIJPXtqwzcJDTkR-R7HE1Dw2Pw", "geometry": {"location": {"lat": 28.6980278, "lng": 76.9422182}, "viewport": {"northeast": {"lat": 28.6994744302915, "lng": 76.94359623029152}, "southwest": {"lat": 28.6967764697085, "lng": 76.9408982697085}}}, "place_id": "ChIJPXtqwzcJDTkR-R7HE1Dw2Pw", "plus_code": {"global_code": "7JWRMWXR+6V", "compound_code": "MWXR+6V Bahadurgarh, India"}, "vicinity": "Aggarwal Colony, Bahadurgarh", "scope": "GOOGLE", "business_status": "CLOSED_TEMPORARILY", "types": ["school", "point_of_interest", "establishment"], "icon": "https://maps.gstatic.com/mapfiles/place_api/icons/v1/png_71/school-71.png"}, {"name": "\u0938\u0928\u093e\u0924\u0928 \u0927\u0930\u094d\u092e \u0935\u0930\u093f\u0937\u094d\u091f \u092e\u093e\u0927\u094d\u092f\u092e\u093f\u0915 \u0938\u094d\u0915\u0942\u0932", "reference": "ChIJdfI7sbkJDTkRtXKK4BmSzRg", "geometry": {"location": {"lat": 28.689348, "lng": 76.930208}, "viewport": {"northeast": {"lat": 28.6907157302915, "lng": 76.93156353029151}, "southwest": {"lat": 28.6880177697085, "lng": 76.9288655697085}}}, "place_id": "ChIJdfI7sbkJDTkRtXKK4BmSzRg", "plus_code": {"global_code": "7JWRMWQJ+P3", "compound_code": "MWQJ+P3 Bahadurgarh, India"}, "vicinity": "14/40, mahabir mandir Main Bazar, Basant Vihar, Bahadurgarh", "scope": "GOOGLE", "business_status": "OPERATIONAL", "types": ["school", "point_of_interest", "establishment"], "icon": "https://maps.gstatic.com/mapfiles/place_api/icons/v1/png_71/school-71.png"}, {"rating": 5, "user_ratings_total": 1, "permanently_closed": true, "name": "Short Hand Academy", "reference": "ChIJez3fgnYJDTkRrHzp-dUsUi8", "geometry": {"location": {"lat": 28.6920194, "lng": 76.93014699999999}, "viewport": {"northeast": {"lat": 28.6932464302915, "lng": 76.93144983029151}, "southwest": {"lat": 28.6905484697085, "lng": 76.9287518697085}}}, "place_id": "ChIJez3fgnYJDTkRrHzp-dUsUi8", "plus_code": {"global_code": "7JWRMWRJ+R3", "compound_code": "MWRJ+R3 Bahadurgarh, India"}, "vicinity": "NH 9 Near Old bus stand near kalavanti dental hospital, Bahadurgarh", "scope": "GOOGLE", "business_status": "CLOSED_TEMPORARILY", "types": ["school", "point_of_interest", "establishment"], "icon": "https://maps.gstatic.com/mapfiles/place_api/icons/v1/png_71/school-71.png"}, {"name": "Kanica Sr. Sec. School", "reference": "ChIJBZY63q0ODTkRtlq-hJGVLlo", "geometry": {"location": {"lat": 28.6916885, "lng": 76.93000339999999}, "viewport": {"northeast": {"lat": 28.6930594302915, "lng": 76.9313266302915}, "southwest": {"lat": 28.6903614697085, "lng": 76.92862866970847}}}, "place_id": "ChIJBZY63q0ODTkRtlq-hJGVLlo", "plus_code": {"global_code": "7JWRMWRJ+M2", "compound_code": "MWRJ+M2 Bahadurgarh, India"}, "vicinity": "15, Bahadurgarh", "scope": "GOOGLE", "business_status": "OPERATIONAL", "types": ["school", "point_of_interest", "establishment"], "icon": "https://maps.gstatic.com/mapfiles/place_api/icons/v1/png_71/school-71.png"}, {"rating": 4.7, "user_ratings_total": 15, "permanently_closed": true, "name": "Ganga Technical Campus,Admission Center", "reference": "ChIJ-RCC9E0JDTkRO5sZ6G8VAYA", "geometry": {"location": {"lat": 28.69195959999999, "lng": 76.9300011}, "viewport": {"northeast": {"lat": 28.69323273029149, "lng": 76.9313213802915}, "southwest": {"lat": 28.6905347697085, "lng": 76.92862341970849}}}, "place_id": "ChIJ-RCC9E0JDTkRO5sZ6G8VAYA", "plus_code": {"global_code": "7JWRMWRJ+Q2", "compound_code": "MWRJ+Q2 Bahadurgarh, India"}, "vicinity": "Rohtak Road, Basant Vihar, Bahadurgarh", "scope": "GOOGLE", "business_status": "CLOSED_TEMPORARILY", "types": ["school", "point_of_interest", "establishment"], "icon": "https://maps.gstatic.com/mapfiles/place_api/icons/v1/png_71/school-71.png"}]}