{"status": "OK", "html_attributions": [], "results": [{"permanently_closed": true, "name": "Sunraj Electronic & communication", "reference": "ChIJs9rp6mI9DTkRDR6TwUdcWCI", "geometry": {"location": {"lat": 28.41524919999999, "lng": 76.9909859}, "viewport": {"northeast": {"lat": 28.4165971302915, "lng": 76.9923366302915}, "southwest": {"lat": 28.4138991697085, "lng": 76.9896386697085}}}, "place_id": "ChIJs9rp6mI9DTkRDR6TwUdcWCI", "plus_code": {"global_code": "7JWRCX8R+39", "compound_code": "CX8R+39 Gurugram, Haryana, India"}, "vicinity": "Khandsa Road, Muhammadpur, Sector 36, Gurugram", "scope": "GOOGLE", "business_status": "CLOSED_TEMPORARILY", "types": ["school", "point_of_interest", "establishment"], "icon": "https://maps.gstatic.com/mapfiles/place_api/icons/v1/png_71/school-71.png"}, {"rating": 5, "user_ratings_total": 1, "permanently_closed": true, "name": "Skill Development Centre FDDI", "reference": "ChIJqwspJJY9DTkRDfGX1sUEC4Q", "geometry": {"location": {"lat": 28.41737719999999, "lng": 76.99298139999999}, "viewport": {"northeast": {"lat": 28.4186381802915, "lng": 76.9943251802915}, "southwest": {"lat": 28.41594021970849, "lng": 76.99162721970849}}}, "place_id": "ChIJqwspJJY9DTkRDfGX1sUEC4Q", "plus_code": {"global_code": "7JWRCX8V+X5", "compound_code": "CX8V+X5 Gurugram, Haryana, India"}, "vicinity": "Muhammadpur, Sector 36, Gurugram", "photos": [{"photo_reference": "ATtYBwJq-89QLwq3wefg3PeRJAKAjT3fDDPaZCCrOFQCGGuGr4PLi1-HoEF5SqjA2_PJO0E5Jv6WwQSEVFt9afUnxG1GNDbr10m-aCWUnJUz4gAqtH9lUJMs9aYjmWtkCDgeO2PQOGM5CwLaDVzYbi1kyJ-36Kb5CwdUkd8rFmwXNrjw2bf1", "width": 4128, "html_attributions": ["<a href=\"https://maps.google.com/maps/contrib/103965229406849452763\">Vicky Roy</a>"], "height": 2322}], "scope": "GOOGLE", "business_status": "CLOSED_TEMPORARILY", "types": ["school", "point_of_interest", "establishment"], "icon": "https://maps.gstatic.com/mapfiles/place_api/icons/v1/png_71/school-71.png"}, {"rating": 5, "user_ratings_total": 1, "name": "Sunhil public school", "reference": "ChIJnZhsQ4w9DTkREEOZryLbxfg", "geometry": {"location": {"lat": 28.4169741, "lng": 76.99240809999999}, "viewport": {"northeast": {"lat": 28.4183756302915, "lng": 76.9936195302915}, "southwest": {"lat": 28.4156776697085, "lng": 76.99092156970849}}}, "place_id": "ChIJnZhsQ4w9DTkREEOZryLbxfg", "plus_code": {"global_code": "7JWRCX8R+QX", "compound_code": "CX8R+QX Gurugram, Haryana, India"}, "vicinity": "Khandsa Road, Muhammadpur, Sector 36, Gurugram", "scope": "GOOGLE", "business_status": "OPERATIONAL", "types": ["school", "point_of_interest", "establishment"], "icon": "https://maps.gstatic.com/mapfiles/place_api/icons/v1/png_71/school-71.png"}, {"rating": 4.2, "user_ratings_total": 5, "permanently_closed": true, "name": "Dpr Public School Begumpur Khatola", "reference": "ChIJa8jF51Q9DTkRkJSUIjqa31k", "geometry": {"location": {"lat": 28.416259, "lng": 77.008819}, "viewport": {"northeast": {"lat": 28.4176097302915, "lng": 77.0102852302915}, "southwest": {"lat": 28.4149117697085, "lng": 77.00758726970848}}}, "place_id": "ChIJa8jF51Q9DTkRkJSUIjqa31k", "plus_code": {"global_code": "7JWVC285+GG", "compound_code": "C285+GG Gurugram, Haryana, India"}, "vicinity": "Sector 74, Gurugram", "photos": [{"photo_reference": "ATtYBwIiHUUIDJvxeWpH4KdSsiGkBbQxP1BaSl7QsfSjms0SL6MVhGHE00qlDogxMG4XjKFcJ3U9PV1fIYhPui5o3amyXlLmF2ImdtxgS1LCjrxARhCWJngpqL-g4eZLzhAOHHd70jPlYlxp3ccGy7jislb2c3O2WdOiBjtKrX1K7MNwK79T", "width": 3000, "html_attributions": ["<a href=\"https://maps.google.com/maps/contrib/106009414752920922836\">ASHOK KUMAR</a>"], "height": 4000}], "scope": "GOOGLE", "business_status": "CLOSED_TEMPORARILY", "types": ["school", "point_of_interest", "establishment"], "icon": "https://maps.gstatic.com/mapfiles/place_api/icons/v1/png_71/school-71.png"}, {"rating": 4.4, "user_ratings_total": 19, "name": "Government Senior Secondary School", "reference": "ChIJPfOuHF89DTkR4ftLC9OXO8Y", "geometry": {"location": {"lat": 28.415517, "lng": 76.9905752}, "viewport": {"northeast": {"lat": 28.4167859802915, "lng": 76.99213278029151}, "southwest": {"lat": 28.4140880197085, "lng": 76.9894348197085}}}, "opening_hours": {"open_now": false}, "place_id": "ChIJPfOuHF89DTkR4ftLC9OXO8Y", "plus_code": {"global_code": "7JWRCX8R+66", "compound_code": "CX8R+66 Gurugram, Haryana, India"}, "vicinity": "Khandsa Road, Muhammadpur, Sector 36, Gurugram", "photos": [{"photo_reference": "ATtYBwKBxG8j9rf_62niC4KP59xJv9dwzhwNBVE7QEKsQAZ7YIXbrFp8AgMeM2Rirr_ZOa3EUTSlfF_rLpPwf3ftVrzjHbXj6t3KLNips6I72vz55IV2X0IRfec0-3W0Puw9XINdeY5npgHebO1w1UGCOdubT5xbn-3kGKRyUEr12nXCwPHt", "width": 4128, "html_attributions": ["<a href=\"https://maps.google.com/maps/contrib/103965229406849452763\">Vicky Roy</a>"], "height": 2322}], "scope": "GOOGLE", "business_status": "OPERATIONAL", "types": ["school", "point_of_interest", "establishment"], "icon": "https://maps.gstatic.com/mapfiles/place_api/icons/v1/png_71/school-71.png"}, {"rating": 4.8, "user_ratings_total": 6, "permanently_closed": true, "name": "Gurukul Coaching Center", "reference": "ChIJPdoJOwQ9DTkRa1Sus0wF3Vk", "geometry": {"location": {"lat": 28.41701, "lng": 76.991891}, "viewport": {"northeast": {"lat": 28.4184093802915, "lng": 76.9932403302915}, "southwest": {"lat": 28.4157114197085, "lng": 76.99054236970849}}}, "place_id": "ChIJPdoJOwQ9DTkRa1Sus0wF3Vk", "plus_code": {"global_code": "7JWRCX8R+RQ", "compound_code": "CX8R+RQ Gurugram, Haryana, India"}, "vicinity": "Muhammadpur, Sector 36, Gurugram", "photos": [{"photo_reference": "ATtYBwL-Kng6UhkyNwd0gCBrrwaV2C59OP5-oS9GGzip1y06Luujgt2y0MXXXR3HUu5U9hcvhWiranntoQ72H_lZSCDMog99mU8spBjHUUtw_xjlwFqGic3jKX3-6c0x8jWwDFW9QfshLGC79FsJAiH1qhNL9kiTgrZibsL8OHFIuUndOVNX", "width": 3264, "html_attributions": ["<a href=\"https://maps.google.com/maps/contrib/103921975110748395545\">Thakur ki pathshala</a>"], "height": 2448}], "scope": "GOOGLE", "business_status": "CLOSED_TEMPORARILY", "types": ["school", "point_of_interest", "establishment"], "icon": "https://maps.gstatic.com/mapfiles/place_api/icons/v1/png_71/school-71.png"}, {"rating": 4.9, "user_ratings_total": 7, "name": "RAGHAV COMPUTER INSTITUTE", "reference": "ChIJ57yJwlQ9DTkRb81UfPNP0DE", "geometry": {"location": {"lat": 28.4160724, "lng": 77.00911839999999}, "viewport": {"northeast": {"lat": 28.4174182302915, "lng": 77.01044208029151}, "southwest": {"lat": 28.41472026970849, "lng": 77.0077441197085}}}, "opening_hours": {"open_now": false}, "place_id": "ChIJ57yJwlQ9DTkRb81UfPNP0DE", "plus_code": {"global_code": "7JWVC285+CJ", "compound_code": "C285+CJ Gurugram, Haryana, India"}, "vicinity": "Begumpur Khatola, Sector 74, Gurugram", "photos": [{"photo_reference": "ATtYBwJV44TugDTBWA-WGaXnLLcENbM54GHqC6LsNjf3PMSl_x-rA7lgSeF2LwxR510c-vWCTPhIMq1BpY9h0QJAZqZDbR39RamjyUZyVWXuhylb7mIN1HuddUzoAojqQrLBX51_HGwoAoXcD1n1VKagyuVQ0YZgPfiPTdGcqVJVfl3HIDuF", "width": 4032, "html_attributions": ["<a href=\"https://maps.google.com/maps/contrib/106449575965328447929\">RAGHAV COMPUTER INSTITUTE</a>"], "height": 3024}], "scope": "GOOGLE", "business_status": "OPERATIONAL", "types": ["school", "point_of_interest", "establishment"], "icon": "https://maps.gstatic.com/mapfiles/place_api/icons/v1/png_71/school-71.png"}, {"permanently_closed": true, "name": "Little Paradise Play School", "reference": "ChIJ88CGo989DTkR31HmdWq5UB8", "geometry": {"location": {"lat": 28.4149694, "lng": 77.0101968}, "viewport": {"northeast": {"lat": 28.4163504802915, "lng": 77.01147398029151}, "southwest": {"lat": 28.4136525197085, "lng": 77.00877601970849}}}, "place_id": "ChIJ88CGo989DTkR31HmdWq5UB8", "plus_code": {"global_code": "7JWVC276+X3", "compound_code": "C276+X3 Gurugram, Haryana, India"}, "vicinity": "Sector 74, Gurugram", "scope": "GOOGLE", "business_status": "CLOSED_TEMPORARILY", "types": ["school", "point_of_interest", "establishment"], "icon": "https://maps.gstatic.com/mapfiles/place_api/icons/v1/png_71/school-71.png"}, {"rating": 4.1, "user_ratings_total": 15, "name": "FlyWings Simulator Training Centre", "reference": "ChIJ0zV1olU9DTkRZbtXNjwpwFg", "geometry": {"location": {"lat": 28.4181722, "lng": 77.0070543}, "viewport": {"northeast": {"lat": 28.4196031302915, "lng": 77.0084017802915}, "southwest": {"lat": 28.4169051697085, "lng": 77.00570381970849}}}, "place_id": "ChIJ0zV1olU9DTkRZbtXNjwpwFg", "plus_code": {"global_code": "7JWVC294+7R", "compound_code": "C294+7R Gurugram, Haryana, India"}, "vicinity": "Killa no. 13, Begampur Khatola, Sector 35, Gurugram", "photos": [{"photo_reference": "ATtYBwLg3gouzwXoG8574NFz4oRNdnhYz-6E3xq1zSfuKRKvLXatBwSrDqUYs1_i4qhGfZ5hoPZbNctKCyRBv_mcoUScxF-tyIv1EGylATnCJJzAx47nlWacgtJPeSqZyVlS3BuuOiKyVL5HpG-4xlzV_ReNgtQzsTXZQJMNz2SxBA7Y80Vc", "width": 1920, "html_attributions": ["<a href=\"https://maps.google.com/maps/contrib/106765697402318410262\">zer0 Hesitation</a>"], "height": 1080}], "scope": "GOOGLE", "business_status": "OPERATIONAL", "types": ["school", "point_of_interest", "establishment"], "icon": "https://maps.gstatic.com/mapfiles/place_api/icons/v1/png_71/school-71.png"}, {"rating": 4.5, "user_ratings_total": 2, "permanently_closed": true, "name": "Gurgaon World School", "reference": "ChIJIa6Rm109DTkRv-AXQzxW4Z8", "geometry": {"location": {"lat": 28.409583, "lng": 76.9883057}, "viewport": {"northeast": {"lat": 28.4109456302915, "lng": 76.9897912302915}, "southwest": {"lat": 28.40824766970849, "lng": 76.9870932697085}}}, "place_id": "ChIJIa6Rm109DTkRv-AXQzxW4Z8", "plus_code": {"global_code": "7JWRCX5Q+R8", "compound_code": "CX5Q+R8 Gurugram, Haryana, India"}, "vicinity": "Sector 36A, Gurugram", "scope": "GOOGLE", "business_status": "CLOSED_TEMPORARILY", "types": ["school", "point_of_interest", "establishment"], "icon": "https://maps.gstatic.com/mapfiles/place_api/icons/v1/png_71/school-71.png"}, {"rating": 3.9, "user_ratings_total": 7, "permanently_closed": true, "name": "Jawahar Vidya Niketan {En English Medium Co-Educational Institution }", "reference": "ChIJn2GFxl89DTkRnOIteb03nyI", "geometry": {"location": {"lat": 28.41588269999999, "lng": 76.98847200000002}, "viewport": {"northeast": {"lat": 28.4172685302915, "lng": 76.9898148802915}, "southwest": {"lat": 28.41457056970849, "lng": 76.9871169197085}}}, "place_id": "ChIJn2GFxl89DTkRnOIteb03nyI", "plus_code": {"global_code": "7JWRCX8Q+99", "compound_code": "CX8Q+99 Mohammadpur Jharsa, Haryana, India"}, "vicinity": "Baba Mohanram Mandir Road, Gurgaon, Sector 36, Mohammadpur Jharsa", "photos": [{"photo_reference": "ATtYBwIm3fmK1bGpjOsnyZSU9X9vA9tKCVKOybGkvmpGq3ksD5oMn3jxAzoT0BiBhXqdv-V3r-pRm-lnXszDNbdati0NUVux-SWZZmqB5uESkGeyMUksvZ785qwaRVi7rWEf9Hn1fRwnRf7u5OXCIMWX-kbvh2hYZsEOMI1in2Xek8NvQlpZ", "width": 4160, "html_attributions": ["<a href=\"https://maps.google.com/maps/contrib/100328656060322944556\">g\u03c5\u044f\u03c5 Ji</a>"], "height": 3120}], "scope": "GOOGLE", "business_status": "CLOSED_TEMPORARILY", "types": ["school", "point_of_interest", "establishment"], "icon": "https://maps.gstatic.com/mapfiles/place_api/icons/v1/png_71/school-71.png"}, {"rating": 4, "user_ratings_total": 1, "permanently_closed": true, "name": "GPS BEGUMPUR KHATOLA", "reference": "ChIJV-JT7V0jDTkRD034LAJk1wE", "geometry": {"location": {"lat": 28.4160705, "lng": 77.0118643}, "viewport": {"northeast": {"lat": 28.4174096802915, "lng": 77.01317378029151}, "southwest": {"lat": 28.4147117197085, "lng": 77.01047581970849}}}, "place_id": "ChIJV-JT7V0jDTkRD034LAJk1wE", "plus_code": {"global_code": "7JWVC286+CP", "compound_code": "C286+CP Gurugram, Haryana, India"}, "vicinity": "Begumpur Khatola, Sector 74, Gurugram", "scope": "GOOGLE", "business_status": "CLOSED_TEMPORARILY", "types": ["primary_school", "school", "point_of_interest", "establishment"], "icon": "https://maps.gstatic.com/mapfiles/place_api/icons/v1/png_71/school-71.png"}, {"name": "Govt school", "reference": "ChIJi9mOBGwjDTkRlBIyc6Ipw7U", "geometry": {"location": {"lat": 28.4161528, "lng": 77.0120774}, "viewport": {"northeast": {"lat": 28.41749803029151, "lng": 77.01327968029149}, "southwest": {"lat": 28.4148000697085, "lng": 77.01058171970848}}}, "place_id": "ChIJi9mOBGwjDTkRlBIyc6Ipw7U", "plus_code": {"global_code": "7JWVC286+FR", "compound_code": "C286+FR Gurugram, Haryana, India"}, "vicinity": "Begumpur Khatola, Sector 74, Gurugram", "scope": "GOOGLE", "business_status": "OPERATIONAL", "types": ["school", "point_of_interest", "establishment"], "icon": "https://maps.gstatic.com/mapfiles/place_api/icons/v1/png_71/school-71.png"}, {"permanently_closed": true, "name": "GOVT S.S.S. KHANDSA", "reference": "ChIJbW0YEb0XDTkRUIZfaUnejMY", "geometry": {"location": {"lat": 28.4222734, "lng": 76.9999297}, "viewport": {"northeast": {"lat": 28.4237094802915, "lng": 77.0013358302915}, "southwest": {"lat": 28.4210115197085, "lng": 76.99863786970849}}}, "place_id": "ChIJbW0YEb0XDTkRUIZfaUnejMY", "plus_code": {"global_code": "7JWRCXCX+WX", "compound_code": "CXCX+WX Gurugram, Haryana, India"}, "vicinity": "GSSS, Khandsa Road, Sector 37, Gurugram", "scope": "GOOGLE", "business_status": "CLOSED_TEMPORARILY", "types": ["school", "point_of_interest", "establishment"], "icon": "https://maps.gstatic.com/mapfiles/place_api/icons/v1/png_71/school-71.png"}, {"permanently_closed": true, "name": "New era public school", "reference": "ChIJRzJRXkMXDTkRQQyOGU_BGxo", "geometry": {"location": {"lat": 28.4222734, "lng": 76.99992979999999}, "viewport": {"northeast": {"lat": 28.4237094802915, "lng": 77.0013359302915}, "southwest": {"lat": 28.4210115197085, "lng": 76.99863796970848}}}, "place_id": "ChIJRzJRXkMXDTkRQQyOGU_BGxo", "plus_code": {"global_code": "7JWRCXCX+WX", "compound_code": "CXCX+WX Gurugram, Haryana, India"}, "vicinity": "near shiv mandir, Khandsha, Sector 37, Gurugram", "photos": [{"photo_reference": "ATtYBwJwdo7dvxJpZnxik3s4epsnd1SUYWlNcOzD3qsFwSW5nLhl6L-A7Rdt8MQUOqfmTiSvqDsCRB5gDpETRY0sc1yPhGMgw37oaWV09oSqEbWYNc5lnUpIB9ciMIZf-PttL-jk3HoT8Pp7ChXnrtDwsXtCYv42bz68lee3LjDYAHMbP-JJ", "width": 5664, "html_attributions": ["<a href=\"https://maps.google.com/maps/contrib/106346414754239933496\">New Era Public School</a>"], "height": 4248}], "scope": "GOOGLE", "business_status": "CLOSED_TEMPORARILY", "types": ["school", "point_of_interest", "establishment"], "icon": "https://maps.gstatic.com/mapfiles/place_api/icons/v1/png_71/school-71.png"}, {"permanently_closed": true, "name": "sunil", "reference": "ChIJ5dreH08XDTkRY9gSRhRRnLE", "geometry": {"location": {"lat": 28.4222734, "lng": 76.99992979999999}, "viewport": {"northeast": {"lat": 28.4237094802915, "lng": 77.0013359302915}, "southwest": {"lat": 28.4210115197085, "lng": 76.99863796970848}}}, "place_id": "ChIJ5dreH08XDTkRY9gSRhRRnLE", "plus_code": {"global_code": "7JWRCXCX+WX", "compound_code": "CXCX+WX Gurugram, Haryana, India"}, "vicinity": "Khandsa Road, Sector 37, Gurugram", "scope": "GOOGLE", "business_status": "CLOSED_TEMPORARILY", "types": ["school", "point_of_interest", "establishment"], "icon": "https://maps.gstatic.com/mapfiles/place_api/icons/v1/png_71/school-71.png"}, {"name": "Saraswati international school", "reference": "ChIJLw1dI1EjDTkRn40epMbXNWY", "geometry": {"location": {"lat": 28.417119, "lng": 77.011641}, "viewport": {"northeast": {"lat": 28.4184685302915, "lng": 77.0130554302915}, "southwest": {"lat": 28.4157705697085, "lng": 77.0103574697085}}}, "place_id": "ChIJLw1dI1EjDTkRn40epMbXNWY", "plus_code": {"global_code": "7JWVC286+RM", "compound_code": "C286+RM Gurugram, Haryana, India"}, "vicinity": "Unnamed Road, Begumpur Khatola, Sector 74, Gurugram", "scope": "GOOGLE", "business_status": "OPERATIONAL", "types": ["school", "point_of_interest", "establishment"], "icon": "https://maps.gstatic.com/mapfiles/place_api/icons/v1/png_71/school-71.png"}, {"rating": 3.5, "user_ratings_total": 2, "permanently_closed": true, "name": "GOVT.BOYS SR. SECONDARY SCHOOL Photo", "reference": "ChIJ68YBqeMXDTkRGu7uc98480A", "geometry": {"location": {"lat": 28.421892, "lng": 76.99571569999999}, "viewport": {"northeast": {"lat": 28.4232437802915, "lng": 76.9968718802915}, "southwest": {"lat": 28.42054581970849, "lng": 76.99417391970849}}}, "place_id": "ChIJ68YBqeMXDTkRGu7uc98480A", "plus_code": {"global_code": "7JWRCXCW+Q7", "compound_code": "CXCW+Q7 Gurugram, Haryana, India"}, "vicinity": "KANGAN HERI ROAD,VILLAGE CHHAWLA,NEW DELHI-110071", "scope": "GOOGLE", "business_status": "CLOSED_TEMPORARILY", "types": ["secondary_school", "school", "point_of_interest", "establishment"], "icon": "https://maps.gstatic.com/mapfiles/place_api/icons/v1/png_71/school-71.png"}, {"name": "Prakash heyar kating", "reference": "ChIJEWJD3Nc9DTkR1Q-ND7S9zZU", "geometry": {"location": {"lat": 28.4146658, "lng": 76.9906208}, "viewport": {"northeast": {"lat": 28.4160147802915, "lng": 76.9919697802915}, "southwest": {"lat": 28.4133168197085, "lng": 76.98927181970849}}}, "opening_hours": {"open_now": true}, "place_id": "ChIJEWJD3Nc9DTkR1Q-ND7S9zZU", "plus_code": {"global_code": "7JWRCX7R+V6", "compound_code": "CX7R+V6 Gurugram, Haryana, India"}, "vicinity": "\u091d\u0930\u0938\u093e, \u0917\u0941\u0930\u0941\u0917\u094d\u0930\u093e\u092e", "photos": [{"photo_reference": "ATtYBwJ10hahO1m2D08D14aQ1HQfSR340dAVQpawK-InQ4H9jKjnx0G7a6K9y-eNcZWIYujjVIHIY-SLTRzIMfEvV5nkUYS0InUx4TrPIIw-zhxK5zr3_KTrSs0yQ_7q9ohZllm-3JEx_Pl6W34Koo4Q1FUCUMxqzqe1siXxCqZSWeQuYF9q", "width": 960, "html_attributions": ["<a href=\"https://maps.google.com/maps/contrib/116401660433902300936\">Om Gupta</a>"], "height": 2048}], "scope": "GOOGLE", "business_status": "OPERATIONAL", "types": ["school", "point_of_interest", "establishment"], "icon": "https://maps.gstatic.com/mapfiles/place_api/icons/v1/png_71/school-71.png"}]}