{"status": "OK", "html_attributions": [], "results": [{"rating": 3, "user_ratings_total": 1, "permanently_closed": true, "name": "Gyanodaya Sr. Sec. Public School", "reference": "ChIJBSdMiL0RDTkRpM6FGxc0xWg", "geometry": {"location": {"lat": 28.5925362, "lng": 76.9938274}, "viewport": {"northeast": {"lat": 28.5939031802915, "lng": 76.9951856302915}, "southwest": {"lat": 28.5912052197085, "lng": 76.9924876697085}}}, "place_id": "ChIJBSdMiL0RDTkRpM6FGxc0xWg", "plus_code": {"global_code": "7JWRHXVV+2G", "compound_code": "HXVV+2G Najafgarh, New Delhi, Delhi, India"}, "vicinity": "near RADHA SWAMI SATSANG VYAS VILLAGE, Dindarpur, Najafgarh, New Delhi", "scope": "GOOGLE", "business_status": "CLOSED_TEMPORARILY", "types": ["school", "point_of_interest", "establishment"], "icon": "https://maps.gstatic.com/mapfiles/place_api/icons/v1/png_71/school-71.png"}, {"rating": 5, "user_ratings_total": 1, "name": "Govt. Boys Se. Sec. School, Goela Khurd", "reference": "ChIJMRiB54QRDTkRrAn4TwtI1v8", "geometry": {"location": {"lat": 28.5894297, "lng": 77.0068397}, "viewport": {"northeast": {"lat": 28.5909824802915, "lng": 77.0079877302915}, "southwest": {"lat": 28.5882845197085, "lng": 77.0052897697085}}}, "place_id": "ChIJMRiB54QRDTkRrAn4TwtI1v8", "plus_code": {"global_code": "7JWVH2Q4+QP", "compound_code": "H2Q4+QP Delhi, India"}, "vicinity": "241, Road Number 6, Deenpur, Shyam Vihar Phase-1, Najafgarh, Delhi", "scope": "GOOGLE", "business_status": "OPERATIONAL", "types": ["school", "point_of_interest", "establishment"], "icon": "https://maps.gstatic.com/mapfiles/place_api/icons/v1/png_71/school-71.png"}, {"permanently_closed": true, "name": "Sanfort", "reference": "ChIJH_6JPwQQDTkRDBtWlYzjXSA", "geometry": {"location": {"lat": 28.5954808, "lng": 77.0031863}, "viewport": {"northeast": {"lat": 28.5968283802915, "lng": 77.00460943029152}, "southwest": {"lat": 28.5941304197085, "lng": 77.0019114697085}}}, "place_id": "ChIJH_6JPwQQDTkRDBtWlYzjXSA", "plus_code": {"global_code": "7JWVH2W3+57", "compound_code": "H2W3+57 Delhi, India"}, "vicinity": "B-21, Shyam Vihar, Phase-1 Najafgarh, Delhi", "scope": "GOOGLE", "business_status": "CLOSED_TEMPORARILY", "types": ["school", "point_of_interest", "establishment"], "icon": "https://maps.gstatic.com/mapfiles/place_api/icons/v1/png_71/school-71.png"}, {"permanently_closed": true, "name": "Rohan vegetable store", "reference": "ChIJ80D4s1oRDTkRTo1Bih0vtq8", "geometry": {"location": {"lat": 28.5955938, "lng": 77.0031863}, "viewport": {"northeast": {"lat": 28.5969413802915, "lng": 77.00461078029151}, "southwest": {"lat": 28.59424341970849, "lng": 77.00191281970851}}}, "place_id": "ChIJ80D4s1oRDTkRTo1Bih0vtq8", "plus_code": {"global_code": "7JWVH2W3+67", "compound_code": "H2W3+67 Delhi, India"}, "vicinity": "Shyam Vihar Phase-1, Najafgarh, Delhi", "scope": "GOOGLE", "business_status": "CLOSED_TEMPORARILY", "types": ["school", "point_of_interest", "establishment"], "icon": "https://maps.gstatic.com/mapfiles/place_api/icons/v1/png_71/school-71.png"}, {"rating": 3, "user_ratings_total": 2, "name": "Govt.Girls.sr.sec.secool", "reference": "ChIJ722ojCsRDTkRsMXD0r3-OpA", "geometry": {"location": {"lat": 28.5886943, "lng": 77.0071378}, "viewport": {"northeast": {"lat": 28.5899881802915, "lng": 77.0084538802915}, "southwest": {"lat": 28.5872902197085, "lng": 77.00575591970848}}}, "place_id": "ChIJ722ojCsRDTkRsMXD0r3-OpA", "plus_code": {"global_code": "7JWVH2Q4+FV", "compound_code": "H2Q4+FV Delhi, India"}, "vicinity": "Shyam Vihar, Pocket 1, Sector 14 Dwarka, Kakrola, Delhi", "scope": "GOOGLE", "business_status": "OPERATIONAL", "types": ["school", "point_of_interest", "establishment"], "icon": "https://maps.gstatic.com/mapfiles/place_api/icons/v1/png_71/school-71.png"}, {"permanently_closed": true, "name": "Kids Shell Play school", "reference": "ChIJs8vCjxwQDTkR4gZPLVQ6Gk0", "geometry": {"location": {"lat": 28.5960656, "lng": 76.9973139}, "viewport": {"northeast": {"lat": 28.5979847802915, "lng": 76.9983395302915}, "southwest": {"lat": 28.5952868197085, "lng": 76.9956415697085}}}, "place_id": "ChIJs8vCjxwQDTkR4gZPLVQ6Gk0", "plus_code": {"global_code": "7JWRHXWW+CW", "compound_code": "HXWW+CW Delhi, India"}, "vicinity": "E-135, Block E, Shyam Vihar Phase-1, Najafgarh, Delhi", "scope": "GOOGLE", "business_status": "CLOSED_TEMPORARILY", "types": ["school", "point_of_interest", "establishment"], "icon": "https://maps.gstatic.com/mapfiles/place_api/icons/v1/png_71/school-71.png"}, {"rating": 5, "user_ratings_total": 13, "permanently_closed": true, "name": "Certified Tally Academy & Computer Training Center", "reference": "ChIJwyKu8D0RDTkRALc1ueZ5rIM", "geometry": {"location": {"lat": 28.5884005, "lng": 77.00727789999999}, "viewport": {"northeast": {"lat": 28.5897831302915, "lng": 77.0086475302915}, "southwest": {"lat": 28.5870851697085, "lng": 77.00594956970849}}}, "place_id": "ChIJwyKu8D0RDTkRALc1ueZ5rIM", "plus_code": {"global_code": "7JWVH2Q4+9W", "compound_code": "H2Q4+9W Delhi, India"}, "vicinity": "Vansh Garden, Shyam Vihar - II, Najafgarh, Delhi", "photos": [{"photo_reference": "ATtYBwKb1Hico5vrlwA1aICHEb4T4ueGV1Nm4Se-v6cytQjnIi58Poltthomqi7kbkSTNlM8oS7OjTo_K7OwfaJSf2ucPBs0pEUy_5o30JCPtQuAy1zSLO9xcuGauEnYkswmLEgqEgmC5XmtEXgmDNWau-5ej2YSEJkby5Z_voHU7Ghz0pO9", "width": 3264, "html_attributions": ["<a href=\"https://maps.google.com/maps/contrib/106283640842304061688\">Aditya singh</a>"], "height": 1836}], "scope": "GOOGLE", "business_status": "CLOSED_TEMPORARILY", "types": ["school", "point_of_interest", "establishment"], "icon": "https://maps.gstatic.com/mapfiles/place_api/icons/v1/png_71/school-71.png"}, {"rating": 4.5, "user_ratings_total": 2, "permanently_closed": true, "name": "Ishkala Kids World", "reference": "ChIJ6eWlbAQQDTkRRRDKcKVVTAM", "geometry": {"location": {"lat": 28.596086, "lng": 77.003007}, "viewport": {"northeast": {"lat": 28.59745828029151, "lng": 77.0043550302915}, "southwest": {"lat": 28.5947603197085, "lng": 77.00165706970849}}}, "place_id": "ChIJ6eWlbAQQDTkRRRDKcKVVTAM", "plus_code": {"global_code": "7JWVH2W3+C6", "compound_code": "H2W3+C6 Delhi, India"}, "vicinity": "A 267 Shyam Vihar Phase 1 Najafgarh New Delhi, Delhi", "photos": [{"photo_reference": "ATtYBwLPLpq69CgugBfxG6rGXOUC1zOZapOwbrGUOjEhkIuW2TnZTjkJdRDCmkAyvySl4BJliR9sPUrzOYjgRdUddrB4T2QszGUGj8RxauJHrQvRuEUCIeQKXGtAmpN7uES5ZBPG2AtT1NuYeWSKP_iHuhKwR-g1nOb2mTOXPMlIO_6dmVJg", "width": 535, "html_attributions": ["<a href=\"https://maps.google.com/maps/contrib/113118226881768151201\">Ishkala Kids World</a>"], "height": 300}], "scope": "GOOGLE", "business_status": "CLOSED_TEMPORARILY", "types": ["school", "point_of_interest", "establishment"], "icon": "https://maps.gstatic.com/mapfiles/place_api/icons/v1/png_71/school-71.png"}, {"rating": 5, "user_ratings_total": 1, "permanently_closed": true, "name": "Goyla Govt. Girls Higher Secondary School", "reference": "ChIJgUgqauQRDTkRkFBav3sqpY0", "geometry": {"location": {"lat": 28.5888893, "lng": 77.007516}, "viewport": {"northeast": {"lat": 28.5900389302915, "lng": 77.0087425802915}, "southwest": {"lat": 28.5873409697085, "lng": 77.00604461970849}}}, "place_id": "ChIJgUgqauQRDTkRkFBav3sqpY0", "plus_code": {"global_code": "7JWVH2Q5+H2", "compound_code": "H2Q5+H2 Delhi, India"}, "vicinity": "Deenpur, Shyam Kunj, Najafgarh, Delhi", "scope": "GOOGLE", "business_status": "CLOSED_TEMPORARILY", "types": ["school", "point_of_interest", "establishment"], "icon": "https://maps.gstatic.com/mapfiles/place_api/icons/v1/png_71/school-71.png"}, {"rating": 3.4, "user_ratings_total": 9, "permanently_closed": true, "name": "Deendarpur School", "reference": "ChIJNbsj2BMQDTkR4V8uqNe-k34", "geometry": {"location": {"lat": 28.5846867, "lng": 76.9952363}, "viewport": {"northeast": {"lat": 28.5860788802915, "lng": 76.99654678029151}, "southwest": {"lat": 28.5833809197085, "lng": 76.9938488197085}}}, "place_id": "ChIJNbsj2BMQDTkR4V8uqNe-k34", "plus_code": {"global_code": "7JWRHXMW+V3", "compound_code": "HXMW+V3 Delhi, India"}, "vicinity": "Rewla Khanpur, Delhi", "photos": [{"photo_reference": "ATtYBwLPr9PAWGXa8-IEkROKRYy0fTjgkfpRAHxzpbh6gCRnnJNx1uVbkURk3BP1V2i0wfdhjJwYH8SU3ti8RCBDTG8yi1-kJIK-7b7TEgqrzvHH3z6-lGPNdqd9cHwpp_tg8m5__yl8JM7tLvfVJj4gXQqsH9FEWg0HvrqxGP9kTt7n0f2z", "width": 4160, "html_attributions": ["<a href=\"https://maps.google.com/maps/contrib/101408486818430285619\">atul yadav</a>"], "height": 3120}], "scope": "GOOGLE", "business_status": "CLOSED_TEMPORARILY", "types": ["school", "point_of_interest", "establishment"], "icon": "https://maps.gstatic.com/mapfiles/place_api/icons/v1/png_71/school-71.png"}, {"rating": 4.4, "user_ratings_total": 5, "permanently_closed": true, "name": "Govt Girls senior sec school, Goela", "reference": "ChIJl43TqgkQDTkRa6a2WsUYLzg", "geometry": {"location": {"lat": 28.5888859, "lng": 77.0076617}, "viewport": {"northeast": {"lat": 28.5904446802915, "lng": 77.00910013029151}, "southwest": {"lat": 28.5877467197085, "lng": 77.0064021697085}}}, "place_id": "ChIJl43TqgkQDTkRa6a2WsUYLzg", "plus_code": {"global_code": "7JWVH2Q5+H3", "compound_code": "H2Q5+H3 Delhi, India"}, "vicinity": "Deenpur, Shyam Kunj, Goyla Village, Delhi", "photos": [{"photo_reference": "ATtYBwIyxEWGYaS6WDzJ10yy4KLR7drMcroqxkznxfpWdy3tlUhTExa6QmGPisQ1y78rD-f8Ojc_tKJgjLh88xXf-HnbQtNvz5T-iZmDQtDPWNV-PLHam8ptZQzEZQ_VeSE4VDSlJpwwY-0DlaIm8Go8DVsB7LuBN4B9G8qbS7cV37zJrWI8", "width": 3120, "html_attributions": ["<a href=\"https://maps.google.com/maps/contrib/101418489048251063834\">Rishi Sharma</a>"], "height": 4160}], "scope": "GOOGLE", "business_status": "CLOSED_TEMPORARILY", "types": ["school", "point_of_interest", "establishment"], "icon": "https://maps.gstatic.com/mapfiles/place_api/icons/v1/png_71/school-71.png"}, {"rating": 4.6, "user_ratings_total": 18, "name": "jhatikra Mod Govt.School", "reference": "ChIJOeaz2RMQDTkR9pGTbIIEg2A", "geometry": {"location": {"lat": 28.5845838, "lng": 76.99515}, "viewport": {"northeast": {"lat": 28.5859857802915, "lng": 76.99644748029151}, "southwest": {"lat": 28.5832878197085, "lng": 76.9937495197085}}}, "place_id": "ChIJOeaz2RMQDTkR9pGTbIIEg2A", "plus_code": {"global_code": "7JWRHXMW+R3", "compound_code": "HXMW+R3 Rewla Khanpur, New Delhi, Delhi, India"}, "vicinity": "Rewla Khanpur, New Delhi", "photos": [{"photo_reference": "ATtYBwKVNbikiM42v-Qx4wx36r0mXBbNF3ayxfFvCteH7ZO6Dni4Agb2JM0fx9uy2_a7LNZtGvaIXMipRSLGjWDeXwqeAHTU4u81UpcmUEnRD1Ci99mSHx5MC1feiBJymFssUdlj23QgHjA990eyoRaxZ6KgAKrtn8TDUWMMQRXeRmTTm_kZ", "width": 3328, "html_attributions": ["<a href=\"https://maps.google.com/maps/contrib/104367767044471859421\">Tarun Gupta</a>"], "height": 1872}], "scope": "GOOGLE", "business_status": "OPERATIONAL", "types": ["school", "point_of_interest", "establishment"], "icon": "https://maps.gstatic.com/mapfiles/place_api/icons/v1/png_71/school-71.png"}, {"rating": 4, "user_ratings_total": 2, "permanently_closed": true, "name": "Government Senior Secondary School", "reference": "ChIJ9w2Y9wgQDTkRVourt5s66kw", "geometry": {"location": {"lat": 28.5899571, "lng": 77.0078655}, "viewport": {"northeast": {"lat": 28.5913067302915, "lng": 77.00958278029151}, "southwest": {"lat": 28.5886087697085, "lng": 77.00688481970849}}}, "place_id": "ChIJ9w2Y9wgQDTkRVourt5s66kw", "plus_code": {"global_code": "7JWVH2Q5+X4", "compound_code": "H2Q5+X4 Delhi, India"}, "vicinity": "Goyla", "photos": [{"photo_reference": "ATtYBwJAHxik-BL_udnO9GkhpnJkGDYVMGzEo5MH-RPm33c_Acc4k9Id_q7crzu5f23APtnZYn_RNdeoflRhRNbRqA_V8MBKaMolXhhYM32nDcG-pTRhJSQnbnqAYiBh0tG1BE8O3X8qNLtBm9S0H3oHsvH-GALEwdnfrsXBcCMBD4z-_jgx", "width": 3264, "html_attributions": ["<a href=\"https://maps.google.com/maps/contrib/111456673280933693830\">Pen2Print Services</a>"], "height": 2448}], "scope": "GOOGLE", "business_status": "CLOSED_TEMPORARILY", "types": ["school", "point_of_interest", "establishment"], "icon": "https://maps.gstatic.com/mapfiles/place_api/icons/v1/png_71/school-71.png"}, {"rating": 3.5, "user_ratings_total": 2, "permanently_closed": true, "name": "Government Boys Sarvodaya Sr. Secondary School", "reference": "ChIJ_8hq2xMQDTkRsT9uyNYVx_s", "geometry": {"location": {"lat": 28.5841472, "lng": 76.9949951}, "viewport": {"northeast": {"lat": 28.58562348029151, "lng": 76.99620113029151}, "southwest": {"lat": 28.5829255197085, "lng": 76.9935031697085}}}, "place_id": "ChIJ_8hq2xMQDTkRsT9uyNYVx_s", "plus_code": {"global_code": "7JWRHXMV+MX", "compound_code": "HXMV+MX Rewla Khanpur, New Delhi, Delhi, India"}, "vicinity": "Rewla Khanpur, New Delhi", "scope": "GOOGLE", "business_status": "CLOSED_TEMPORARILY", "types": ["school", "point_of_interest", "establishment"], "icon": "https://maps.gstatic.com/mapfiles/place_api/icons/v1/png_71/school-71.png"}, {"permanently_closed": true, "name": "Mukhram Moriya Public School", "reference": "ChIJ8YIryhMQDTkRyijeor8X_9I", "geometry": {"location": {"lat": 28.5835655, "lng": 76.9956475}, "viewport": {"northeast": {"lat": 28.5849305802915, "lng": 76.9970827802915}, "southwest": {"lat": 28.5822326197085, "lng": 76.9943848197085}}}, "place_id": "ChIJ8YIryhMQDTkRyijeor8X_9I", "plus_code": {"global_code": "7JWRHXMW+C7", "compound_code": "HXMW+C7 Delhi, India"}, "vicinity": "Najafgarh Kapashera Road, Rewla Khanpur, Delhi", "scope": "GOOGLE", "business_status": "CLOSED_TEMPORARILY", "types": ["school", "point_of_interest", "establishment"], "icon": "https://maps.gstatic.com/mapfiles/place_api/icons/v1/png_71/school-71.png"}, {"rating": 4.4, "user_ratings_total": 22, "name": "Government Boys Senior Secondary School Goyla Khurd", "reference": "ChIJ_7bg3AgQDTkRNbPCcwzTDXg", "geometry": {"location": {"lat": 28.5920133, "lng": 77.00831529999999}, "viewport": {"northeast": {"lat": 28.5933827802915, "lng": 77.0096635302915}, "southwest": {"lat": 28.5906848197085, "lng": 77.00696556970848}}}, "opening_hours": {"open_now": false}, "place_id": "ChIJ_7bg3AgQDTkRNbPCcwzTDXg", "plus_code": {"global_code": "7JWVH2R5+R8", "compound_code": "H2R5+R8 Delhi, India"}, "vicinity": "Deenpur, Shyam Kunj, Najafgarh, Delhi", "photos": [{"photo_reference": "ATtYBwKByXTsRwxgTKcqiTnEjaFMYBqfh8N3g0vfc8Ih9fIgEfkHGWy2buQ4PuIIVzA---1SdBotabb5MLZvYx7QyZ-w3VjFtxgQ_VHGpRlOyjxpbToC0km2lwPQWMKVyGNmIFLlPCKJj_B-EuKhsbMw5M2TCrys39yEzRskV-KCLWI8-b1d", "width": 1920, "html_attributions": ["<a href=\"https://maps.google.com/maps/contrib/117071076060249432559\">Yogesh Singh chobdar</a>"], "height": 1080}], "scope": "GOOGLE", "business_status": "OPERATIONAL", "types": ["school", "point_of_interest", "establishment"], "icon": "https://maps.gstatic.com/mapfiles/place_api/icons/v1/png_71/school-71.png"}, {"permanently_closed": true, "name": "\u092e\u0926\u0930\u0938\u093e \u0926\u0940\u0928\u092a\u0941\u0930", "reference": "ChIJu2BwaHsRDTkRganUdnoWHbg", "geometry": {"location": {"lat": 28.5915491, "lng": 76.99114349999999}, "viewport": {"northeast": {"lat": 28.59289793029151, "lng": 76.99248918029151}, "southwest": {"lat": 28.5901999697085, "lng": 76.98979121970851}}}, "place_id": "ChIJu2BwaHsRDTkRganUdnoWHbg", "plus_code": {"global_code": "7JWRHXRR+JF", "compound_code": "HXRR+JF Delhi, India"}, "vicinity": "Deenpur, Najafgarh Deenpur, Shanti Vihar, Dindarpur, Najafgarh, Delhi", "scope": "GOOGLE", "business_status": "CLOSED_TEMPORARILY", "types": ["school", "point_of_interest", "establishment"], "icon": "https://maps.gstatic.com/mapfiles/place_api/icons/v1/png_71/school-71.png"}, {"rating": 5, "user_ratings_total": 2, "permanently_closed": true, "name": "VIHAASH PLAY SCHOOL AND DAY CARE", "reference": "ChIJASDlimkRDTkRvaP0GXXAQUE", "geometry": {"location": {"lat": 28.590766, "lng": 76.9908782}, "viewport": {"northeast": {"lat": 28.5922527802915, "lng": 76.9922349802915}, "southwest": {"lat": 28.5895548197085, "lng": 76.9895370197085}}}, "place_id": "ChIJASDlimkRDTkRvaP0GXXAQUE", "plus_code": {"global_code": "7JWRHXRR+89", "compound_code": "HXRR+89 Delhi, India"}, "vicinity": "Munirka Kunj Main Road, Deenpur, Dinpur Lal Dora Extension, Najafgarh, Delhi", "photos": [{"photo_reference": "ATtYBwJB2bGI4mOs7GDw0G7s9EjXJt6HxePk5yAHOrzujQvUp15Xy28yh9wkP1FGHEqooKcqwSfpQtaVG4R9t2z7oFJ7mQSzQqBERy4vYhgqCZerumqRoDVZ92QpnydbvktxLRCs9KRhkAPEpYBcQgFETQbX4WKrws74xAAVan4DqjXOLljw", "width": 1920, "html_attributions": ["<a href=\"https://maps.google.com/maps/contrib/105766852436755956950\">Nikhil Bhardwaj</a>"], "height": 1080}], "scope": "GOOGLE", "business_status": "CLOSED_TEMPORARILY", "types": ["school", "point_of_interest", "establishment"], "icon": "https://maps.gstatic.com/mapfiles/place_api/icons/v1/png_71/school-71.png"}, {"rating": 3.7, "user_ratings_total": 3, "permanently_closed": true, "name": "MAA GAYTRI INTERNATIONAL SCHOOL", "reference": "ChIJU1V7wAkQDTkRJ_XP5pGMZOg", "geometry": {"location": {"lat": 28.5877043, "lng": 77.0090097}, "viewport": {"northeast": {"lat": 28.5890677302915, "lng": 77.01032378029151}, "southwest": {"lat": 28.5863697697085, "lng": 77.0076258197085}}}, "place_id": "ChIJU1V7wAkQDTkRJ_XP5pGMZOg", "plus_code": {"global_code": "7JWVH2Q5+3J", "compound_code": "H2Q5+3J Delhi, India"}, "vicinity": "Goyla Village, Delhi", "photos": [{"photo_reference": "ATtYBwLCnbuHI94cL8_YBPqKuE17Nvql0DTtiPIRJkqafUbQeNRyaALJWrESljnXLGngHdh0SSN7EJn_f-lFtUePwQDdewfk3goHy_9iR1UyXI_Sc_Idkhc5naPFIc3ilDHzT_vQ3mghtQiU0SAV4nrdb2WFmwdhoiPCoOkDDDDFSk1k1Xdd", "width": 3120, "html_attributions": ["<a href=\"https://maps.google.com/maps/contrib/101418489048251063834\">Rishi Sharma</a>"], "height": 4160}], "scope": "GOOGLE", "business_status": "CLOSED_TEMPORARILY", "types": ["school", "point_of_interest", "establishment"], "icon": "https://maps.gstatic.com/mapfiles/place_api/icons/v1/png_71/school-71.png"}, {"rating": 5, "user_ratings_total": 4, "permanently_closed": true, "name": "Babystep playschool", "reference": "ChIJWww47AMQDTkRNQSUs1YyXdg", "geometry": {"location": {"lat": 28.5979669, "lng": 77.00343219999999}, "viewport": {"northeast": {"lat": 28.5993162802915, "lng": 77.0047533302915}, "southwest": {"lat": 28.5966183197085, "lng": 77.00205536970849}}}, "place_id": "ChIJWww47AMQDTkRNQSUs1YyXdg", "plus_code": {"global_code": "7JWVH2X3+59", "compound_code": "H2X3+59 Delhi, India"}, "vicinity": "25 footage Rd ,B-6, Block B, Shyam Vihar Phase-1, Najafgarh, Delhi", "photos": [{"photo_reference": "ATtYBwLr_e5Bzle9BNemx6nZLViZKgFgUgf5ctO0Hm35-t0-dYnXZIKNYxs1eGORMYaPZRNuozSzChhdBhrWPUuCZmLz39Czpq53_7evoKQIVHw2bj0fP3bQywATBZlnGhdMRYGCy72-IeX72BJMDXeIkli8twTAez1FAC-HRjN1Gm2Anbsc", "width": 4160, "html_attributions": ["<a href=\"https://maps.google.com/maps/contrib/112440537099650935777\">Babystep playschool</a>"], "height": 3120}], "scope": "GOOGLE", "business_status": "CLOSED_TEMPORARILY", "types": ["school", "point_of_interest", "establishment"], "icon": "https://maps.gstatic.com/mapfiles/place_api/icons/v1/png_71/school-71.png"}]}