{"status": "OK", "next_page_token": "ATtYBwKDiCyyl-aTtzW-CwOelbMOGw1SUd49ofol4GtnfSrvQH5dEjSeQxk87OGOTVpNboTTJMH6swqmI6Z-Qd6IaRmNjSlSnM3C2au6BjbLgAedPwZMULK3yvhUN7EXm8_hm9HpbAVdPC6SIb90S4TDExIO5bggn4nOnLd7PDeSwJaPi2KEOk6RZrgzfcvzBO5ejNq9vQXBlXvz4ncGifmiD-cQVf60PtcJQ9OMkXr9w-HpoxC4VlRv_ucrF7aqjSI-HPTysM8yYfGMKucqxZcvfe90vBK8mgznX36tcFkc0Is8RlpCSoY-LoFVQSDAzdNmFbUY8pxjv8zbaeMfo2yq9sIyB7QLBWU9Q6mkrjkwQz-3VBaGPeGnClmOWKK6B-n96pr1U9hE7XFeQuQ0-Dw3RN37kir18FYp6YCAmfMlbjTZMQ", "html_attributions": [], "results": [{"permanently_closed": true, "name": "Lavi Public School", "reference": "ChIJKQeb5SkGDTkRt4WAZK2NgSw", "geometry": {"location": {"lat": 28.7343765, "lng": 77.0110492}, "viewport": {"northeast": {"lat": 28.7356550302915, "lng": 77.01249823029151}, "southwest": {"lat": 28.7329570697085, "lng": 77.00980026970849}}}, "place_id": "ChIJKQeb5SkGDTkRt4WAZK2NgSw", "plus_code": {"global_code": "7JWVP2M6+QC", "compound_code": "P2M6+QC Delhi, India"}, "vicinity": "Plot No-141, Main Narala Rd, Ghevra, Delhi", "scope": "GOOGLE", "business_status": "CLOSED_TEMPORARILY", "types": ["school", "point_of_interest", "establishment"], "icon": "https://maps.gstatic.com/mapfiles/place_api/icons/v1/png_71/school-71.png"}, {"rating": 4, "user_ratings_total": 2, "permanently_closed": true, "name": "Holy Mother's Touch", "reference": "ChIJu_nqEPgGDTkR5gDpo17UQI0", "geometry": {"location": {"lat": 28.7343765, "lng": 77.0110492}, "viewport": {"northeast": {"lat": 28.7359835802915, "lng": 77.0807371}, "southwest": {"lat": 28.7332856197085, "lng": 76.9878199}}}, "place_id": "ChIJu_nqEPgGDTkR5gDpo17UQI0", "plus_code": {"global_code": "7JWVP2M6+QC", "compound_code": "P2M6+QC Jain Nagar, Sector 38, Rohini, New Delhi, Delhi, India"}, "vicinity": "1522 A+D, St. No.10 Durga Block, Jain Nagar, Karla", "scope": "GOOGLE", "business_status": "CLOSED_TEMPORARILY", "types": ["school", "point_of_interest", "establishment"], "icon": "https://maps.gstatic.com/mapfiles/place_api/icons/v1/png_71/school-71.png"}, {"rating": 3.5, "user_ratings_total": 54, "name": "B.S.M Sr Sec School", "reference": "ChIJw0LP6zYGDTkRtEYelDYc6I0", "geometry": {"location": {"lat": 28.7354639, "lng": 77.0292794}, "viewport": {"northeast": {"lat": 28.73684383029149, "lng": 77.0305231802915}, "southwest": {"lat": 28.7341458697085, "lng": 77.02782521970849}}}, "opening_hours": {"open_now": false}, "place_id": "ChIJw0LP6zYGDTkRtEYelDYc6I0", "plus_code": {"global_code": "7JWVP2PH+5P", "compound_code": "P2PH+5P Delhi, India"}, "vicinity": "Sultan pur road, Karala Village, Karala, Delhi", "photos": [{"photo_reference": "ATtYBwLAIinfQol9hEFe8GvqEiIngoRqt8fyZu_J8AR-b4EFiQJ4UljHB29zT407QR-fu8d8YkFhiXjVyoKKth3JJO1L6szFfs0qh91QxZ1z_JVxrDW0_LgwX58MsuLEgXQwXsG6N5bA3KKaDyF5DiAuDZmHrEAktmqQdmmewJMJhgX1_Vt7", "width": 540, "html_attributions": ["<a href=\"https://maps.google.com/maps/contrib/117239630610561408435\">Aftab siddique</a>"], "height": 303}], "scope": "GOOGLE", "business_status": "OPERATIONAL", "types": ["school", "point_of_interest", "establishment"], "icon": "https://maps.gstatic.com/mapfiles/place_api/icons/v1/png_71/school-71.png"}, {"rating": 2.6, "user_ratings_total": 17, "name": "GRM Public School", "reference": "ChIJJwiCgjoGDTkRGT1wvH0SjTI", "geometry": {"location": {"lat": 28.7308554, "lng": 77.0242154}, "viewport": {"northeast": {"lat": 28.73220058029149, "lng": 77.0255643302915}, "southwest": {"lat": 28.72950261970849, "lng": 77.0228663697085}}}, "opening_hours": {"open_now": false}, "place_id": "ChIJJwiCgjoGDTkRGT1wvH0SjTI", "plus_code": {"global_code": "7JWVP2JF+8M", "compound_code": "P2JF+8M Karala, New Delhi, Delhi, India"}, "vicinity": "Shiv Vihar Colony, Karala, New Delhi", "photos": [{"photo_reference": "ATtYBwKHprgugeawUkvLF9ChB_rgOFvOvyQN2-I33-V92-dJvN5B29rNdB43T5C7J5zCQFbKY6hYwV-6c_M0p3GZoep2qTCjguXusufx1WUp2CCqym6-om3DGjuZwE2zBFWcqfE8NOy8CPSzzBjq_u3OdXNpS1cLXHCPCzCCoPfk1uqfopI0", "width": 2268, "html_attributions": ["<a href=\"https://maps.google.com/maps/contrib/103165153927137233606\">GRM Public School</a>"], "height": 4032}], "scope": "GOOGLE", "business_status": "OPERATIONAL", "types": ["school", "point_of_interest", "establishment"], "icon": "https://maps.gstatic.com/mapfiles/place_api/icons/v1/png_71/school-71.png"}, {"permanently_closed": true, "name": "Mamta Tuition Centre", "reference": "ChIJ9SU8lzwHDTkRGf5nBB-ZReE", "geometry": {"location": {"lat": 28.7276325, "lng": 77.02388750000001}, "viewport": {"northeast": {"lat": 28.7289828302915, "lng": 77.02518388029151}, "southwest": {"lat": 28.7262848697085, "lng": 77.0224859197085}}}, "place_id": "ChIJ9SU8lzwHDTkRGf5nBB-ZReE", "plus_code": {"global_code": "7JWVP2HF+3H", "compound_code": "P2HF+3H Delhi, India"}, "vicinity": "Karala, Delhi", "scope": "GOOGLE", "business_status": "CLOSED_TEMPORARILY", "types": ["school", "point_of_interest", "establishment"], "icon": "https://maps.gstatic.com/mapfiles/place_api/icons/v1/png_71/school-71.png"}, {"rating": 4, "user_ratings_total": 2, "permanently_closed": true, "name": "Rose Convent School", "reference": "ChIJKxp2VjAGDTkRbBvIAbvTRrM", "geometry": {"location": {"lat": 28.7334027, "lng": 77.02466439999999}, "viewport": {"northeast": {"lat": 28.73473073029149, "lng": 77.0260074302915}, "southwest": {"lat": 28.7320327697085, "lng": 77.02330946970848}}}, "place_id": "ChIJKxp2VjAGDTkRbBvIAbvTRrM", "plus_code": {"global_code": "7JWVP2MF+9V", "compound_code": "P2MF+9V Delhi, India"}, "vicinity": "369 b,, Kanjhawala Road, Shiv Vihar Colony, Karala, Delhi", "scope": "GOOGLE", "business_status": "CLOSED_TEMPORARILY", "types": ["school", "point_of_interest", "establishment"], "icon": "https://maps.gstatic.com/mapfiles/place_api/icons/v1/png_71/school-71.png"}, {"permanently_closed": true, "name": "Rizwan", "reference": "ChIJ48TYVTAGDTkR3O9m-r-_oRU", "geometry": {"location": {"lat": 28.7334128, "lng": 77.024665}, "viewport": {"northeast": {"lat": 28.7347929302915, "lng": 77.0260191302915}, "southwest": {"lat": 28.73209496970851, "lng": 77.0233211697085}}}, "place_id": "ChIJ48TYVTAGDTkR3O9m-r-_oRU", "plus_code": {"global_code": "7JWVP2MF+9V", "compound_code": "P2MF+9V Delhi, India"}, "vicinity": "Kanjhawala Road, Rajiv Nagar Extension, Sector 39, Rohini, Delhi", "scope": "GOOGLE", "business_status": "CLOSED_TEMPORARILY", "types": ["school", "point_of_interest", "establishment"], "icon": "https://maps.gstatic.com/mapfiles/place_api/icons/v1/png_71/school-71.png"}, {"rating": 4.9, "user_ratings_total": 58, "name": "Manish Classes Of English Language", "reference": "ChIJC8lAysgHDTkRRRUx_7siwuA", "geometry": {"location": {"lat": 28.7363113, "lng": 77.0226038}, "viewport": {"northeast": {"lat": 28.7376249302915, "lng": 77.02395113029151}, "southwest": {"lat": 28.7349269697085, "lng": 77.02125316970849}}}, "opening_hours": {"open_now": false}, "place_id": "ChIJC8lAysgHDTkRRRUx_7siwuA", "plus_code": {"global_code": "7JWVP2PF+G2", "compound_code": "P2PF+G2 Delhi, India"}, "vicinity": "near puffin school, H. No. 160 Block-D, Anandpur dham, near puffin school, Rupali Enclave, Karala, Delhi", "photos": [{"photo_reference": "ATtYBwJRVcn8qNQiC-3k1v5w1MLEIfurwdaTNlLNAUDqQXO-y9EHbGpAqLrYQtIX1aJZmtDscuT_wPwlo91syGEoNKCzoStXwBj5sGo6fa5qmgHmLzv0iTI1ShS5p8yPjpoL7eYotidY4OPi4jd7_dvBq7kDdAOuzFMMpv60rSlR6wuGmNc0", "width": 532, "html_attributions": ["<a href=\"https://maps.google.com/maps/contrib/108419171675143294290\">Sahil Kumar</a>"], "height": 1152}], "scope": "GOOGLE", "business_status": "OPERATIONAL", "types": ["school", "point_of_interest", "establishment"], "icon": "https://maps.gstatic.com/mapfiles/place_api/icons/v1/png_71/school-71.png"}, {"rating": 5, "user_ratings_total": 1, "permanently_closed": true, "name": "Yashu Convent School", "reference": "ChIJY2UfhTEGDTkR3CmZLNhkbk4", "geometry": {"location": {"lat": 28.7359565, "lng": 77.0242267}, "viewport": {"northeast": {"lat": 28.7373054802915, "lng": 77.0255756802915}, "southwest": {"lat": 28.7346075197085, "lng": 77.02287771970849}}}, "place_id": "ChIJY2UfhTEGDTkR3CmZLNhkbk4", "plus_code": {"global_code": "7JWVP2PF+9M", "compound_code": "P2PF+9M Bawana, New Delhi, Delhi, India"}, "vicinity": "near Begwan Chaupal, Kanjhawala Road, near Begwan Chaupal, Bawana, New Delhi", "scope": "GOOGLE", "business_status": "CLOSED_TEMPORARILY", "types": ["school", "point_of_interest", "establishment"], "icon": "https://maps.gstatic.com/mapfiles/place_api/icons/v1/png_71/school-71.png"}, {"rating": 5, "user_ratings_total": 4, "permanently_closed": true, "name": "ADITYA TUITION CLASSES", "reference": "ChIJVwKB-C0GDTkR4YZAlzX4i9Q", "geometry": {"location": {"lat": 28.7368822, "lng": 77.0218886}, "viewport": {"northeast": {"lat": 28.7382635802915, "lng": 77.0232389302915}, "southwest": {"lat": 28.7355656197085, "lng": 77.02054096970849}}}, "place_id": "ChIJVwKB-C0GDTkR4YZAlzX4i9Q", "plus_code": {"global_code": "7JWVP2PC+QQ", "compound_code": "P2PC+QQ Delhi, India"}, "vicinity": "Plot Number-27, Khasra Number -63/22, 110081, Rupali Enclave, Karala, Delhi", "photos": [{"photo_reference": "ATtYBwIkmrdeYDD_uvZg_KoAya24XAU9jV0JoFU-o1361EA4myuzWXiiyJ4K2cOFplvBN6xaiHsDKgAmjTB7EecaKXUyRakt_r4atJYgbNqE5syhhr6Fcw0wOTGdwnz8ZSf5-nxoublKj-YBU9FZOeIlcnoHr0J6w1n3bbPuHmL9QOLMDnl0", "width": 3104, "html_attributions": ["<a href=\"https://maps.google.com/maps/contrib/101581089795638437615\">Aditya Aggarwal</a>"], "height": 1746}], "scope": "GOOGLE", "business_status": "CLOSED_TEMPORARILY", "types": ["school", "point_of_interest", "establishment"], "icon": "https://maps.gstatic.com/mapfiles/place_api/icons/v1/png_71/school-71.png"}, {"rating": 3.7, "user_ratings_total": 27, "name": "Parag Jyoti Public School", "reference": "ChIJjXXdSDcGDTkRgvKP6czlyKs", "geometry": {"location": {"lat": 28.7326067, "lng": 77.0281073}, "viewport": {"northeast": {"lat": 28.73395078029149, "lng": 77.02945458029151}, "southwest": {"lat": 28.73125281970849, "lng": 77.0267566197085}}}, "opening_hours": {"open_now": false}, "place_id": "ChIJjXXdSDcGDTkRgvKP6czlyKs", "plus_code": {"global_code": "7JWVP2MH+26", "compound_code": "P2MH+26 Delhi, India"}, "vicinity": "Kanjhawala Road, Shiv Vihar, Karala, Delhi", "photos": [{"photo_reference": "ATtYBwIxsi87XqdeQYkP_47mjClIJX6Ce8MjWzc9KPFQtl2wz6wa9toUNSTFnnT6pYtnuGr3z4D15Uxp0rFN22SG2D_rmaZpSbU55vZxmh8Gqs94bx0G3rLZjQ4Yh-2K6KgvlPvOOYt7SpZWxePhP9W2Mly2K8WP6DunCBHIuALLEGZWSjsl", "width": 1920, "html_attributions": ["<a href=\"https://maps.google.com/maps/contrib/104766970903796700946\">Nitish Aryan</a>"], "height": 1080}], "scope": "GOOGLE", "business_status": "OPERATIONAL", "types": ["school", "point_of_interest", "establishment"], "icon": "https://maps.gstatic.com/mapfiles/place_api/icons/v1/png_71/school-71.png"}, {"permanently_closed": true, "name": "Prateek Coaching Centre", "reference": "ChIJhazccDkGDTkR0lbQalYWzdc", "geometry": {"location": {"lat": 28.72798239999999, "lng": 77.0285153}, "viewport": {"northeast": {"lat": 28.7293332802915, "lng": 77.0298642302915}, "southwest": {"lat": 28.7266353197085, "lng": 77.02716626970849}}}, "place_id": "ChIJhazccDkGDTkR0lbQalYWzdc", "plus_code": {"global_code": "7JWVP2HH+5C", "compound_code": "P2HH+5C Delhi, India"}, "vicinity": "F 212, Vardhman Enclave, Karala, Delhi", "scope": "GOOGLE", "business_status": "CLOSED_TEMPORARILY", "types": ["school", "point_of_interest", "establishment"], "icon": "https://maps.gstatic.com/mapfiles/place_api/icons/v1/png_71/school-71.png"}, {"name": "\u0932\u0935\u0940 \u092a\u092c\u094d\u0932\u093f\u0915 \u0935\u093f\u0926\u094d\u092f\u093e\u0932\u092f", "reference": "ChIJPTuwjTkHDTkRxGcJ81UAc0s", "geometry": {"location": {"lat": 28.7343765, "lng": 77.0110492}, "viewport": {"northeast": {"lat": 28.7356550302915, "lng": 77.01249823029151}, "southwest": {"lat": 28.7329570697085, "lng": 77.00980026970849}}}, "place_id": "ChIJPTuwjTkHDTkRxGcJ81UAc0s", "plus_code": {"global_code": "7JWVP2M6+QC", "compound_code": "P2M6+QC Delhi, India"}, "vicinity": "Plot No-141, Main Narala Rd, Ghevra, Delhi", "scope": "GOOGLE", "business_status": "OPERATIONAL", "types": ["school", "point_of_interest", "establishment"], "icon": "https://maps.gstatic.com/mapfiles/place_api/icons/v1/png_71/school-71.png"}, {"permanently_closed": true, "name": "H.k supervizer", "reference": "ChIJdSccAqcHDTkRVEu-Q-4F83w", "geometry": {"location": {"lat": 28.7343765, "lng": 77.0110492}, "viewport": {"northeast": {"lat": 28.7356550302915, "lng": 77.01249823029151}, "southwest": {"lat": 28.7329570697085, "lng": 77.00980026970849}}}, "place_id": "ChIJdSccAqcHDTkRVEu-Q-4F83w", "plus_code": {"global_code": "7JWVP2M6+QC", "compound_code": "P2M6+QC Rohini, New Delhi, Delhi, India"}, "vicinity": "Rohini, Jagdish", "photos": [{"photo_reference": "ATtYBwJgoKhEjCVkWRimRjoP1cEpMsgoyRmIHevdwf4kF_INjAObkouO3aWVaYgRfihTAXhfkVFmYF_b0daiqv877mmzRZzJeL2m56Md0H5MGZABeHlqcWWaU1-DZ6BBmxN4I0IeAxmYPexJEddUUUsehUtciGMfTo1Up6RwMXp4pTzEl3S3", "width": 478, "html_attributions": ["<a href=\"https://maps.google.com/maps/contrib/104777260956729677033\">H.k supervizer</a>"], "height": 720}], "scope": "GOOGLE", "business_status": "CLOSED_TEMPORARILY", "types": ["school", "point_of_interest", "establishment"], "icon": "https://maps.gstatic.com/mapfiles/place_api/icons/v1/png_71/school-71.png"}, {"permanently_closed": true, "name": "A L N 6356263442", "reference": "ChIJ5zf48QAHDTkR8_e-WWM9wEg", "geometry": {"location": {"lat": 28.7344641, "lng": 77.0296803}, "viewport": {"northeast": {"lat": 28.73581278029151, "lng": 77.0310651802915}, "southwest": {"lat": 28.73311481970851, "lng": 77.02836721970849}}}, "place_id": "ChIJ5zf48QAHDTkR8_e-WWM9wEg", "plus_code": {"global_code": "7JWVP2MH+QV", "compound_code": "P2MH+QV Delhi, India"}, "vicinity": "Sultanpur Road, Rupali Enclave, Karala, Delhi", "scope": "GOOGLE", "business_status": "CLOSED_TEMPORARILY", "types": ["school", "point_of_interest", "establishment"], "icon": "https://maps.gstatic.com/mapfiles/place_api/icons/v1/png_71/school-71.png"}, {"permanently_closed": true, "name": "Kirti sharma Economi Academy", "reference": "ChIJjTb2HzgGDTkRf0Zlhg0FWyk", "geometry": {"location": {"lat": 28.731552, "lng": 77.0319832}, "viewport": {"northeast": {"lat": 28.7328923802915, "lng": 77.0333292802915}, "southwest": {"lat": 28.7301944197085, "lng": 77.03063131970849}}}, "place_id": "ChIJjTb2HzgGDTkRf0Zlhg0FWyk", "plus_code": {"global_code": "7JWVP2JJ+JQ", "compound_code": "P2JJ+JQ Karala, New Delhi, Delhi, India"}, "vicinity": "Saheed Bhagat Singh Nagar, Karala, New Delhi", "scope": "GOOGLE", "business_status": "CLOSED_TEMPORARILY", "types": ["school", "point_of_interest", "establishment"], "icon": "https://maps.gstatic.com/mapfiles/place_api/icons/v1/png_71/school-71.png"}, {"permanently_closed": true, "name": "MR Public School", "reference": "ChIJiw4SjzYGDTkRQgmqujHbmlo", "geometry": {"location": {"lat": 28.7363254, "lng": 77.0300462}, "viewport": {"northeast": {"lat": 28.73762093029151, "lng": 77.0315215302915}, "southwest": {"lat": 28.73492296970851, "lng": 77.02882356970849}}}, "place_id": "ChIJiw4SjzYGDTkRQgmqujHbmlo", "plus_code": {"global_code": "7JWVP2PJ+G2", "compound_code": "P2PJ+G2 Delhi, India"}, "vicinity": "Anandpur Dham, Sultanpur Road, Karala, Delhi", "scope": "GOOGLE", "business_status": "CLOSED_TEMPORARILY", "types": ["school", "point_of_interest", "establishment"], "icon": "https://maps.gstatic.com/mapfiles/place_api/icons/v1/png_71/school-71.png"}, {"rating": 4, "user_ratings_total": 4, "permanently_closed": true, "name": "BPCC INDIA", "reference": "ChIJh-nX3T0GDTkRytbvVfMWnN8", "geometry": {"location": {"lat": 28.72127, "lng": 77.027296}, "viewport": {"northeast": {"lat": 28.72261318029149, "lng": 77.0290216802915}, "southwest": {"lat": 28.7199152197085, "lng": 77.02632371970849}}}, "place_id": "ChIJh-nX3T0GDTkRytbvVfMWnN8", "plus_code": {"global_code": "7JWVP2CG+GW", "compound_code": "P2CG+GW Delhi, India"}, "vicinity": "Madanpur Dabas Main Road, Block H, Saheed Bhagat Singh Nagar, Mubarakpur Dabas, Delhi", "photos": [{"photo_reference": "ATtYBwKY1PrG_QsLBiRLiu5dKGygMqFR_aNK77YszIWJJAR2mYmkD8b4PqsJiAakofMb2Ban2K3TPTVKJdvXEq4ekxMCaswbPt1OzThfxiXT82gin3OQx_xCY0ZlRvMps_GXKXCMDJWW0sbblwOm56fjX-mWJYpdnliFZ9FsHeFb4R6L054", "width": 720, "html_attributions": ["<a href=\"https://maps.google.com/maps/contrib/118063641523851598434\">DEEPAK SHARMA India</a>"], "height": 720}], "scope": "GOOGLE", "business_status": "CLOSED_TEMPORARILY", "types": ["school", "point_of_interest", "establishment"], "icon": "https://maps.gstatic.com/mapfiles/place_api/icons/v1/png_71/school-71.png"}, {"rating": 3.5, "user_ratings_total": 2, "permanently_closed": true, "name": "Sanfort Play School Jain Nagar Rohini", "reference": "ChIJSzJ28zcGDTkRT70jef2HH6I", "geometry": {"location": {"lat": 28.7320412, "lng": 77.0321549}, "viewport": {"northeast": {"lat": 28.73339508029149, "lng": 77.03348253029151}, "southwest": {"lat": 28.7306971197085, "lng": 77.0307845697085}}}, "place_id": "ChIJSzJ28zcGDTkRT70jef2HH6I", "plus_code": {"global_code": "7JWVP2JJ+RV", "compound_code": "P2JJ+RV Delhi, India"}, "vicinity": "1864-65, Jain Nagar(Tirthankar Nagar)near Rohini, Sector 22, Karala, Delhi", "scope": "GOOGLE", "business_status": "CLOSED_TEMPORARILY", "types": ["school", "point_of_interest", "establishment"], "icon": "https://maps.gstatic.com/mapfiles/place_api/icons/v1/png_71/school-71.png"}, {"rating": 5, "user_ratings_total": 2, "permanently_closed": true, "name": "M.R. Memorial Public School", "reference": "ChIJ5SD10DUGDTkRLhogWu8-9ek", "geometry": {"location": {"lat": 28.7365343, "lng": 77.03032259999999}, "viewport": {"northeast": {"lat": 28.7378575302915, "lng": 77.0317324302915}, "southwest": {"lat": 28.7351595697085, "lng": 77.02903446970849}}}, "place_id": "ChIJ5SD10DUGDTkRLhogWu8-9ek", "plus_code": {"global_code": "7JWVP2PJ+J4", "compound_code": "P2PJ+J4 Delhi, India"}, "vicinity": "Karala Village, Karala, Delhi", "photos": [{"photo_reference": "ATtYBwJYE0EnhCYBewz_-I3HhPn2IGX6WJvZPxryZ2oO8WbDerEwUfkPAnyOidWKNCXV3w5DR38K2wRF8aDxxlWU4OAgkXrXy5tHScqG4nzjU9oc8z5PyRQujX3biH8QNXLMa6GUvbE3WrPLdz44l1sjF5GBTPcjHsvxC1vOikz9l88oIj7Q", "width": 3120, "html_attributions": ["<a href=\"https://maps.google.com/maps/contrib/110065520648251650295\">Akash Raj</a>"], "height": 4160}], "scope": "GOOGLE", "business_status": "CLOSED_TEMPORARILY", "types": ["school", "point_of_interest", "establishment"], "icon": "https://maps.gstatic.com/mapfiles/place_api/icons/v1/png_71/school-71.png"}]}