{"status": "OK", "html_attributions": [], "results": [{"rating": 4, "user_ratings_total": 22, "name": "C.I.A.T CONVENT SCHOOL", "reference": "ChIJ07F9s4MIDTkRT_sXF-L8rm4", "geometry": {"location": {"lat": 28.7331674, "lng": 77.0072199}, "viewport": {"northeast": {"lat": 28.7345136802915, "lng": 77.0086087802915}, "southwest": {"lat": 28.7318157197085, "lng": 77.00591081970849}}}, "place_id": "ChIJ07F9s4MIDTkRT_sXF-L8rm4", "plus_code": {"global_code": "7JWVP2M4+7V", "compound_code": "P2M4+7V Delhi, India"}, "vicinity": "Kanjhawala Village, Delhi", "photos": [{"photo_reference": "ATtYBwJU4DpgkAnRVWP7O1Am1dKfr98QnugMYf7TOB_MqttTzYC1wDu_Igu99OZpjDnqrATr_moup_X6Tj8bdx1j2lIZ6cSROd8bPJialNtnpKUMXxw6eAfcoV01GEADDIe4nU_6yVPl_baEP4Jn265YUlJA_rt5NOcrT2jAwcWz727NRgY6", "width": 4128, "html_attributions": ["<a href=\"https://maps.google.com/maps/contrib/103838522122129426509\">mukesh raj</a>"], "height": 3096}], "scope": "GOOGLE", "business_status": "OPERATIONAL", "types": ["school", "point_of_interest", "establishment"], "icon": "https://maps.gstatic.com/mapfiles/place_api/icons/v1/png_71/school-71.png"}, {"rating": 5, "user_ratings_total": 1, "permanently_closed": true, "name": "Poly Marget School", "reference": "ChIJY9wcPz8GDTkRENG3Tkt_0nU", "geometry": {"location": {"lat": 28.72466119999999, "lng": 77.0318118}, "viewport": {"northeast": {"lat": 28.72601003029149, "lng": 77.03320153029149}, "southwest": {"lat": 28.72331206970849, "lng": 77.03050356970849}}}, "place_id": "ChIJY9wcPz8GDTkRENG3Tkt_0nU", "plus_code": {"global_code": "7JWVP2FJ+VP", "compound_code": "P2FJ+VP Delhi, India"}, "vicinity": "Saheed Bhagat Singh Nagar, Karala, Delhi", "scope": "GOOGLE", "business_status": "CLOSED_TEMPORARILY", "types": ["school", "point_of_interest", "establishment"], "icon": "https://maps.gstatic.com/mapfiles/place_api/icons/v1/png_71/school-71.png"}, {"rating": 5, "user_ratings_total": 26, "name": "Mange Ram Public School", "reference": "ChIJC68xESoGDTkRDVOJXzukOJY", "geometry": {"location": {"lat": 28.7382463, "lng": 77.0103432}, "viewport": {"northeast": {"lat": 28.7395993802915, "lng": 77.0115920802915}, "southwest": {"lat": 28.7369014197085, "lng": 77.00889411970849}}}, "opening_hours": {"open_now": false}, "place_id": "ChIJC68xESoGDTkRDVOJXzukOJY", "plus_code": {"global_code": "7JWVP2Q6+74", "compound_code": "P2Q6+74 Kanjhawala, Delhi, India"}, "vicinity": "near SDM Court, 100 Feet Road, Kanjhawala, New Delhi", "photos": [{"photo_reference": "ATtYBwLZTELpYZhMOCHngUKDLNe_UfJejTnX8rH6K6CcCRGYU0RKxcP2Q3eD_K-zC6-mFjuv9deXM0vpLFySXhh1ocGrN_Bm25RU5ztB2_AcnYstD3M4qnD_SDXWZbGnT-exkE5Z7_bJMm8UZvPxsjuj3vX1XjKr6lvvjgxDz-JSuS5GQ0rp", "width": 6240, "html_attributions": ["<a href=\"https://maps.google.com/maps/contrib/115919466264799433833\">Mange Ram Public School</a>"], "height": 4160}], "scope": "GOOGLE", "business_status": "OPERATIONAL", "types": ["school", "point_of_interest", "establishment"], "icon": "https://maps.gstatic.com/mapfiles/place_api/icons/v1/png_71/school-71.png"}, {"rating": 5, "user_ratings_total": 1, "permanently_closed": true, "name": "Aiit institute", "reference": "ChIJqfik3hUGDTkR8XU03CHoQa0", "geometry": {"location": {"lat": 28.719495, "lng": 77.0280143}, "viewport": {"northeast": {"lat": 28.7208434302915, "lng": 77.02939908029151}, "southwest": {"lat": 28.7181454697085, "lng": 77.02670111970849}}}, "place_id": "ChIJqfik3hUGDTkR8XU03CHoQa0", "plus_code": {"global_code": "7JWVP29H+Q6", "compound_code": "P29H+Q6 Delhi, India"}, "vicinity": "Madanpur Dabas Main Road, Block H, Meer Vihar, Mubarakpur Dabas, New Delhi", "scope": "GOOGLE", "business_status": "CLOSED_TEMPORARILY", "types": ["school", "point_of_interest", "establishment"], "icon": "https://maps.gstatic.com/mapfiles/place_api/icons/v1/png_71/school-71.png"}, {"permanently_closed": true, "name": "Dish TV Service Centre", "reference": "ChIJ0woqroEIDTkR89RdsjTKNNo", "geometry": {"location": {"lat": 28.7373723, "lng": 77.0082248}, "viewport": {"northeast": {"lat": 28.7387217302915, "lng": 77.00957413029151}, "southwest": {"lat": 28.7360237697085, "lng": 77.0068761697085}}}, "place_id": "ChIJ0woqroEIDTkR89RdsjTKNNo", "plus_code": {"global_code": "7JWVP2P5+W7", "compound_code": "P2P5+W7 Delhi, India"}, "vicinity": "Kanjhawala Road, Uday Vihar Colony, Kanjhawala, Delhi", "scope": "GOOGLE", "business_status": "CLOSED_TEMPORARILY", "types": ["school", "point_of_interest", "establishment"], "icon": "https://maps.gstatic.com/mapfiles/place_api/icons/v1/png_71/school-71.png"}, {"rating": 5, "user_ratings_total": 1, "permanently_closed": true, "name": "K.S.S. Motar Driving Training School", "reference": "ChIJ9xOHpYEIDTkRhE2x0YInFEo", "geometry": {"location": {"lat": 28.7371494, "lng": 77.00801589999999}, "viewport": {"northeast": {"lat": 28.7385766802915, "lng": 77.0094209302915}, "southwest": {"lat": 28.7358787197085, "lng": 77.00672296970849}}}, "place_id": "ChIJ9xOHpYEIDTkRhE2x0YInFEo", "plus_code": {"global_code": "7JWVP2P5+V6", "compound_code": "P2P5+V6 Delhi, India"}, "vicinity": "142, 101 main chowk, Kanjhawala, Delhi", "photos": [{"photo_reference": "ATtYBwKFCw2oXv93xUzwKZnqLiZfa2q_phc72BXNCfm1zqEWUvmlfB8_VwM9VZMyQiSMiuk7cf6ex7IuBJZydfR-vs84eJmQkrlnoga9P9iZJSDzT-3zL9eXagoajPJ3hvTbPy6oJZ1jBEINpnKbEqC6Bm8ew1gD70RsH6h3a-eoFsnmK5ld", "width": 1920, "html_attributions": ["<a href=\"https://maps.google.com/maps/contrib/115912629093690622399\">Crusher Gaming</a>"], "height": 1080}], "scope": "GOOGLE", "business_status": "CLOSED_TEMPORARILY", "types": ["school", "point_of_interest", "establishment"], "icon": "https://maps.gstatic.com/mapfiles/place_api/icons/v1/png_71/school-71.png"}, {"name": "Atuldogra", "reference": "ChIJjWkZFKUHDTkRlYbV2Y22cwk", "geometry": {"location": {"lat": 28.73675399999999, "lng": 77.0199348}, "viewport": {"northeast": {"lat": 28.73810298029149, "lng": 77.02128378029151}, "southwest": {"lat": 28.7354050197085, "lng": 77.0185858197085}}}, "place_id": "ChIJjWkZFKUHDTkRlYbV2Y22cwk", "plus_code": {"global_code": "7JWVP2P9+PX", "compound_code": "P2P9+PX Delhi, India"}, "vicinity": "Unnamed Road, Kanjhawala Industrial Area, Rupali Enclave, Karala, Delhi", "scope": "GOOGLE", "business_status": "OPERATIONAL", "types": ["school", "point_of_interest", "establishment"], "icon": "https://maps.gstatic.com/mapfiles/place_api/icons/v1/png_71/school-71.png"}]}