{"status": "OK", "next_page_token": "ATtYBwK-Ar6UPcycbpJezu9mGswe7XnMIrxod6KUwDjuPjSDlbkhIWcbJ4zdn08Mn2PwuGSt4UxgL_Dyl1qokrCGqDvdDwt9MMCmxEnUcrFj5sFPlKwvZeqZzSJyvnJDdhev6g6hMGZ1dWbBR5e9HuFISI5lgs1aJqDdKWbTFGHOhn3ddWHA3zx9o_LDXAboLzcQHLkHCzBWqVsRIwSVkiraXoeP6NYqfqme4oFKMFcSDODEdrQk8W7pwE7Xs-oZ5zTPU-6nou7JsbgeKiRRDxWsPLivLHLzzZTVNfQVXeF-JPzEY7JPtgyT3XaDbC6w3KERrT0Tpxefyx8dc-O52QC1lO6YFSy5tjnpfbuTKP5n7y0UiVaPBBSZT21bd2B88yIWkgspoyJf-i10MrwwpyHAFUn3WCvs8KQ5dwf55I7rywv-4bN8URVa5FtS_q7KZr-47nDVtLlh3R_cxs_H8UxjLRRjkkzx_VxXLXgtXeJYfjpgghn39Phy7xw0_MNg1bQeZA9PcsHkkTvxova8hQ7A7UcsUpV0kw2YWYwiClVkNd66sAVW289ScBrQHs9creXrH8am4_g3OgTw1k90fpYjB_XVWYQdzJO7RNIs9nbdAYxtPuAeToRk2SrFeFn88ODlt5M", "html_attributions": [], "results": [{"rating": 5, "user_ratings_total": 10, "permanently_closed": true, "name": "Sanskriti school", "reference": "ChIJ5d7CvSEaDTkRiXrPJWv7tBM", "geometry": {"location": {"lat": 28.5183275, "lng": 77.0352668}, "viewport": {"northeast": {"lat": 28.5196731302915, "lng": 77.0366212802915}, "southwest": {"lat": 28.5169751697085, "lng": 77.03392331970849}}}, "place_id": "ChIJ5d7CvSEaDTkRiXrPJWv7tBM", "plus_code": {"global_code": "7JWVG29P+84", "compound_code": "G29P+84 Gurugram, Haryana, India"}, "vicinity": "Chauma Road, Ganga Vihar, New Palam Vihar Phase 3, Sector 110A, Gurugram", "photos": [{"photo_reference": "ATtYBwLTFiDnfb1XQoK-6SBtPBEllYu3EsdIWQecc_FvQsgPuug6CYWFA-qHhB8MawVhFZ-IDaYPGaLKO1Jj5p7c237zGDYU62WygXA05J4TsktYvVdM7bKcOlbEgt6i3x_ETLLbl6siscuBRgMegxO8-C_1wBiLXIvhWT1ufIVckzub9_Ng", "width": 3000, "html_attributions": ["<a href=\"https://maps.google.com/maps/contrib/118064632093319838204\">saroj bala bala</a>"], "height": 3000}], "scope": "GOOGLE", "business_status": "CLOSED_TEMPORARILY", "types": ["school", "point_of_interest", "establishment"], "icon": "https://maps.gstatic.com/mapfiles/place_api/icons/v1/png_71/school-71.png"}, {"rating": 3.6, "user_ratings_total": 113, "name": "DPSG Palam Vihar - Best CBSE School Near Dwarka Expressway, Sec 21, 23 Gurgaon", "reference": "ChIJnU8paSEaDTkRM8OuoK8VSi4", "geometry": {"location": {"lat": 28.5190212, "lng": 77.0372759}, "viewport": {"northeast": {"lat": 28.5201365302915, "lng": 77.03900223029152}, "southwest": {"lat": 28.5174385697085, "lng": 77.0363042697085}}}, "place_id": "ChIJnU8paSEaDTkRM8OuoK8VSi4", "plus_code": {"global_code": "7JWVG29P+JW", "compound_code": "G29P+JW Gurugram, Haryana, India"}, "vicinity": "951, Major Sushil Aima Marg, Sector 1, Palam Vihar, Gurugram", "photos": [{"photo_reference": "ATtYBwIzvla3SVRS4__t-UnondFN1qztRvlfR9RTN9xdmnheXlZikP4n_R7812M4sS2jgClVKkHlpKY-iRtRSJ7d_zQnX9aAx5pG5XvUorX5QBV5podXRDSspUm-CSFqlzaLZpwndbwsnPTBqKljAexje3sdkY7DMhyT2uchYGYD5CrhrEko", "width": 1170, "html_attributions": ["<a href=\"https://maps.google.com/maps/contrib/110567018703439251767\">DPSG Palam Vihar - Best CBSE School Near Dwarka Expressway, Sec 21, 23 Gurgaon</a>"], "height": 580}], "scope": "GOOGLE", "business_status": "OPERATIONAL", "types": ["school", "point_of_interest", "establishment"], "icon": "https://maps.gstatic.com/mapfiles/place_api/icons/v1/png_71/school-71.png"}, {"rating": 4.5, "user_ratings_total": 12, "name": "Dance Guitar Keyboard Classes Gurgaon", "reference": "ChIJsXMkmIYZDTkRp8Wbcg3BwrU", "geometry": {"location": {"lat": 28.5152189, "lng": 77.0502772}, "viewport": {"northeast": {"lat": 28.5165575302915, "lng": 77.05162068029149}, "southwest": {"lat": 28.5138595697085, "lng": 77.04892271970849}}}, "opening_hours": {"open_now": false}, "place_id": "ChIJsXMkmIYZDTkRp8Wbcg3BwrU", "plus_code": {"global_code": "7JWVG382+34", "compound_code": "G382+34 Gurugram, Haryana, India"}, "vicinity": "Near Sector 23 Market, Opp. Swiss Cottage School, Gurugram", "photos": [{"photo_reference": "ATtYBwLXOWvrUCNdO0KcDlalzdfpvhpj6FUh65Eu_nhJ960OWwBKGgo1aCFI1d8NaifzGolR5goc9pYuY8SuaFl0Mnf4Ua1jN9q7DoL3akCsBSkrh0XQh3CU1bn9o8iwbK670pYs6W75BBh4OKahXk56Rv7axZGy_C7cZwPB77OEbF8i0HI_", "width": 5472, "html_attributions": ["<a href=\"https://maps.google.com/maps/contrib/112090682637430119440\">Dance Guitar Keyboard Classes Gurgaon</a>"], "height": 3072}], "scope": "GOOGLE", "business_status": "OPERATIONAL", "types": ["electronics_store", "home_goods_store", "school", "point_of_interest", "store", "establishment"], "icon": "https://maps.gstatic.com/mapfiles/place_api/icons/v1/png_71/school-71.png"}, {"rating": 5, "user_ratings_total": 1, "permanently_closed": true, "name": "KIDZ TIME SCHOOL", "reference": "ChIJtSpyjCEaDTkRiMGC7i_p3PA", "geometry": {"location": {"lat": 28.5194808, "lng": 77.03511619999999}, "viewport": {"northeast": {"lat": 28.5208175802915, "lng": 77.0364595302915}, "southwest": {"lat": 28.5181196197085, "lng": 77.03376156970849}}}, "place_id": "ChIJtSpyjCEaDTkRiMGC7i_p3PA", "plus_code": {"global_code": "7JWVG29P+Q2", "compound_code": "G29P+Q2 Gurugram, Haryana, India"}, "vicinity": "A-46, Sai Kunj, Block D, New Palam Vihar Phase 3, Sector 110A, Gurugram", "photos": [{"photo_reference": "ATtYBwKE3OaTwl0cqT118nFJJadMpuGu_DLAfX4I6JYDItInpKfW2tPMRUhOnmGu4xuD6nyKkQC6t1h3K0n-VVlI8-c3tIqesHZ98C2TRXrm3idaWIctPOJuAG8-huM79_7eTRRPzTEYd7L-owRw2QlKAMBtgVXmTGilr9d_oF4hnitIBBWy", "width": 4096, "html_attributions": ["<a href=\"https://maps.google.com/maps/contrib/101162696644499087837\">Manoj Nayak</a>"], "height": 2304}], "scope": "GOOGLE", "business_status": "CLOSED_TEMPORARILY", "types": ["school", "point_of_interest", "establishment"], "icon": "https://maps.gstatic.com/mapfiles/place_api/icons/v1/png_71/school-71.png"}, {"rating": 4.2, "user_ratings_total": 96, "name": "Swiss Cottage School", "reference": "ChIJw5xuXYoZDTkRt5Cl6trvIlI", "geometry": {"location": {"lat": 28.5157786, "lng": 77.0502157}, "viewport": {"northeast": {"lat": 28.5170722802915, "lng": 77.0515419802915}, "southwest": {"lat": 28.5143743197085, "lng": 77.0488440197085}}}, "opening_hours": {"open_now": false}, "place_id": "ChIJw5xuXYoZDTkRt5Cl6trvIlI", "plus_code": {"global_code": "7JWVG382+83", "compound_code": "G382+83 New Delhi, Delhi, India"}, "vicinity": "Swiss Cottage School opposite sector 23 gurgaon, Bijwasan, New Delhi", "photos": [{"photo_reference": "ATtYBwJonDLv66PFnNPs_SK6jerzZ3Srw9_kz_XQroBXuVkgS2fJOzSL9AEwFeC4772p7vpMZiOpDtERAMYsTsqr2JXGF3o01K0FmvWGHtzb7gjFgIkuzxomfvE7qWQ_gUa9_RHpX0fk1URfmSiPZzTNlM_Sq0du2fL3VaYguDt-VKiDmtpE", "width": 1152, "html_attributions": ["<a href=\"https://maps.google.com/maps/contrib/102857460045650959576\">Swiss Cottage School</a>"], "height": 864}], "scope": "GOOGLE", "business_status": "OPERATIONAL", "types": ["school", "point_of_interest", "establishment"], "icon": "https://maps.gstatic.com/mapfiles/place_api/icons/v1/png_71/school-71.png"}, {"rating": 5, "user_ratings_total": 1, "permanently_closed": true, "name": "The tree House Playgroup Nursery & Daycare", "reference": "ChIJp6qqqvYZDTkR2qTWijoCn3Q", "geometry": {"location": {"lat": 28.507656, "lng": 77.02766}, "viewport": {"northeast": {"lat": 28.5090550802915, "lng": 77.0290097802915}, "southwest": {"lat": 28.5063571197085, "lng": 77.0263118197085}}}, "place_id": "ChIJp6qqqvYZDTkR2qTWijoCn3Q", "vicinity": "Khewat/ khata no.3414/3742 Mustatil no.37, Killa no.2/1/1/1 ground floor choma, Palamvihar, Gurgoan", "photos": [{"photo_reference": "ATtYBwLYs_cobG3W-AczdzvSUNztQ7i8mJEGS_wtJN2dz0nIGHp8MsjqxpfswrRMUl125YHgQPolOsCLdJXxwCTaj0qqIBGV5lIgMfg1CBXIJvQAQPoqTTexfdDL9S_hHjFtcEVXVmIJHJHpxF4nMmhCERPGJBUhe4vYDDBHsPOCejouujT9", "width": 1635, "html_attributions": ["<a href=\"https://maps.google.com/maps/contrib/108977912650639256957\">The tree House Playgroup Nursery &amp; Daycare</a>"], "height": 919}], "scope": "GOOGLE", "business_status": "CLOSED_TEMPORARILY", "types": ["school", "point_of_interest", "establishment"], "icon": "https://maps.gstatic.com/mapfiles/place_api/icons/v1/png_71/school-71.png"}, {"permanently_closed": true, "name": "Zakke International Education Provider", "reference": "ChIJZc6zJDEYDTkRCQedP6CMHcU", "geometry": {"location": {"lat": 28.5076558, "lng": 77.02766}, "viewport": {"northeast": {"lat": 28.50905498029151, "lng": 77.0290097802915}, "southwest": {"lat": 28.5063570197085, "lng": 77.0263118197085}}}, "place_id": "ChIJZc6zJDEYDTkRCQedP6CMHcU", "vicinity": "India", "scope": "GOOGLE", "business_status": "CLOSED_TEMPORARILY", "types": ["school", "point_of_interest", "establishment"], "icon": "https://maps.gstatic.com/mapfiles/place_api/icons/v1/png_71/school-71.png"}, {"rating": 3, "user_ratings_total": 2, "permanently_closed": true, "name": "Vidya Niketan", "reference": "ChIJT-DEqvYZDTkR5EQHHcfOyXI", "geometry": {"location": {"lat": 28.5076921, "lng": 77.02753659999999}, "viewport": {"northeast": {"lat": 28.5089929302915, "lng": 77.0287287302915}, "southwest": {"lat": 28.5062949697085, "lng": 77.02603076970848}}}, "place_id": "ChIJT-DEqvYZDTkR5EQHHcfOyXI", "plus_code": {"global_code": "7JWVG25H+32", "compound_code": "G25H+32 Gurugram, Haryana, India"}, "vicinity": "1833, Bajghera Road, Block J, Sector 2, Palam Vihar, Gurugram", "photos": [{"photo_reference": "ATtYBwLygytVqGW_0HfSboKW3ETwFbHMKEaWdnAbPGpyLXIxL_FnfKBkLKls7WCU7nS5lrKerY8f_QwdmR72UrO4CwUVMZ4FfbdPXyNuVaMz6B-iIlCZEqdOet5GMKF3b0SNvYPVzRrQAqCk7uX5-MCkMKSj0E0S5J5mBmSATkszVHpg0uN4", "width": 4160, "html_attributions": ["<a href=\"https://maps.google.com/maps/contrib/117525948294185054310\">zuzar padghawala</a>"], "height": 3120}], "scope": "GOOGLE", "business_status": "CLOSED_TEMPORARILY", "types": ["school", "point_of_interest", "establishment"], "icon": "https://maps.gstatic.com/mapfiles/place_api/icons/v1/png_71/school-71.png"}, {"rating": 4, "user_ratings_total": 62, "name": "Presidium School", "reference": "ChIJezzGa_IZDTkRzgB0-m1obXU", "geometry": {"location": {"lat": 28.5032002, "lng": 77.029714}, "viewport": {"northeast": {"lat": 28.5045520302915, "lng": 77.0312138802915}, "southwest": {"lat": 28.5018540697085, "lng": 77.02851591970848}}}, "opening_hours": {"open_now": false}, "place_id": "ChIJezzGa_IZDTkRzgB0-m1obXU", "plus_code": {"global_code": "7JWVG23H+7V", "compound_code": "G23H+7V Gurugram, Haryana, India"}, "vicinity": "Near Spanish Court Pocket C Krishna Chowk B &, Block C, Gurugram", "photos": [{"photo_reference": "ATtYBwL-CYbf30YwUaZAN5Xf_Dk2pdMioGnQafDuWi15OagRXMDoL3X7CxLQ8Yn7R0KyKxILPXqoDyhTns8WJN38BfMkzNu_rYfb_b0Hv36X_MQ9NJJKpilVEbLjzGMjh3CjcZ4CmI052XRZ1qQOnb7PMPNKC4HovC87n6COuZUXHVCyJZm2", "width": 1024, "html_attributions": ["<a href=\"https://maps.google.com/maps/contrib/106916421348360652165\">Presidium School</a>"], "height": 684}], "scope": "GOOGLE", "business_status": "OPERATIONAL", "types": ["school", "primary_school", "secondary_school", "point_of_interest", "establishment"], "icon": "https://maps.gstatic.com/mapfiles/place_api/icons/v1/png_71/school-71.png"}, {"rating": 5, "user_ratings_total": 1, "permanently_closed": true, "name": "IELTS guroo", "reference": "ChIJf2FNpoMZDTkRT-WCXbJa5Dk", "geometry": {"location": {"lat": 28.5073923, "lng": 77.05271429999999}, "viewport": {"northeast": {"lat": 28.5087580802915, "lng": 77.05404498029151}, "southwest": {"lat": 28.5060601197085, "lng": 77.0513470197085}}}, "place_id": "ChIJf2FNpoMZDTkRT-WCXbJa5Dk", "plus_code": {"global_code": "7JWVG343+X3", "compound_code": "G343+X3 Gurugram, Haryana, India"}, "vicinity": "4363, Gate Number 1 Sector 23 Road, Sector 23, Gurugram", "scope": "GOOGLE", "business_status": "CLOSED_TEMPORARILY", "types": ["school", "point_of_interest", "establishment"], "icon": "https://maps.gstatic.com/mapfiles/place_api/icons/v1/png_71/school-71.png"}, {"rating": 3, "user_ratings_total": 1, "permanently_closed": true, "name": "GRM Public School", "reference": "ChIJ-5Vda_IZDTkRS9y2mBX3pWM", "geometry": {"location": {"lat": 28.5031679, "lng": 77.029212}, "viewport": {"northeast": {"lat": 28.5044353302915, "lng": 77.0302601802915}, "southwest": {"lat": 28.5017373697085, "lng": 77.02756221970849}}}, "place_id": "ChIJ-5Vda_IZDTkRS9y2mBX3pWM", "plus_code": {"global_code": "7JWVG23H+7M", "compound_code": "G23H+7M Gurugram, Haryana, India"}, "vicinity": "1528 A, Bajghera Road, Block J, Sector 2, Palam Vihar, Gurugram", "scope": "GOOGLE", "business_status": "CLOSED_TEMPORARILY", "types": ["school", "point_of_interest", "establishment"], "icon": "https://maps.gstatic.com/mapfiles/place_api/icons/v1/png_71/school-71.png"}, {"rating": 2.8, "user_ratings_total": 4, "permanently_closed": true, "name": "Skylark School Of Business & Technology", "reference": "ChIJxZbcde0ZDTkRCMq1-KjZya8", "geometry": {"location": {"lat": 28.5010965, "lng": 77.03065409999999}, "viewport": {"northeast": {"lat": 28.5023430802915, "lng": 77.0320029302915}, "southwest": {"lat": 28.4996451197085, "lng": 77.02930496970849}}}, "place_id": "ChIJxZbcde0ZDTkRCMq1-KjZya8", "plus_code": {"global_code": "7JWVG22J+C7", "compound_code": "G22J+C7 Gurugram, Haryana, India"}, "vicinity": "319, Palam Vihar Extension, Gurugram", "photos": [{"photo_reference": "ATtYBwJq3Ok0lm3svwa3Sjr-S1uWPlrI-62N4x-D02g7dPylvMlLj0w1tj_8fpL3WebK4jdr5ehPZZ3zi2ZrbcwLNy-M6A_nc0cFT-fkuMgoe_8CfJ0q3uSWSiiykMs-d8A2We1T2Ri4cbOpEvWVL136YzNM0Du0ZyaAQLcycScnW9zKcfJY", "width": 3000, "html_attributions": ["<a href=\"https://maps.google.com/maps/contrib/118005100515508546800\">Nitesh saxena</a>"], "height": 4000}], "scope": "GOOGLE", "business_status": "CLOSED_TEMPORARILY", "types": ["school", "point_of_interest", "establishment"], "icon": "https://maps.gstatic.com/mapfiles/place_api/icons/v1/png_71/school-71.png"}, {"permanently_closed": true, "name": "Scholab", "reference": "ChIJJX0l7_YZDTkRhQAVEQO2QRw", "geometry": {"location": {"lat": 28.5092987, "lng": 77.02564439999999}, "viewport": {"northeast": {"lat": 28.5106127802915, "lng": 77.02703163029149}, "southwest": {"lat": 28.5079148197085, "lng": 77.02433366970848}}}, "place_id": "ChIJJX0l7_YZDTkRhQAVEQO2QRw", "plus_code": {"global_code": "7JWVG25G+P7", "compound_code": "G25G+P7 Gurugram, Haryana, India"}, "vicinity": "A-96, Near Bajghera Chowk, New Palam Vihar, Block T, Sector 109, Gurugram", "scope": "GOOGLE", "business_status": "CLOSED_TEMPORARILY", "types": ["school", "point_of_interest", "establishment"], "icon": "https://maps.gstatic.com/mapfiles/place_api/icons/v1/png_71/school-71.png"}, {"permanently_closed": true, "name": "School Ground", "reference": "ChIJv_VpSIkZDTkRsnJ4RWv4G5w", "geometry": {"location": {"lat": 28.5093787, "lng": 77.0405135}, "viewport": {"northeast": {"lat": 28.5106540802915, "lng": 77.04179873029152}, "southwest": {"lat": 28.50795611970849, "lng": 77.0391007697085}}}, "place_id": "ChIJv_VpSIkZDTkRsnJ4RWv4G5w", "plus_code": {"global_code": "7JWVG25R+Q6", "compound_code": "G25R+Q6 Choma, India"}, "vicinity": "Pocket F, Sector 2, Palam Vihar, Choma", "scope": "GOOGLE", "business_status": "CLOSED_TEMPORARILY", "types": ["school", "point_of_interest", "establishment"], "icon": "https://maps.gstatic.com/mapfiles/place_api/icons/v1/png_71/school-71.png"}, {"rating": 3.5, "user_ratings_total": 2, "name": "DPSG Starz Pre School", "reference": "ChIJlQfZMJQZDTkRshbmGjDxlHg", "geometry": {"location": {"lat": 28.509319, "lng": 77.04075019999999}, "viewport": {"northeast": {"lat": 28.5106117302915, "lng": 77.0421881302915}, "southwest": {"lat": 28.50791376970849, "lng": 77.03949016970849}}}, "place_id": "ChIJlQfZMJQZDTkRshbmGjDxlHg", "plus_code": {"global_code": "7JWVG25R+P8", "compound_code": "G25R+P8 Choma, India"}, "vicinity": "Opp. Caterpuri, Village, Block-1, Palam Vihar, Choma", "photos": [{"photo_reference": "ATtYBwIOvgfCiO_6nUX8FPeVH6jYv9Q894_nEqaar19cnwVIdoYnOJWrOfOKfTLcM40vhRTN0RUhPLm0iu34mJQyRo5rRp1Z0J0cWtMUUbgMTUTWQ-hqamNi62_UBatt_ZD0s1mNmP6-3jQonRzxjCuuIpRl9AhD_7BsnlbGi3QgJGJrkLSk", "width": 1017, "html_attributions": ["<a href=\"https://maps.google.com/maps/contrib/104117925548130507101\">Justin Snyder</a>"], "height": 915}], "scope": "GOOGLE", "business_status": "OPERATIONAL", "types": ["school", "point_of_interest", "establishment"], "icon": "https://maps.gstatic.com/mapfiles/place_api/icons/v1/png_71/school-71.png"}, {"permanently_closed": true, "name": "DPSG F Block", "reference": "ChIJf9fQrjIZDTkR6KCkqMzq2BI", "geometry": {"location": {"lat": 28.5103018, "lng": 77.04182630000001}, "viewport": {"northeast": {"lat": 28.5116203302915, "lng": 77.0431844302915}, "southwest": {"lat": 28.5089223697085, "lng": 77.0404864697085}}}, "place_id": "ChIJf9fQrjIZDTkR6KCkqMzq2BI", "plus_code": {"global_code": "7JWVG26R+4P", "compound_code": "G26R+4P Block F, Carterpuri Village, Sector 23A, Gurugram, Haryana, India"}, "vicinity": "DPSG, near, Rezang La Chowk, Block F", "scope": "GOOGLE", "business_status": "CLOSED_TEMPORARILY", "types": ["school", "point_of_interest", "establishment"], "icon": "https://maps.gstatic.com/mapfiles/place_api/icons/v1/png_71/school-71.png"}, {"name": "Nursery Schools in Gurgaon", "reference": "ChIJW-U1LI8ZDTkRr1nak40RdtE", "geometry": {"location": {"lat": 28.508824, "lng": 77.042574}, "viewport": {"northeast": {"lat": 28.5102051802915, "lng": 77.0439384802915}, "southwest": {"lat": 28.5075072197085, "lng": 77.0412405197085}}}, "opening_hours": {"open_now": false}, "place_id": "ChIJW-U1LI8ZDTkRr1nak40RdtE", "plus_code": {"global_code": "7JWVG25V+G2", "compound_code": "G25V+G2 Gurugram, Haryana, India"}, "vicinity": "To, Charu Grover H Block, House No. 544 ,, Palam Vihar, Near Ram Mandir, Gurugram", "photos": [{"photo_reference": "ATtYBwLKGnbOwikBOSh9NDCzVk0BQIH1-IbBM8G26TQUpWTtf4QWs8T8JGIwDPIxIbv35AMvdyK74t4KVIoVEb9OPE6M6u0L30_bYSGxFyeYHGG8Fv25tNIKh8y5HHxk8F66BqMooRHafYaQEAy2Co01HviAtRDca9WYt9q0E3fWSITJsesK", "width": 600, "html_attributions": ["<a href=\"https://maps.google.com/maps/contrib/101382524057310875132\">Nursery Schools in Gurgaon</a>"], "height": 600}], "scope": "GOOGLE", "business_status": "OPERATIONAL", "types": ["school", "point_of_interest", "establishment"], "icon": "https://maps.gstatic.com/mapfiles/place_api/icons/v1/png_71/school-71.png"}, {"rating": 5, "user_ratings_total": 9, "permanently_closed": true, "name": "Discovery Montessori Preschool, USA Palam Vihar, Gurugram", "reference": "ChIJuWktY8YZDTkRP25zzrgMM3w", "geometry": {"location": {"lat": 28.5116754, "lng": 77.04219119999999}, "viewport": {"northeast": {"lat": 28.5129866302915, "lng": 77.04362653029149}, "southwest": {"lat": 28.51028866970849, "lng": 77.04092856970848}}}, "place_id": "ChIJuWktY8YZDTkRP25zzrgMM3w", "plus_code": {"global_code": "7JWVG26R+MV", "compound_code": "G26R+MV Gurugram, Haryana, India"}, "vicinity": "H-343, B-1, Floor, Palam Vihar, Gurugram", "photos": [{"photo_reference": "ATtYBwK7cqjNXY2UmCxMazEek4zX5j5c9snzQ0Pru9DkGpxcHzcSBFbAzNwZptmd9ML1IpI4vbwVVlKn8rhQbavfVvN_2vGqkn8XtkBPCILbO8JJ1T-3firzfgZXuV0T3SgSmLFkHnYc4UeBKSWAXI_SNlK39z3cfyjW2xIx3Z8-26MPhu-W", "width": 1237, "html_attributions": ["<a href=\"https://maps.google.com/maps/contrib/117549653574423614588\">Discovery Montessori Preschool, USA Palam Vihar, Gurugram</a>"], "height": 696}], "scope": "GOOGLE", "business_status": "CLOSED_TEMPORARILY", "types": ["school", "point_of_interest", "establishment"], "icon": "https://maps.gstatic.com/mapfiles/place_api/icons/v1/png_71/school-71.png"}, {"rating": 5, "user_ratings_total": 1, "permanently_closed": true, "name": "Master Deep Chand Marg Carterpuri", "reference": "ChIJlYzjHFUZDTkRC6SEGaF3Q1M", "geometry": {"location": {"lat": 28.509665, "lng": 77.0429095}, "viewport": {"northeast": {"lat": 28.5110065802915, "lng": 77.0442772302915}, "southwest": {"lat": 28.5083086197085, "lng": 77.04157926970849}}}, "place_id": "ChIJlYzjHFUZDTkRC6SEGaF3Q1M", "plus_code": {"global_code": "7JWVG25V+V5", "compound_code": "G25V+V5 Gurugram, Haryana, India"}, "vicinity": "Unnamed Road, Block F, \u0915\u093e\u0930\u094d\u091f\u0930\u092a\u0941\u0930\u0940 \u0917\u093e\u0901\u0935, Sector 23A, \u0917\u0941\u0930\u0941\u0917\u094d\u0930\u093e\u092e", "scope": "GOOGLE", "business_status": "CLOSED_TEMPORARILY", "types": ["school", "point_of_interest", "establishment"], "icon": "https://maps.gstatic.com/mapfiles/place_api/icons/v1/png_71/school-71.png"}, {"rating": 5, "user_ratings_total": 1, "permanently_closed": true, "name": "Inder Dev Public School", "reference": "ChIJCyNSg_4ZDTkRDBc5i_VXhgs", "geometry": {"location": {"lat": 28.5072914, "lng": 77.03931779999999}, "viewport": {"northeast": {"lat": 28.5086214302915, "lng": 77.0406953802915}, "southwest": {"lat": 28.5059234697085, "lng": 77.03799741970849}}}, "place_id": "ChIJCyNSg_4ZDTkRDBc5i_VXhgs", "plus_code": {"global_code": "7JWVG24Q+WP", "compound_code": "G24Q+WP Gurugram, Haryana, India"}, "vicinity": "main 121 ft road oppsite to, Carterpuri Road, gaoushala, Ashok Vihar Phase III Extension, Gurugram", "photos": [{"photo_reference": "ATtYBwKGjesCjsi3DIRWgzF3OAHxQm5U21tT2Ei26AvITlbijVAOX8kao6vkYKVRZJfpGMXIOmNo4K1pwpzaD6lr8SeCpTA7n7yD_tjW_JKLpq3G5R8N88A3eSr8n2Ex0g_FIHaG6GSN6QNmz0wmoVJnR3qLn2-2rkjF_h2wtLmH5OnBk5t8", "width": 1280, "html_attributions": ["<a href=\"https://maps.google.com/maps/contrib/112721545159524752204\">Inder Dev Public School</a>"], "height": 590}], "scope": "GOOGLE", "business_status": "CLOSED_TEMPORARILY", "types": ["school", "point_of_interest", "establishment"], "icon": "https://maps.gstatic.com/mapfiles/place_api/icons/v1/png_71/school-71.png"}]}