{"status": "OK", "html_attributions": [], "results": [{"rating": 3.7, "user_ratings_total": 3, "permanently_closed": true, "name": "MCD Boys Primary school", "reference": "ChIJK-ZTZiKoDTkRnme_1-0MfSE", "geometry": {"location": {"lat": 28.7971912, "lng": 77.03467730000001}, "viewport": {"northeast": {"lat": 28.7987465802915, "lng": 77.03606138029151}, "southwest": {"lat": 28.7960486197085, "lng": 77.0333634197085}}}, "place_id": "ChIJK-ZTZiKoDTkRnme_1-0MfSE", "plus_code": {"global_code": "7JWVQ2WM+VV", "compound_code": "Q2WM+VV Delhi, India"}, "vicinity": "Major District Road 138, Ishwar Colony, Bawana, Delhi", "scope": "GOOGLE", "business_status": "CLOSED_TEMPORARILY", "types": ["school", "point_of_interest", "establishment"], "icon": "https://maps.gstatic.com/mapfiles/place_api/icons/v1/png_71/school-71.png"}, {"permanently_closed": true, "name": "ART Colour Industries", "reference": "ChIJqxHcGk-pDTkRaf8wqlTET7g", "geometry": {"location": {"lat": 28.7944904, "lng": 77.048352}, "viewport": {"northeast": {"lat": 28.79586953029149, "lng": 77.0496614802915}, "southwest": {"lat": 28.79317156970849, "lng": 77.0469635197085}}}, "place_id": "ChIJqxHcGk-pDTkRaf8wqlTET7g", "plus_code": {"global_code": "7JWVQ2VX+Q8", "compound_code": "Q2VX+Q8 Bawana, New Delhi, Delhi, India"}, "vicinity": "g102, Bawana Industrial Area, Sector 2, Bawana", "scope": "GOOGLE", "business_status": "CLOSED_TEMPORARILY", "types": ["school", "point_of_interest", "establishment"], "icon": "https://maps.gstatic.com/mapfiles/place_api/icons/v1/png_71/school-71.png"}, {"permanently_closed": true, "name": "MCP Girls Bawana Old", "reference": "ChIJX70QZSKoDTkRTlLe81VKW7k", "geometry": {"location": {"lat": 28.7971024, "lng": 77.0342556}, "viewport": {"northeast": {"lat": 28.7987355302915, "lng": 77.0356791302915}, "southwest": {"lat": 28.79603756970851, "lng": 77.03298116970849}}}, "place_id": "ChIJX70QZSKoDTkRTlLe81VKW7k", "plus_code": {"global_code": "7JWVQ2WM+RP", "compound_code": "Q2WM+RP Delhi, India"}, "vicinity": "Doctor Sahib Singh Verma Marg, Ishwar Colony, Bawana, Delhi", "scope": "GOOGLE", "business_status": "CLOSED_TEMPORARILY", "types": ["school", "point_of_interest", "establishment"], "icon": "https://maps.gstatic.com/mapfiles/place_api/icons/v1/png_71/school-71.png"}, {"permanently_closed": true, "name": "Akash", "reference": "ChIJOQnDkGmpDTkRbTxeCFo7dV8", "geometry": {"location": {"lat": 28.7965949, "lng": 77.0465033}, "viewport": {"northeast": {"lat": 28.79791723029149, "lng": 77.0478843802915}, "southwest": {"lat": 28.7952192697085, "lng": 77.04518641970849}}}, "place_id": "ChIJOQnDkGmpDTkRbTxeCFo7dV8", "plus_code": {"global_code": "7JWVQ2WW+JJ", "compound_code": "Q2WW+JJ Delhi, India"}, "vicinity": "F-133, Bawana Industrial Area, Sector 2, Bawana, Delhi", "photos": [{"photo_reference": "ATtYBwKGKBFSyeNIWrwiCjU3Ny4blkLncVJtq4bGR-x7JR6e6pTRDcqiTWrxXbsA-5DwGQNrqljK-q-e05eOcEDeMLO0Re62JXStwq4iH96QYq8kZAY23GIVqh1skqmMsYEDil-CfjlZJgFNmF-aQJJStecKhNJ05CzdnF_ZW84lMYSRjR9K", "width": 720, "html_attributions": ["<a href=\"https://maps.google.com/maps/contrib/106149329619138077322\">Akash Saxena</a>"], "height": 1280}], "scope": "GOOGLE", "business_status": "CLOSED_TEMPORARILY", "types": ["school", "point_of_interest", "establishment"], "icon": "https://maps.gstatic.com/mapfiles/place_api/icons/v1/png_71/school-71.png"}, {"permanently_closed": true, "name": "Pramod rajput", "reference": "ChIJeQXqzu-pDTkRM7zBgFYEK2I", "geometry": {"location": {"lat": 28.7983779, "lng": 77.0372617}, "viewport": {"northeast": {"lat": 28.7996963802915, "lng": 77.0386144802915}, "southwest": {"lat": 28.7969984197085, "lng": 77.0359165197085}}}, "place_id": "ChIJeQXqzu-pDTkRM7zBgFYEK2I", "plus_code": {"global_code": "7JWVQ2XP+9W", "compound_code": "Q2XP+9W Delhi, India"}, "vicinity": "Vijay Colony, Vijay Nagar, Bawana, Delhi", "photos": [{"photo_reference": "ATtYBwJzzO0ZuZIqWyx2lSyj9k8GaRoHcaH9eq3G7NGXlf8TWWZ7-615K7G6R_keqw0FMGoGjx7cwR4Z_-OdLoj1a37mqkB5tYR65TMFCdSf7b3RWiYSn9hV1GC0-7I2pZ5OPVX-9OV6Pb0DQxUF09AjJMWpBJPP9wroMyxrRMztpnvFsfho", "width": 4032, "html_attributions": ["<a href=\"https://maps.google.com/maps/contrib/108429849679785567102\">Pramod Rajput</a>"], "height": 3016}], "scope": "GOOGLE", "business_status": "CLOSED_TEMPORARILY", "types": ["school", "point_of_interest", "establishment"], "icon": "https://maps.gstatic.com/mapfiles/place_api/icons/v1/png_71/school-71.png"}, {"name": "Md. Ali", "reference": "ChIJQwBZNiIHDTkRqOWkt3P7lZg", "geometry": {"location": {"lat": 28.7897163, "lng": 77.05000009999999}, "viewport": {"northeast": {"lat": 28.7910444302915, "lng": 77.05132663029151}, "southwest": {"lat": 28.7883464697085, "lng": 77.04862866970849}}}, "place_id": "ChIJQwBZNiIHDTkRqOWkt3P7lZg", "plus_code": {"global_code": "7JWVQ3Q2+V2", "compound_code": "Q3Q2+V2 Delhi, India"}, "vicinity": "Bawana Industrial Area, Sector 1, Bawana, Delhi", "scope": "GOOGLE", "business_status": "OPERATIONAL", "types": ["school", "point_of_interest", "establishment"], "icon": "https://maps.gstatic.com/mapfiles/place_api/icons/v1/png_71/school-71.png"}, {"name": "PSSR", "reference": "ChIJ961MEQSpDTkRFnbwLeJd8vc", "geometry": {"location": {"lat": 28.7943138, "lng": 77.0312773}, "viewport": {"northeast": {"lat": 28.79573573029149, "lng": 77.03262883029151}, "southwest": {"lat": 28.7930377697085, "lng": 77.0299308697085}}}, "place_id": "ChIJ961MEQSpDTkRFnbwLeJd8vc", "plus_code": {"global_code": "7JWVQ2VJ+PG", "compound_code": "Q2VJ+PG Delhi, India"}, "vicinity": "Unnamed Road, Ishwar Colony, Bawana, Delhi", "scope": "GOOGLE", "business_status": "OPERATIONAL", "types": ["school", "point_of_interest", "establishment"], "icon": "https://maps.gstatic.com/mapfiles/place_api/icons/v1/png_71/school-71.png"}, {"name": "PSSR", "reference": "ChIJeVLtwoipDTkRdBEsyxRJEJA", "geometry": {"location": {"lat": 28.794335, "lng": 77.031284}, "viewport": {"northeast": {"lat": 28.7957462302915, "lng": 77.0326351802915}, "southwest": {"lat": 28.7930482697085, "lng": 77.02993721970849}}}, "place_id": "ChIJeVLtwoipDTkRdBEsyxRJEJA", "plus_code": {"global_code": "7JWVQ2VJ+PG", "compound_code": "Q2VJ+PG Delhi, India"}, "vicinity": "Ishwar Colony, Bawana, Delhi", "scope": "GOOGLE", "business_status": "OPERATIONAL", "types": ["school", "point_of_interest", "establishment"], "icon": "https://maps.gstatic.com/mapfiles/place_api/icons/v1/png_71/school-71.png"}, {"permanently_closed": true, "name": "Municipal Primary School, Bawana", "reference": "ChIJ5UtIKoKpDTkR_7qmn5mClmc", "geometry": {"location": {"lat": 28.79765340000001, "lng": 77.0348789}, "viewport": {"northeast": {"lat": 28.7990245302915, "lng": 77.0362311302915}, "southwest": {"lat": 28.7963265697085, "lng": 77.03353316970849}}}, "place_id": "ChIJ5UtIKoKpDTkR_7qmn5mClmc", "plus_code": {"global_code": "7JWVQ2XM+3X", "compound_code": "Q2XM+3X Delhi, India"}, "vicinity": "Doctor Sahib Singh Verma Marg, Ishwar Colony, Bawana, Delhi", "scope": "GOOGLE", "business_status": "CLOSED_TEMPORARILY", "types": ["school", "point_of_interest", "establishment"], "icon": "https://maps.gstatic.com/mapfiles/place_api/icons/v1/png_71/school-71.png"}, {"permanently_closed": true, "name": "Saraswati Modern PS", "reference": "ChIJ____byOoDTkRlpF-i5gJeIY", "geometry": {"location": {"lat": 28.7988109, "lng": 77.0384557}, "viewport": {"northeast": {"lat": 28.8001618802915, "lng": 77.03987083029149}, "southwest": {"lat": 28.7974639197085, "lng": 77.03717286970848}}}, "place_id": "ChIJ____byOoDTkRlpF-i5gJeIY", "plus_code": {"global_code": "7JWVQ2XQ+G9", "compound_code": "Q2XQ+G9 Delhi, India"}, "vicinity": "Vijay Colony, Kartar Nagar, Bawana, Delhi", "scope": "GOOGLE", "business_status": "CLOSED_TEMPORARILY", "types": ["school", "point_of_interest", "establishment"], "icon": "https://maps.gstatic.com/mapfiles/place_api/icons/v1/png_71/school-71.png"}, {"permanently_closed": true, "name": "New Usmanpur-Vijay Jyoti Middle School", "reference": "ChIJ____byOoDTkRzMT4NgKjhkk", "geometry": {"location": {"lat": 28.7988109, "lng": 77.0384557}, "viewport": {"northeast": {"lat": 28.8001618802915, "lng": 77.03987083029149}, "southwest": {"lat": 28.7974639197085, "lng": 77.03717286970848}}}, "place_id": "ChIJ____byOoDTkRzMT4NgKjhkk", "plus_code": {"global_code": "7JWVQ2XQ+G9", "compound_code": "Q2XQ+G9 Delhi, India"}, "vicinity": "B, 7, Gali Number 1, G Block, Vijay Colony, Vijay Nagar, Bawana, Delhi", "scope": "GOOGLE", "business_status": "CLOSED_TEMPORARILY", "types": ["secondary_school", "school", "point_of_interest", "establishment"], "icon": "https://maps.gstatic.com/mapfiles/place_api/icons/v1/png_71/school-71.png"}, {"rating": 3.8, "user_ratings_total": 15, "name": "Shanti Vidya Niketan School", "reference": "ChIJ3XpmJx-oDTkRkVao4L_Ov2Y", "geometry": {"location": {"lat": 28.7934409, "lng": 77.0305709}, "viewport": {"northeast": {"lat": 28.7947734802915, "lng": 77.03191943029151}, "southwest": {"lat": 28.7920755197085, "lng": 77.0292214697085}}}, "place_id": "ChIJ3XpmJx-oDTkRkVao4L_Ov2Y", "plus_code": {"global_code": "7JWVQ2VJ+96", "compound_code": "Q2VJ+96 Delhi, India"}, "vicinity": "Ishwar Colony, Bawana, Delhi", "photos": [{"photo_reference": "ATtYBwIx_GyYvWNjZHVFUad-NTNg_LUqQ4znA28eVqk4a26DR-TYD0mjCZl_tSDTY3JXCGYxHePtyElRY1LlAGjnVfOFCB_G0VYEmYyBr1_9CccNZRkg6hoMTLQF3pry5Prf0NK4WPUkzY4L22LTq6lR0g8Ia0iApc3ussj_WIdOUyjzB7bO", "width": 4032, "html_attributions": ["<a href=\"https://maps.google.com/maps/contrib/111940192208196378189\">navneet vashist</a>"], "height": 3024}], "scope": "GOOGLE", "business_status": "OPERATIONAL", "types": ["school", "point_of_interest", "establishment"], "icon": "https://maps.gstatic.com/mapfiles/place_api/icons/v1/png_71/school-71.png"}, {"rating": 3.8, "user_ratings_total": 6, "permanently_closed": true, "name": "Anand memorial school", "reference": "ChIJb_a7KR-oDTkRJP6fiN6-hak", "geometry": {"location": {"lat": 28.7940041, "lng": 77.0306554}, "viewport": {"northeast": {"lat": 28.7953851802915, "lng": 77.0319330302915}, "southwest": {"lat": 28.7926872197085, "lng": 77.02923506970849}}}, "place_id": "ChIJb_a7KR-oDTkRJP6fiN6-hak", "plus_code": {"global_code": "7JWVQ2VJ+J7", "compound_code": "Q2VJ+J7 Delhi, India"}, "vicinity": "Ishwar Colony, Bawana, Delhi", "scope": "GOOGLE", "business_status": "CLOSED_TEMPORARILY", "types": ["school", "point_of_interest", "establishment"], "icon": "https://maps.gstatic.com/mapfiles/place_api/icons/v1/png_71/school-71.png"}, {"permanently_closed": true, "name": "Durga Mata Mamdeer", "reference": "ChIJHVeq3R6oDTkRAEbjlpmdztw", "geometry": {"location": {"lat": 28.7931467, "lng": 77.0300098}, "viewport": {"northeast": {"lat": 28.79451093029149, "lng": 77.0313100802915}, "southwest": {"lat": 28.7918129697085, "lng": 77.0286121197085}}}, "place_id": "ChIJHVeq3R6oDTkRAEbjlpmdztw", "plus_code": {"global_code": "7JWVQ2VJ+72", "compound_code": "Q2VJ+72 Delhi, India"}, "vicinity": "Ishwar Colony, Bawana, Delhi", "scope": "GOOGLE", "business_status": "CLOSED_TEMPORARILY", "types": ["school", "point_of_interest", "establishment"], "icon": "https://maps.gstatic.com/mapfiles/place_api/icons/v1/png_71/school-71.png"}, {"permanently_closed": true, "name": "Sudheer Rajvanshi", "reference": "ChIJkb4ik8kHDTkReawyFpiZV44", "geometry": {"location": {"lat": 28.7906864, "lng": 77.0506077}, "viewport": {"northeast": {"lat": 28.7919859802915, "lng": 77.0520196302915}, "southwest": {"lat": 28.7892880197085, "lng": 77.04932166970849}}}, "place_id": "ChIJkb4ik8kHDTkReawyFpiZV44", "plus_code": {"global_code": "7JWVQ3R2+76", "compound_code": "Q3R2+76 Delhi, India"}, "vicinity": "Delhi", "photos": [{"photo_reference": "ATtYBwID_PJSIOwfd_yUvNX5Y2W6WVaGuptHkqaDfO_Fftl0G1HbSi_dX5mX1cskDJ-3EZfPCrAevdkOmMueTgh9UjsmwZEpe33ga__KBzvqhqmAjNlsTuhjGkZiPFJM2_1rkld5jCn96jnqornSPaR6VFv9_EnzU40VxEzKNvy2Yw0YKaAy", "width": 720, "html_attributions": ["<a href=\"https://maps.google.com/maps/contrib/113107147782474639957\">Sudheer Rajvanshi</a>"], "height": 730}], "scope": "GOOGLE", "business_status": "CLOSED_TEMPORARILY", "types": ["school", "point_of_interest", "establishment"], "icon": "https://maps.gstatic.com/mapfiles/place_api/icons/v1/png_71/school-71.png"}, {"rating": 4.3, "user_ratings_total": 6, "permanently_closed": true, "name": "Dynamic international School", "reference": "ChIJf_hsGiOoDTkRf8ZXdypl-3U", "geometry": {"location": {"lat": 28.7989213, "lng": 77.03695789999999}, "viewport": {"northeast": {"lat": 28.8002763302915, "lng": 77.03830608029149}, "southwest": {"lat": 28.7975783697085, "lng": 77.03560811970848}}}, "place_id": "ChIJf_hsGiOoDTkRf8ZXdypl-3U", "plus_code": {"global_code": "7JWVQ2XP+HQ", "compound_code": "Q2XP+HQ Delhi, India"}, "vicinity": "Vijay Colony, Vijay Nagar, Bawana, Delhi", "scope": "GOOGLE", "business_status": "CLOSED_TEMPORARILY", "types": ["school", "point_of_interest", "establishment"], "icon": "https://maps.gstatic.com/mapfiles/place_api/icons/v1/png_71/school-71.png"}, {"rating": 5, "user_ratings_total": 2, "permanently_closed": true, "name": "B.S Play School", "reference": "ChIJcbgktdGpDTkR6cczawq_WRY", "geometry": {"location": {"lat": 28.7992283, "lng": 77.0415661}, "viewport": {"northeast": {"lat": 28.8006024802915, "lng": 77.04291578029151}, "southwest": {"lat": 28.7979045197085, "lng": 77.04021781970849}}}, "place_id": "ChIJcbgktdGpDTkR6cczawq_WRY", "plus_code": {"global_code": "7JWVQ2XR+MJ", "compound_code": "Q2XR+MJ Delhi, India"}, "vicinity": "Vijay Colony, Vijay Nagar, Bawana, Delhi", "photos": [{"photo_reference": "ATtYBwJixJOo79sWfpMLMIfdW3qx9cHGH8tf4ePsSTKIzf3SO8RaWIlr2SFYUSobrOwFwK56ZXqyN3KEJPUKvwECmT7TdIuFwZSyHVn7oD1fytI_PYg9h_WHA-WbKSMhd1Sz55KEeWy33CNjQ9wsRZNRwF_PU-lIsIIOij2YxFAvw0wIqxAF", "width": 3620, "html_attributions": ["<a href=\"https://maps.google.com/maps/contrib/109039870057778065906\">Ritesh Sehrawat</a>"], "height": 2276}], "scope": "GOOGLE", "business_status": "CLOSED_TEMPORARILY", "types": ["school", "point_of_interest", "establishment"], "icon": "https://maps.gstatic.com/mapfiles/place_api/icons/v1/png_71/school-71.png"}, {"permanently_closed": true, "name": "Phoolwari Children Play School", "reference": "ChIJy-7k5CSoDTkRoAma10eUEgg", "geometry": {"location": {"lat": 28.7992381, "lng": 77.04154419999999}, "viewport": {"northeast": {"lat": 28.8006028802915, "lng": 77.04289358029149}, "southwest": {"lat": 28.7979049197085, "lng": 77.04019561970848}}}, "place_id": "ChIJy-7k5CSoDTkRoAma10eUEgg", "plus_code": {"global_code": "7JWVQ2XR+MJ", "compound_code": "Q2XR+MJ Delhi, India"}, "vicinity": "Vijay Colony, Vijay Nagar, Bawana, Delhi", "scope": "GOOGLE", "business_status": "CLOSED_TEMPORARILY", "types": ["school", "point_of_interest", "establishment"], "icon": "https://maps.gstatic.com/mapfiles/place_api/icons/v1/png_71/school-71.png"}, {"rating": 3, "user_ratings_total": 1, "permanently_closed": true, "name": "Sage Valley", "reference": "ChIJlRuwKh-oDTkRjJOgdq2Evs8", "geometry": {"location": {"lat": 28.7944266, "lng": 77.0305857}, "viewport": {"northeast": {"lat": 28.7957905802915, "lng": 77.0319351302915}, "southwest": {"lat": 28.7930926197085, "lng": 77.02923716970848}}}, "place_id": "ChIJlRuwKh-oDTkRjJOgdq2Evs8", "plus_code": {"global_code": "7JWVQ2VJ+Q6", "compound_code": "Q2VJ+Q6 Delhi, India"}, "vicinity": "Ishwar Colony, Bawana, Delhi", "scope": "GOOGLE", "business_status": "CLOSED_TEMPORARILY", "types": ["school", "point_of_interest", "establishment"], "icon": "https://maps.gstatic.com/mapfiles/place_api/icons/v1/png_71/school-71.png"}, {"permanently_closed": true, "name": "9th,10th maths by amit sir(TMA)", "reference": "ChIJj-298iKoDTkRWpggxiNkzZ4", "geometry": {"location": {"lat": 28.79840720000001, "lng": 77.03494429999999}, "viewport": {"northeast": {"lat": 28.7997562302915, "lng": 77.0363434302915}, "southwest": {"lat": 28.7970582697085, "lng": 77.03364546970849}}}, "place_id": "ChIJj-298iKoDTkRWpggxiNkzZ4", "plus_code": {"global_code": "7JWVQ2XM+9X", "compound_code": "Q2XM+9X Delhi, India"}, "vicinity": "Pana Mojan, Bawana Village, Bawana, Delhi", "scope": "GOOGLE", "business_status": "CLOSED_TEMPORARILY", "types": ["school", "point_of_interest", "establishment"], "icon": "https://maps.gstatic.com/mapfiles/place_api/icons/v1/png_71/school-71.png"}]}