{"status": "OK", "next_page_token": "ATtYBwLcpn4T8_R8ccyKuEHpQeIrn2mQBJlaqWv-r39IUMX-zwYdnd6ic7i-pXOfKC6btY_wMDlgbwEf7M2WiDEgqBX3pmTFZC5FJ417-Hp790YHhFte6ti3LE3hXpmY2v7xZDLccXvw-tyFEec4tv5njScO-nFRTOVMw-FtmRXEK4Qqx5eiiiam0_TzlUoz22PVBwfplxCxpdTg2d2guqrA7bt12R1iW952nVUm88yVS1SFxSQbqu_gqcnoSEC3Yg0_AWRCaNxJELfnWg4w13OgJJDxmC6WXH849OpfIFYpkiaShs0mJvhtdH9SG2qESzr1HHSqN1FE2mAuPmkaKceVeb1wGo3-u7kWFFL7Oq92kE9NVhfp26KM3Yyh_CFDJ1_nI_mOBkut6EyT_dKnWi8DK84_Qh23pnIKEJWtvqMgDE0q2A", "html_attributions": [], "results": [{"rating": 3.7, "user_ratings_total": 395, "name": "Delhi International School Sector 23 Dwarka", "reference": "ChIJPf1nOAAbDTkRDHxoPukzhIc", "geometry": {"location": {"lat": 28.564051, "lng": 77.057636}, "viewport": {"northeast": {"lat": 28.5652227802915, "lng": 77.0592486802915}, "southwest": {"lat": 28.5625248197085, "lng": 77.0565507197085}}}, "opening_hours": {"open_now": false}, "place_id": "ChIJPf1nOAAbDTkRDHxoPukzhIc", "plus_code": {"global_code": "7JWVH375+J3", "compound_code": "H375+J3 New Delhi, Delhi, India"}, "vicinity": "Service Road, Sector 23, Dwarka, New Delhi", "photos": [{"photo_reference": "ATtYBwLXjQtTuoHCctgNVMPIpfFx-rdPd0CYF-c6_NpHXPtSX9imB25O4Bex_OSLWIVqgwfFoAkgHAMCsuW5Y-IA53zB5QvVr-lyyB0VgfUx-SD0zorpAmHPKSXJD1pRZ5--GputEMxVIgZOyoaCUYfrxcpKuLHo9uqyY9kJlCwZWzWRxOMq", "width": 4128, "html_attributions": ["<a href=\"https://maps.google.com/maps/contrib/108120920824775637962\">Sachin Nagpal</a>"], "height": 3096}], "scope": "GOOGLE", "business_status": "OPERATIONAL", "types": ["school", "point_of_interest", "establishment"], "icon": "https://maps.gstatic.com/mapfiles/place_api/icons/v1/png_71/school-71.png"}, {"rating": 5, "user_ratings_total": 6, "permanently_closed": true, "name": "Oshodhara Meditation Centre", "reference": "ChIJ_QXcIgAbDTkRZvKeOvox4_A", "geometry": {"location": {"lat": 28.5634647, "lng": 77.0572012}, "viewport": {"northeast": {"lat": 28.5647418802915, "lng": 77.05848943029152}, "southwest": {"lat": 28.5620439197085, "lng": 77.0557914697085}}}, "place_id": "ChIJ_QXcIgAbDTkRZvKeOvox4_A", "plus_code": {"global_code": "7JWVH374+9V", "compound_code": "H374+9V New Delhi, Delhi, India"}, "vicinity": "Paramount International School, Sector 23, Shahabad Mohammadpur, New Delhi", "photos": [{"photo_reference": "ATtYBwJZ16FHGZQcSZui9ZJcjMF7_vkvIqRERgnUdO1d-n-9bxMLERENax3eJ0s3cy3QuNcDQS0h2VnyqQbWB8rinxx7rGcEP81-lvgfXciakR_SemV1XO2T407yFJWJsKcFCX_GHLM2x4svH8AL2H5U7hX8_VIR7tNW9uqpNN5ka7OIcw9B", "width": 1280, "html_attributions": ["<a href=\"https://maps.google.com/maps/contrib/100716380226711813547\">Harishankar</a>"], "height": 720}], "scope": "GOOGLE", "business_status": "CLOSED_TEMPORARILY", "types": ["school", "health", "point_of_interest", "establishment"], "icon": "https://maps.gstatic.com/mapfiles/place_api/icons/v1/png_71/school-71.png"}, {"rating": 4, "user_ratings_total": 4, "permanently_closed": true, "name": "MCD School", "reference": "ChIJD3Xuaw8bDTkR8t994WnsrcI", "geometry": {"location": {"lat": 28.57116, "lng": 77.06922089999999}, "viewport": {"northeast": {"lat": 28.5723401802915, "lng": 77.07047818029149}, "southwest": {"lat": 28.56964221970849, "lng": 77.06778021970848}}}, "place_id": "ChIJD3Xuaw8bDTkR8t994WnsrcI", "plus_code": {"global_code": "7JWVH3C9+FM", "compound_code": "H3C9+FM New Delhi, Delhi, India"}, "vicinity": "Block D, Sector 8 Dwarka, Dwarka, New Delhi", "photos": [{"photo_reference": "ATtYBwIzeQ7D_trPePSyTrt1FlKEZL5Ed8p1z7z4RIaq5Hu3N2ztozn_IYh7WrQB1-hC8DXz2IhCxgPzS4PsLqdwUEMg7LuUx3GfxRAoG9nehgd571zstOr801m-K3qxLip5Dc9QnBuxb2gxuVeSPlaVYoQIADcLOEcPocIEbRiA5tiuiSy_", "width": 4160, "html_attributions": ["<a href=\"https://maps.google.com/maps/contrib/103860544792460701715\">Aniket Ankur</a>"], "height": 2340}], "scope": "GOOGLE", "business_status": "CLOSED_TEMPORARILY", "types": ["school", "point_of_interest", "establishment"], "icon": "https://maps.gstatic.com/mapfiles/place_api/icons/v1/png_71/school-71.png"}, {"rating": 1, "user_ratings_total": 2, "permanently_closed": true, "name": "Big Dreams Playschool", "reference": "ChIJq6pmEP4aDTkRldDyqex_MYM", "geometry": {"location": {"lat": 28.5668331, "lng": 77.0556593}, "viewport": {"northeast": {"lat": 28.5681835302915, "lng": 77.05696083029152}, "southwest": {"lat": 28.5654855697085, "lng": 77.05426286970851}}}, "place_id": "ChIJq6pmEP4aDTkRldDyqex_MYM", "plus_code": {"global_code": "7JWVH384+P7", "compound_code": "H384+P7 New Delhi, Delhi, India"}, "vicinity": "Plot No.68-72, Radha Saomi Road, Sector 23, Dwarka, New Delhi", "scope": "GOOGLE", "business_status": "CLOSED_TEMPORARILY", "types": ["school", "point_of_interest", "establishment"], "icon": "https://maps.gstatic.com/mapfiles/place_api/icons/v1/png_71/school-71.png"}, {"rating": 3.9, "user_ratings_total": 130, "name": "Basava International School", "reference": "ChIJwaxBM_4aDTkRXeE7-K3qTdY", "geometry": {"location": {"lat": 28.5649593, "lng": 77.0554373}, "viewport": {"northeast": {"lat": 28.5661986802915, "lng": 77.05669668029151}, "southwest": {"lat": 28.5635007197085, "lng": 77.05399871970849}}}, "opening_hours": {"open_now": false}, "place_id": "ChIJwaxBM_4aDTkRXeE7-K3qTdY", "plus_code": {"global_code": "7JWVH374+X5", "compound_code": "H374+X5 New Delhi, Delhi, India"}, "vicinity": "Site-1, Sector 23, New Delhi", "photos": [{"photo_reference": "ATtYBwJ2gJxRfd0AuSUqGLoF_66dqZDHMOVP2L-rR4MQ1YvzcDvuWIxtRmM1ZjMfKtMZgAUBO1iDwA5agynjZBVY6t7o7tnX0WHvgrKGGbeqjXUhNZkQcAwNxvwIkxRDmWTeMHGkMvnF_F3NAkpVUdo0tHiFXMaXGytpYpij37UHRUjL9vbo", "width": 816, "html_attributions": ["<a href=\"https://maps.google.com/maps/contrib/114795675219200994688\">Sanjoy Banerjee</a>"], "height": 612}], "scope": "GOOGLE", "business_status": "OPERATIONAL", "types": ["primary_school", "school", "point_of_interest", "establishment"], "icon": "https://maps.gstatic.com/mapfiles/place_api/icons/v1/png_71/school-71.png"}, {"rating": 4.1, "user_ratings_total": 122, "name": "Kendriya Vidyalaya", "reference": "ChIJVVVVVQ4bDTkRiq9lmMIFjlw", "geometry": {"location": {"lat": 28.5677908, "lng": 77.06856839999999}, "viewport": {"northeast": {"lat": 28.56928733029151, "lng": 77.0699790802915}, "southwest": {"lat": 28.5665893697085, "lng": 77.0672811197085}}}, "opening_hours": {"open_now": false}, "place_id": "ChIJVVVVVQ4bDTkRiq9lmMIFjlw", "plus_code": {"global_code": "7JWVH399+4C", "compound_code": "H399+4C New Delhi, Delhi, India"}, "vicinity": "SPG Complex, Sector 8 Dwarka, New Delhi", "photos": [{"photo_reference": "ATtYBwJ3_mX3GjrDxwd8yTHqNvbHVYTvpdFrloNnt9Rcb_JNhPYRlc-xXiLTr6GMUO-i-MLF7bFPgJ5oPCnQ6AZL4_qzgg5zY27k6oes3HV-v1PRUsi9d1vYn2LPPLpHfHPufqoUNPd75pNTZ512Ou4WJO97n7W0tvjh1lve8X7Wm7UeRDGy", "width": 4160, "html_attributions": ["<a href=\"https://maps.google.com/maps/contrib/111936370404518223819\">Pawan Dabral</a>"], "height": 3120}], "scope": "GOOGLE", "business_status": "OPERATIONAL", "types": ["school", "point_of_interest", "establishment"], "icon": "https://maps.gstatic.com/mapfiles/place_api/icons/v1/png_71/school-71.png"}, {"rating": 5, "user_ratings_total": 6, "permanently_closed": true, "name": "Dnb Counseling", "reference": "ChIJU-SsahwbDTkRpCdjLVWbpKI", "geometry": {"location": {"lat": 28.5782288, "lng": 77.0607954}, "viewport": {"northeast": {"lat": 28.5796479802915, "lng": 77.06203778029152}, "southwest": {"lat": 28.57695001970849, "lng": 77.0593398197085}}}, "place_id": "ChIJU-SsahwbDTkRpCdjLVWbpKI", "plus_code": {"global_code": "7JWVH3H6+78", "compound_code": "H3H6+78 New Delhi, Delhi, India"}, "vicinity": "Dwarka Sector 9, Dwarka, New Delhi", "photos": [{"photo_reference": "ATtYBwJLM7rHlxNiK_laHv19XC8pZkZRczgzvWZ9AbFt_MU5q20eJcPD2Wel6BOvJ4qw7CVut4han9s2rCKSmPGhSnKx32JhK6qp61yJxlWuRqU-iEu2lDXf6_c9QxXf-c8HYHIKVz_RXXswtyKSRa2N9aiglNOmND3bzjiEJzs9-88u-KtA", "width": 4032, "html_attributions": ["<a href=\"https://maps.google.com/maps/contrib/102584842339502997959\">Venkat Ramesh</a>"], "height": 3024}], "scope": "GOOGLE", "business_status": "CLOSED_TEMPORARILY", "types": ["school", "point_of_interest", "establishment"], "icon": "https://maps.gstatic.com/mapfiles/place_api/icons/v1/png_71/school-71.png"}, {"rating": 5, "user_ratings_total": 19, "name": "Red Cedar Language Academy", "reference": "ChIJBWyw4e4aDTkRh44hBp5CENI", "geometry": {"location": {"lat": 28.5602534, "lng": 77.05984269999999}, "viewport": {"northeast": {"lat": 28.5615541802915, "lng": 77.0612652802915}, "southwest": {"lat": 28.5588562197085, "lng": 77.05856731970849}}}, "opening_hours": {"open_now": false}, "place_id": "ChIJBWyw4e4aDTkRh44hBp5CENI", "plus_code": {"global_code": "7JWVH365+4W", "compound_code": "H365+4W Delhi, India"}, "vicinity": "First Floor F-10,Manish Global Mall, Sector 22 Dwarka, Dwarka, Delhi", "photos": [{"photo_reference": "ATtYBwIQFTvDHejXBYIVFwKW54i5FMQ-QbYRvlN-HRVgyw89Y4DK3x5My4rmslY7IRWyDnegXr4hb4FMPFQgc1YY8bxEoMxX-XB8mQGiEPJyU8kdDoYDgtLUPRjZPgLG__Dxm4lcO6UWRvyirqsi-AnElijlv3bZiwL6LSW6WBTEkeI5ZL2H", "width": 3456, "html_attributions": ["<a href=\"https://maps.google.com/maps/contrib/118124308512539075863\">Andrew George</a>"], "height": 4608}], "scope": "GOOGLE", "business_status": "OPERATIONAL", "types": ["school", "point_of_interest", "establishment"], "icon": "https://maps.gstatic.com/mapfiles/place_api/icons/v1/png_71/school-71.png"}, {"rating": 4.5, "user_ratings_total": 2, "name": "Sri Sukhmani Group Of Institutions", "reference": "ChIJK5hxGxAbDTkRPU4HxpQtKMc", "geometry": {"location": {"lat": 28.5751311, "lng": 77.0688219}, "viewport": {"northeast": {"lat": 28.5765434802915, "lng": 77.07007448029151}, "southwest": {"lat": 28.5738455197085, "lng": 77.06737651970849}}}, "place_id": "ChIJK5hxGxAbDTkRPU4HxpQtKMc", "plus_code": {"global_code": "7JWVH3G9+3G", "compound_code": "H3G9+3G New Delhi, Delhi, India"}, "vicinity": "A58, Block A, Sector 8 Dwarka, Dwarka, New Delhi", "photos": [{"photo_reference": "ATtYBwLstWGYLI10bBtZdJNhZVVkVZ75GyzH0RU05izR0FRrs0P3JhGlDSY8Z1OYqOwbdY6t0BoI3cwBvXc_AN5Ha64G1lLW_5-4nwedhkHqasCr4FnJORDAfqw9fcLeHzLx0x3GMyJ7LK5atWH35Zuu6hpV5j4jfpWfe9WxcqMBwSjtRqkD", "width": 2543, "html_attributions": ["<a href=\"https://maps.google.com/maps/contrib/115544193298728885134\">a walk with sarah</a>"], "height": 1236}], "scope": "GOOGLE", "business_status": "OPERATIONAL", "types": ["school", "point_of_interest", "establishment"], "icon": "https://maps.gstatic.com/mapfiles/place_api/icons/v1/png_71/school-71.png"}, {"rating": 4.2, "user_ratings_total": 246, "name": "Mount Carmel School", "reference": "ChIJXR2K6FQaDTkRMC_9bIAXbdo", "geometry": {"location": {"lat": 28.5607199, "lng": 77.0586666}, "viewport": {"northeast": {"lat": 28.5618920802915, "lng": 77.06028208029151}, "southwest": {"lat": 28.55919411970849, "lng": 77.0575841197085}}}, "opening_hours": {"open_now": false}, "place_id": "ChIJXR2K6FQaDTkRMC_9bIAXbdo", "plus_code": {"global_code": "7JWVH365+7F", "compound_code": "H365+7F New Delhi, Delhi, India"}, "vicinity": "Sector 22 Dwarka, Dwarka, New Delhi", "photos": [{"photo_reference": "ATtYBwJiGSVTnwMV3V0WRM05WeyL9R89_Do1FZGv_hTbtBaQbCoS7NlYdgEZyS7VYsGcnBsutnv1YgJEVoK0q-ncKgu9WhPLDmVqwZY9EuI2U-bC1o9tNEl45qwku7a5fSoyv74B-ix34NJLRFLdZFhP9WYC85JNWMy2iXvrdje0fj_MFKdP", "width": 1920, "html_attributions": ["<a href=\"https://maps.google.com/maps/contrib/106194204603824231995\">Kartik Singhal</a>"], "height": 1080}], "scope": "GOOGLE", "business_status": "OPERATIONAL", "types": ["school", "point_of_interest", "establishment"], "icon": "https://maps.gstatic.com/mapfiles/place_api/icons/v1/png_71/school-71.png"}, {"rating": 4.4, "user_ratings_total": 25, "name": "Spanish&French Tuition Classes", "reference": "ChIJU-mpuqobDTkRiL-VWiwPNEg", "geometry": {"location": {"lat": 28.560993, "lng": 77.05684049999999}, "viewport": {"northeast": {"lat": 28.5623017802915, "lng": 77.0581560802915}, "southwest": {"lat": 28.55960381970849, "lng": 77.05545811970849}}}, "opening_hours": {"open_now": false}, "place_id": "ChIJU-mpuqobDTkRiL-VWiwPNEg", "plus_code": {"global_code": "7JWVH364+9P", "compound_code": "H364+9P New Delhi, Delhi, India"}, "vicinity": "Sector 22 Dwarka, New Delhi", "photos": [{"photo_reference": "ATtYBwIzn5ucLec9vZRbuVoHcust30nIZYqjlguGdbslddxaTrqf-_ksFWjl5072lL29k0kvOgGZKxSmnhESiL4nFALMvBldkUMvdpOq4glsP2lhpB0TFbEYnCdOivilOTIdVhu5a15S3N81rEfIwRAEbVbFsKxfHNYQ0qO4sMo26zDT_PlN", "width": 512, "html_attributions": ["<a href=\"https://maps.google.com/maps/contrib/111919518313452235907\">Spanish&amp;French Tuition Classes</a>"], "height": 287}], "scope": "GOOGLE", "business_status": "OPERATIONAL", "types": ["secondary_school", "school", "point_of_interest", "establishment"], "icon": "https://maps.gstatic.com/mapfiles/place_api/icons/v1/png_71/school-71.png"}, {"rating": 4.8, "user_ratings_total": 6, "permanently_closed": true, "name": "The Green Shoots Play School", "reference": "ChIJCTsTj84aDTkRzMx0ibX2dt4", "geometry": {"location": {"lat": 28.571388, "lng": 77.04925}, "viewport": {"northeast": {"lat": 28.57442055, "lng": 77.0505171802915}, "southwest": {"lat": 28.57037715, "lng": 77.04781921970849}}}, "place_id": "ChIJCTsTj84aDTkRzMx0ibX2dt4", "plus_code": {"global_code": "7JWVH2CX+HP", "compound_code": "H2CX+HP New Delhi, Delhi, India"}, "vicinity": "Plot Number 91, Opposite CNG Pump, Sector 12A, Dwarka, New Delhi", "photos": [{"photo_reference": "ATtYBwKIv99oxPF7MQ_fehPVUuP1h-5CvwS_KvbE8hB0utGUyV_W2_CniKVx0fzWmrVOW-KrZ0YcItDz4Qsp0NpD_mcv6S9v9nZ-Qc_5Cujr7rSuHleUo57yT3krsvnV4aSqAJpIqMIuTmaned77KYEa0RQIdHlazJe4PV386yPGHTR2wNzh", "width": 5184, "html_attributions": ["<a href=\"https://maps.google.com/maps/contrib/101551269305516501616\">Digital Indya</a>"], "height": 3456}], "scope": "GOOGLE", "business_status": "CLOSED_TEMPORARILY", "types": ["secondary_school", "school", "point_of_interest", "establishment"], "icon": "https://maps.gstatic.com/mapfiles/place_api/icons/v1/png_71/school-71.png"}, {"rating": 4.3, "user_ratings_total": 3, "permanently_closed": true, "name": "CBSE OPEN SCHOOL Patrachar", "reference": "ChIJU1VVVQ4bDTkRhRvZSJwScYs", "geometry": {"location": {"lat": 28.572038, "lng": 77.070837}, "viewport": {"northeast": {"lat": 28.5734267302915, "lng": 77.0722065302915}, "southwest": {"lat": 28.5707287697085, "lng": 77.06950856970849}}}, "place_id": "ChIJU1VVVQ4bDTkRhRvZSJwScYs", "vicinity": "Rzp-104 A, Secound Floor, Street No-2, Rajnagar-II, Colony,, Sector 8 Dwarka, Palam, New Delhi", "scope": "GOOGLE", "business_status": "CLOSED_TEMPORARILY", "types": ["school", "point_of_interest", "establishment"], "icon": "https://maps.gstatic.com/mapfiles/place_api/icons/v1/png_71/school-71.png"}, {"rating": 4.8, "user_ratings_total": 4, "permanently_closed": true, "name": "Queen's Valley", "reference": "ChIJVVVVVQ4bDTkRvS-eywXvD0U", "geometry": {"location": {"lat": 28.5720379, "lng": 77.070837}, "viewport": {"northeast": {"lat": 28.5734266802915, "lng": 77.0722065302915}, "southwest": {"lat": 28.5707287197085, "lng": 77.06950856970849}}}, "place_id": "ChIJVVVVVQ4bDTkRvS-eywXvD0U", "vicinity": "Phase - I, Block D, Sector 8 Dwarka, New Delhi", "scope": "GOOGLE", "business_status": "CLOSED_TEMPORARILY", "types": ["school", "point_of_interest", "establishment"], "icon": "https://maps.gstatic.com/mapfiles/place_api/icons/v1/png_71/school-71.png"}, {"rating": 4.5, "user_ratings_total": 6, "permanently_closed": true, "name": "ITL Candyfloss", "reference": "ChIJaV3ydhobDTkRqMsjkDxFLto", "geometry": {"location": {"lat": 28.5781717, "lng": 77.06772389999999}, "viewport": {"northeast": {"lat": 28.5793961302915, "lng": 77.06896393029149}, "southwest": {"lat": 28.5766981697085, "lng": 77.06626596970848}}}, "place_id": "ChIJaV3ydhobDTkRqMsjkDxFLto", "plus_code": {"global_code": "7JWVH3H9+73", "compound_code": "H3H9+73 New Delhi, Delhi, India"}, "vicinity": "Sector 9, Pocket 2, Dwarka Sector 9, Dwarka, New Delhi", "scope": "GOOGLE", "business_status": "CLOSED_TEMPORARILY", "types": ["school", "point_of_interest", "establishment"], "icon": "https://maps.gstatic.com/mapfiles/place_api/icons/v1/png_71/school-71.png"}, {"rating": 4.9, "user_ratings_total": 13, "permanently_closed": true, "name": "Little Marvels Early Learning Centre", "reference": "ChIJVxMxe-MaDTkRoO7pPbkgZGE", "geometry": {"location": {"lat": 28.5768232, "lng": 77.051014}, "viewport": {"northeast": {"lat": 28.57818763029151, "lng": 77.0524243802915}, "southwest": {"lat": 28.5754896697085, "lng": 77.04972641970849}}}, "place_id": "ChIJVxMxe-MaDTkRoO7pPbkgZGE", "plus_code": {"global_code": "7JWVH3G2+PC", "compound_code": "H3G2+PC Delhi, India"}, "vicinity": "A-17, Sector 19 Dwarka, Near Vardhman Mall, Delhi", "scope": "GOOGLE", "business_status": "CLOSED_TEMPORARILY", "types": ["school", "point_of_interest", "establishment"], "icon": "https://maps.gstatic.com/mapfiles/place_api/icons/v1/png_71/school-71.png"}, {"rating": 4.3, "user_ratings_total": 172, "name": "St Mary's School, Dwarka", "reference": "ChIJi9BiweQaDTkRQLh2Nr2hg4g", "geometry": {"location": {"lat": 28.5741733, "lng": 77.04884489999999}, "viewport": {"northeast": {"lat": 28.57542508029151, "lng": 77.05025258029151}, "southwest": {"lat": 28.5727271197085, "lng": 77.04755461970849}}}, "opening_hours": {"open_now": false}, "place_id": "ChIJi9BiweQaDTkRQLh2Nr2hg4g", "plus_code": {"global_code": "7JWVH2FX+MG", "compound_code": "H2FX+MG Delhi, India"}, "vicinity": "Bees Sutri Colony, Pocket 1, Sector 19, Dwarka, Dwarka, Delhi", "photos": [{"photo_reference": "ATtYBwIbNNZg30lJZrkO1WWrUGtgNR-1IcneQOAUI6H5GgJRFZk6r0LshA-crCXMwyR9j0OyEQ_OqOkgR5V1VmX9y-wCl4xJh1iE2Ph8IJnUcD25FOcZsCEzvna6foRKfussTex7e96zbzmJi-y4n-x_A2YvrJSR_UY7tpFVdHXAYRiLfTTK", "width": 4160, "html_attributions": ["<a href=\"https://maps.google.com/maps/contrib/115406881346154621144\">aggarwal associates</a>"], "height": 3120}], "scope": "GOOGLE", "business_status": "OPERATIONAL", "types": ["school", "point_of_interest", "establishment"], "icon": "https://maps.gstatic.com/mapfiles/place_api/icons/v1/png_71/school-71.png"}, {"rating": 3.9, "user_ratings_total": 104, "permanently_closed": true, "name": "Presidium School Dwarka 22", "reference": "ChIJ62cTH6sbDTkRkhpCsm-fi1Y", "geometry": {"location": {"lat": 28.55896, "lng": 77.057433}, "viewport": {"northeast": {"lat": 28.5604720302915, "lng": 77.0586615802915}, "southwest": {"lat": 28.5577740697085, "lng": 77.05596361970849}}}, "place_id": "ChIJ62cTH6sbDTkRkhpCsm-fi1Y", "plus_code": {"global_code": "7JWVH354+HX", "compound_code": "H354+HX Delhi, India"}, "vicinity": "Plot No. 18, Dwarka Sector 22, Shahabad Mohammadpur, Delhi", "photos": [{"photo_reference": "ATtYBwIpfrxpGvaXlN3Gq-UR2TUtgcrrvjCfoeZp69RdmfINwWSXJX8LzEcrleXfxbeUbKNrujv01QcaBabdbEe4bdJtYfhN_Roc7jWjp57xAtV_IFW0_-tm1-vx5eD7q5VG9kUAlA-nC_bk4RvVRF7miG7JjnYZcoqpX4lgo0iJC_rQuYym", "width": 2048, "html_attributions": ["<a href=\"https://maps.google.com/maps/contrib/116358279390948307991\">Presidium School Dwarka 22</a>"], "height": 1438}], "scope": "GOOGLE", "business_status": "CLOSED_TEMPORARILY", "types": ["school", "primary_school", "secondary_school", "point_of_interest", "establishment"], "icon": "https://maps.gstatic.com/mapfiles/place_api/icons/v1/png_71/school-71.png"}, {"rating": 4.9, "user_ratings_total": 92, "permanently_closed": true, "name": "Footprints: Play School & Day Care Creche", "reference": "ChIJP4UDIg4bDTkR9hdEEDdfK5k", "geometry": {"location": {"lat": 28.5746623, "lng": 77.07224459999999}, "viewport": {"northeast": {"lat": 28.5760409802915, "lng": 77.0735505302915}, "southwest": {"lat": 28.5733430197085, "lng": 77.07085256970849}}}, "place_id": "ChIJP4UDIg4bDTkR9hdEEDdfK5k", "plus_code": {"global_code": "7JWVH3FC+VV", "compound_code": "H3FC+VV New Delhi, Delhi, India"}, "vicinity": "A/143, Block A, Sector 8 Dwarka, Dwarka, New Delhi", "photos": [{"photo_reference": "ATtYBwKxjkZYc9ko9m5XJ6STuiECWVSOtKST6-s6HRKeGLM-t8krzKtVjAUz9pvj9I6OPQfTnSm_FPbaCpK2Pm3HsiAPdv_6UFwAHCEN67jtBheNhQ947LudIeuAjRHltmbzDOTHdMSOK-SyC7ly5N7Aa58Tzt4Q19_pR8rg91fc5fGUc-AP", "width": 820, "html_attributions": ["<a href=\"https://maps.google.com/maps/contrib/100680871869263924534\">Footprints: Play School &amp; Day Care Creche</a>"], "height": 462}], "scope": "GOOGLE", "business_status": "CLOSED_TEMPORARILY", "types": ["school", "point_of_interest", "establishment"], "icon": "https://maps.gstatic.com/mapfiles/place_api/icons/v1/png_71/school-71.png"}, {"rating": 4.4, "user_ratings_total": 13, "permanently_closed": true, "name": "KIDZEE Blooming Buds", "reference": "ChIJc5rl8g4bDTkRcZtn3dWGNTw", "geometry": {"location": {"lat": 28.57481679999999, "lng": 77.0727552}, "viewport": {"northeast": {"lat": 28.5761973302915, "lng": 77.07413488029151}, "southwest": {"lat": 28.57349936970849, "lng": 77.0714369197085}}}, "place_id": "ChIJc5rl8g4bDTkRcZtn3dWGNTw", "plus_code": {"global_code": "7JWVH3FF+W4", "compound_code": "H3FF+W4 New Delhi, Delhi, India"}, "vicinity": "153-A, Vivekanand Marg, Sector 8 Dwarka, Dwarka, New Delhi", "photos": [{"photo_reference": "ATtYBwLToc5cKe-ah8pHQBMfP3d9-FQGM1K3Uq71Xq2zGf73VKDqQh60SQueg-hn_7-5igWs33tOz0ItMXQnfuf1RzQTio6GscRnGi9jt003HKvc7z-bpJywqNLE5reauBS5ucRWdv_427aG--uiEeITytKR4y2PnABaczYM0jkG3CxMKlOz", "width": 1920, "html_attributions": ["<a href=\"https://maps.google.com/maps/contrib/112092733881410048962\">KIDZEE Blooming Buds</a>"], "height": 1080}], "scope": "GOOGLE", "business_status": "CLOSED_TEMPORARILY", "types": ["school", "point_of_interest", "establishment"], "icon": "https://maps.gstatic.com/mapfiles/place_api/icons/v1/png_71/school-71.png"}]}