{"status": "OK", "html_attributions": [], "results": [{"rating": 5, "user_ratings_total": 1, "permanently_closed": true, "name": "Government Boys Primary School", "reference": "ChIJKVczecepDTkRYjY2oR61HRw", "geometry": {"location": {"lat": 28.8152156, "lng": 77.071083}, "viewport": {"northeast": {"lat": 28.81657988029149, "lng": 77.07236783029151}, "southwest": {"lat": 28.8138819197085, "lng": 77.06966986970849}}}, "place_id": "ChIJKVczecepDTkRYjY2oR61HRw", "plus_code": {"global_code": "7JWVR38C+3C", "compound_code": "R38C+3C Delhi, India"}, "vicinity": "Sanoth, Delhi", "scope": "GOOGLE", "business_status": "CLOSED_TEMPORARILY", "types": ["school", "point_of_interest", "establishment"], "icon": "https://maps.gstatic.com/mapfiles/place_api/icons/v1/png_71/school-71.png"}, {"rating": 5, "user_ratings_total": 2, "permanently_closed": true, "name": "MCD Boys Primary School Sanoth", "reference": "ChIJPYjzccepDTkRI_Zditoa4DY", "geometry": {"location": {"lat": 28.81456309999999, "lng": 77.07148099999999}, "viewport": {"northeast": {"lat": 28.8158113302915, "lng": 77.0730192802915}, "southwest": {"lat": 28.8131133697085, "lng": 77.0703213197085}}}, "place_id": "ChIJPYjzccepDTkRI_Zditoa4DY", "plus_code": {"global_code": "7JWVR37C+RH", "compound_code": "R37C+RH Delhi, India"}, "vicinity": "Sanoth, Delhi", "scope": "GOOGLE", "business_status": "CLOSED_TEMPORARILY", "types": ["school", "point_of_interest", "establishment"], "icon": "https://maps.gstatic.com/mapfiles/place_api/icons/v1/png_71/school-71.png"}, {"name": "Rana Model School", "reference": "ChIJkX5RoZypDTkROb6rTB_Vel8", "geometry": {"location": {"lat": 28.8209515, "lng": 77.0634926}, "viewport": {"northeast": {"lat": 28.82237903029149, "lng": 77.06485913029151}, "southwest": {"lat": 28.8196810697085, "lng": 77.06216116970849}}}, "opening_hours": {"open_now": false}, "place_id": "ChIJkX5RoZypDTkROb6rTB_Vel8", "plus_code": {"global_code": "7JWVR3C7+99", "compound_code": "R3C7+99 Delhi, India"}, "vicinity": "New Sannouth Colony,Ghoga Mor, Delhi", "photos": [{"photo_reference": "ATtYBwJ7K5sSD90Qzb7W-sGkSkZDJGkc9doKwtKQm-MhbXAp1l50fglnsX1HSFfIc9jYZv9hJPvl--bKhBKET5PqEODL5dUkHw0ixeH78D74DvUiIqREZ1Za1Q47JO18FZbBSeLF2sNqotYXrSdWmchcFeDvV080ouVl8ndoW7PLeVA9ZK5F", "width": 4128, "html_attributions": ["<a href=\"https://maps.google.com/maps/contrib/100715544117854270186\">Rana Model School</a>"], "height": 3096}], "scope": "GOOGLE", "business_status": "OPERATIONAL", "types": ["school", "point_of_interest", "establishment"], "icon": "https://maps.gstatic.com/mapfiles/place_api/icons/v1/png_71/school-71.png"}, {"rating": 4.3, "user_ratings_total": 6, "permanently_closed": true, "name": "Nanak Sar Convent School", "reference": "ChIJly9BRbGpDTkRaORE3B0Zzl8", "geometry": {"location": {"lat": 28.8213078, "lng": 77.06299369999999}, "viewport": {"northeast": {"lat": 28.8226796802915, "lng": 77.0643432802915}, "southwest": {"lat": 28.8199817197085, "lng": 77.06164531970849}}}, "place_id": "ChIJly9BRbGpDTkRaORE3B0Zzl8", "plus_code": {"global_code": "7JWVR3C7+G5", "compound_code": "R3C7+G5 Delhi, India"}, "vicinity": "B-127 New Colony Sannoth, Narela", "photos": [{"photo_reference": "ATtYBwJ_RUv0506YAdBtUKzVDGEuIe96Ge3DJz40t-iGeP7s4OnC1GXgGZq7NXW5A3jqRQwB_Zh-3RFO6RyYcbksG3-x-uHpd_6ad2bVsAMSlUOBgFLEQHZ3-XpH3fh85Agy6F-ekSEysGpdl1h8aA1yZ74aTAQxGJsul2bHvkbsmdt82Raw", "width": 4160, "html_attributions": ["<a href=\"https://maps.google.com/maps/contrib/108940968145214974110\">satnam singh</a>"], "height": 3120}], "scope": "GOOGLE", "business_status": "CLOSED_TEMPORARILY", "types": ["primary_school", "school", "point_of_interest", "establishment"], "icon": "https://maps.gstatic.com/mapfiles/place_api/icons/v1/png_71/school-71.png"}, {"rating": 5, "user_ratings_total": 1, "permanently_closed": true, "name": "Dish Tv Service Center", "reference": "ChIJhYKl7zCoDTkREbWr5uw3Tzs", "geometry": {"location": {"lat": 28.8055078, "lng": 77.04695889999999}, "viewport": {"northeast": {"lat": 28.8068812302915, "lng": 77.0482746302915}, "southwest": {"lat": 28.8041832697085, "lng": 77.04557666970848}}}, "place_id": "ChIJhYKl7zCoDTkREbWr5uw3Tzs", "plus_code": {"global_code": "7JWVR24W+6Q", "compound_code": "R24W+6Q Delhi, India"}, "vicinity": "Bawana Road, Asthal Colony, Bawana, Delhi", "scope": "GOOGLE", "business_status": "CLOSED_TEMPORARILY", "types": ["school", "point_of_interest", "establishment"], "icon": "https://maps.gstatic.com/mapfiles/place_api/icons/v1/png_71/school-71.png"}, {"rating": 4, "user_ratings_total": 3, "permanently_closed": true, "name": "R.P. PUBLIC SCHOOL", "reference": "ChIJs1B5LMGpDTkR2KE5xX8eh98", "geometry": {"location": {"lat": 28.812609, "lng": 77.0739198}, "viewport": {"northeast": {"lat": 28.8140059802915, "lng": 77.0753069302915}, "southwest": {"lat": 28.8113080197085, "lng": 77.0726089697085}}}, "place_id": "ChIJs1B5LMGpDTkR2KE5xX8eh98", "plus_code": {"global_code": "7JWVR37F+2H", "compound_code": "R37F+2H Delhi, India"}, "vicinity": "Sanoth, Delhi", "photos": [{"photo_reference": "ATtYBwL4-JltGq7QifKtDReXm1HSrNuLs3UQ_06yqjo-j1VfRUEuiB5S5_LGFt6UB0lsxmzRPo3mE5dwKV3WeTzEeH3jjCtayDW6-OkJfHT5f-Hxk-esMxGTJfqJ47yv20P-pG4W6FQfuuTTpPiHPJEwcKHb26fhwkc4q8yhLtBkJTclyqZQ", "width": 1970, "html_attributions": ["<a href=\"https://maps.google.com/maps/contrib/103012137831707076920\">Abhi Morya</a>"], "height": 4160}], "scope": "GOOGLE", "business_status": "CLOSED_TEMPORARILY", "types": ["school", "point_of_interest", "establishment"], "icon": "https://maps.gstatic.com/mapfiles/place_api/icons/v1/png_71/school-71.png"}, {"name": "Senior secondary school", "reference": "ChIJZRXW37apDTkRLQ80Cw4AOno", "geometry": {"location": {"lat": 28.8198068, "lng": 77.06490099999999}, "viewport": {"northeast": {"lat": 28.82081253029149, "lng": 77.06598828029149}, "southwest": {"lat": 28.8181145697085, "lng": 77.06329031970849}}}, "place_id": "ChIJZRXW37apDTkRLQ80Cw4AOno", "vicinity": "Sanoth", "scope": "GOOGLE", "types": ["school", "premise", "establishment"], "icon": "https://maps.gstatic.com/mapfiles/place_api/icons/v1/png_71/school-71.png"}, {"name": "R K Public School", "reference": "ChIJEbxgLsGpDTkRM38cZ7Em3ic", "geometry": {"location": {"lat": 28.8124502, "lng": 77.0741421}, "viewport": {"northeast": {"lat": 28.8138034802915, "lng": 77.07550673029151}, "southwest": {"lat": 28.8111055197085, "lng": 77.07280876970849}}}, "place_id": "ChIJEbxgLsGpDTkRM38cZ7Em3ic", "vicinity": "Sanoth", "scope": "GOOGLE", "types": ["school", "premise", "establishment"], "icon": "https://maps.gstatic.com/mapfiles/place_api/icons/v1/png_71/school-71.png"}]}