{"status": "OK", "next_page_token": "ATtYBwL2OgIEdDRHBwtloZ7lrDyTXb6ehOSuaIjxZZicOzEVNfs0OiLqSYD70kRk7iOTBBY6wnM30E3giC4eGiD1WGNGzKGLVGRzMxMY5UI8Nxul793l53JZ2BlILnO0QkN60-sLHWZcdJ7xosIm-W07LhRvb1Ei4SL0xeCQPMgMzpQPaWLKWPpMk3sQDvTSZ0B5JwWr2rBu-j4bsbksOflCloixU2eOvBgUahkEwRNDCEdItaZYEIBHVItFHDoex6FB5x94MbQITjOCa9nc95M1YfPJDnDTl4rtfolAaxV7d-1-ziIrpfDqDAV6l50JyDy1HDsrbAFb6FGEs47HpWxDZLXDxDEe3wZA6JpVE3tAvjEfTubEpfMp4ToHdPS3uJSzdR564w-r8cGSZJ_ASuhILzeSLdhm_R72OjcDd7GO0903eQ", "html_attributions": [], "results": [{"rating": 3, "user_ratings_total": 5, "permanently_closed": true, "name": "Kumon Maths & English Classes:Best Kids Learning Centre in Golf Course Road", "reference": "ChIJY_tkYrT6DDkRdW2_YCwaPN0", "geometry": {"location": {"lat": 28.4483531, "lng": 77.09994069999999}, "viewport": {"northeast": {"lat": 28.4496640802915, "lng": 77.1009597302915}, "southwest": {"lat": 28.4469661197085, "lng": 77.09826176970849}}}, "place_id": "ChIJY_tkYrT6DDkRdW2_YCwaPN0", "plus_code": {"global_code": "7JWVC3XX+8X", "compound_code": "C3XX+8X Gurugram, Haryana, India"}, "vicinity": "Permises No. DSP 203 B, 2nd Floor, South Point Mall, Golf Course Road, DLF Phase 5, Sector 53, Gurugram", "photos": [{"photo_reference": "ATtYBwKteAGWbQ3LUsLi7O4TsqF-_4DpuFJlb5euSwKdA3fd_i7e_EmQj5rOMSCk2dPOGu8WIxb3sJSdVDBN04Bv94T3LvQSVRWsfp56sX74KUfN0q7D6O4QB_q-7avH3pcnbZWyOV5tomi0PNDd9zhX87GHwFePJ_ZH8p7zH6j9BeyxgMz2", "width": 1920, "html_attributions": ["<a href=\"https://maps.google.com/maps/contrib/113116167720712247668\">Kumon Maths &amp; English Classes:Best Kids Learning Centre in Golf Course Road</a>"], "height": 1280}], "scope": "GOOGLE", "business_status": "CLOSED_TEMPORARILY", "types": ["secondary_school", "university", "school", "point_of_interest", "establishment"], "icon": "https://maps.gstatic.com/mapfiles/place_api/icons/v1/png_71/school-71.png"}, {"rating": 4, "user_ratings_total": 5, "permanently_closed": true, "name": "Yamada Juku", "reference": "ChIJN5EAWrQYDTkRgY-VWsUpeeg", "geometry": {"location": {"lat": 28.4477645, "lng": 77.09912969999999}, "viewport": {"northeast": {"lat": 28.4491723302915, "lng": 77.1007642302915}, "southwest": {"lat": 28.4464743697085, "lng": 77.0980662697085}}}, "place_id": "ChIJN5EAWrQYDTkRgY-VWsUpeeg", "plus_code": {"global_code": "7JWVC3XX+4M", "compound_code": "C3XX+4M Gurugram, Haryana, India"}, "vicinity": "SPO - 225&226, 2nd Floor, DLF South Point Mall, Golf Course Road, Gurugram", "photos": [{"photo_reference": "ATtYBwJsqxe5Y8vPjUfc8zbwEbmxro_axILufJo0-LUUt_d57bM5Krdy_HEFkCIlnY5pYjFBckpMgvpaEs99wmPifXPSDPzhckOfU1LmAekQEbbSCwkEtDQh9atT4lG_wck4yyeUWDnilLZA_TztvANyTFqWY776ySj4mos7tou0cSi0bFJB", "width": 1920, "html_attributions": ["<a href=\"https://maps.google.com/maps/contrib/109207582468834832826\">Yamada Juku</a>"], "height": 1280}], "scope": "GOOGLE", "business_status": "CLOSED_TEMPORARILY", "types": ["school", "point_of_interest", "establishment"], "icon": "https://maps.gstatic.com/mapfiles/place_api/icons/v1/png_71/school-71.png"}, {"rating": 4.4, "user_ratings_total": 101, "name": "Yamaha Music Square-Times Lifestyle", "reference": "ChIJscgFXbQYDTkR_f_FxuRGffI", "geometry": {"location": {"lat": 28.4474458, "lng": 77.099526}, "viewport": {"northeast": {"lat": 28.4490129802915, "lng": 77.1009117302915}, "southwest": {"lat": 28.4463150197085, "lng": 77.0982137697085}}}, "opening_hours": {"open_now": false}, "place_id": "ChIJscgFXbQYDTkR_f_FxuRGffI", "plus_code": {"global_code": "7JWVC3WX+XR", "compound_code": "C3WX+XR Gurugram, Haryana, India"}, "vicinity": "Times Lifestyle, LG-21, South Point Mall, Golf Course Road, DLF Phase 5, Sector 53, Gurugram", "photos": [{"photo_reference": "ATtYBwK8W54cuSceSiy9SOLdsxPIuvYVaWNRs7asStVZ_P-hcg-IY0PeIHeqQyRlVOtxO65nqKjILdhegLT63Ka2dC4JpFOLNZo6F2mFuMzhWjaKZNu2HtSn-zLOgDF_HAxx44AbUv_ZP2mnroeLPWKY_uF7-GjTyG6q13Kh5PAQevMKlTAo", "width": 2048, "html_attributions": ["<a href=\"https://maps.google.com/maps/contrib/113667638665534905703\">Shubham Agarwal</a>"], "height": 1536}], "scope": "GOOGLE", "business_status": "OPERATIONAL", "types": ["electronics_store", "home_goods_store", "school", "point_of_interest", "store", "establishment"], "icon": "https://maps.gstatic.com/mapfiles/place_api/icons/v1/png_71/shopping-71.png"}, {"rating": 5, "user_ratings_total": 2, "permanently_closed": true, "name": "Masti Ki Pathshala", "reference": "ChIJ__9jwLYYDTkR0ddOsE8DzBA", "geometry": {"location": {"lat": 28.4465945, "lng": 77.0952296}, "viewport": {"northeast": {"lat": 28.4478758302915, "lng": 77.09652628029151}, "southwest": {"lat": 28.4451778697085, "lng": 77.0938283197085}}}, "place_id": "ChIJ__9jwLYYDTkR0ddOsE8DzBA", "plus_code": {"global_code": "7JWVC3WW+J3", "compound_code": "C3WW+J3 Gurugram, Haryana, India"}, "vicinity": "Wellington Estate II, W2C032, DLF Phase 5, Gurugram", "scope": "GOOGLE", "business_status": "CLOSED_TEMPORARILY", "types": ["school", "point_of_interest", "establishment"], "icon": "https://maps.gstatic.com/mapfiles/place_api/icons/v1/png_71/school-71.png"}, {"rating": 3.9, "user_ratings_total": 7, "permanently_closed": true, "name": "Kidzee Happy Days", "reference": "ChIJOSXaCckYDTkRIevvvbJZnnU", "geometry": {"location": {"lat": 28.4539093, "lng": 77.0948105}, "viewport": {"northeast": {"lat": 28.4551699802915, "lng": 77.0961831802915}, "southwest": {"lat": 28.4524720197085, "lng": 77.0934852197085}}}, "place_id": "ChIJOSXaCckYDTkRIevvvbJZnnU", "plus_code": {"global_code": "7JWVF33V+HW", "compound_code": "F33V+HW Gurugram, Haryana, India"}, "vicinity": "C, 890, Sector 43 Service Road, PWO Appartments, Block D, Gurugram", "photos": [{"photo_reference": "ATtYBwI94oniildVnqx3-A0y2qZBsopOzgA4JqC-V9I8rcy3tGZXEV3DOvmOSDOs-18PlW4dUGrdmpdKaoNssyIsuKVhz95f6-_NyDRXgpb3_0qzudJun17z_DG6Mj72USUJ_7DeY_UUTD-h8pahHNBVIoKcGEyN9-5iPRDvxaUzQcypaxkS", "width": 960, "html_attributions": ["<a href=\"https://maps.google.com/maps/contrib/105159023916063506792\">Gunjan singh</a>"], "height": 720}], "scope": "GOOGLE", "business_status": "CLOSED_TEMPORARILY", "types": ["school", "point_of_interest", "establishment"], "icon": "https://maps.gstatic.com/mapfiles/place_api/icons/v1/png_71/school-71.png"}, {"rating": 4.6, "user_ratings_total": 28, "permanently_closed": true, "name": "Dev Yoga Centre", "reference": "ChIJ4YKL-8sYDTkRK7omKjUx66E", "geometry": {"location": {"lat": 28.4550236, "lng": 77.0940207}, "viewport": {"northeast": {"lat": 28.4563797802915, "lng": 77.0954043302915}, "southwest": {"lat": 28.4536818197085, "lng": 77.0927063697085}}}, "place_id": "ChIJ4YKL-8sYDTkRK7omKjUx66E", "plus_code": {"global_code": "7JWVF34V+2J", "compound_code": "F34V+2J Gurugram, Haryana, India"}, "vicinity": "Plot No.856, Sector 43, Golf Course Road, Sector 54, Gurugram", "photos": [{"photo_reference": "ATtYBwKgb3h9XaJwU5JNBX5M9PdHTAZjLJxYYR1dD0KHStie60Wau1Tv-JoLMEE0jGkIts5KUREcZeahYonliWcxpo9zZqbk3BQqCm96nkVBPnjMRAq1GhTlA5k8ZPKy4Fw7KCkbqJZ1j-t0LCio0_HFaP7vlpCsZOnvRli0qDOUwptmoNW3", "width": 879, "html_attributions": ["<a href=\"https://maps.google.com/maps/contrib/117154435045913469105\">Dev Yoga Centre</a>"], "height": 659}], "scope": "GOOGLE", "business_status": "CLOSED_TEMPORARILY", "types": ["school", "point_of_interest", "establishment"], "icon": "https://maps.gstatic.com/mapfiles/place_api/icons/v1/png_71/school-71.png"}, {"rating": 3.9, "user_ratings_total": 146, "name": "Lancers International School Gurgaon", "reference": "ChIJoWpCzrYYDTkR8RnVQ-5P_3M", "geometry": {"location": {"lat": 28.4456897, "lng": 77.0942821}, "viewport": {"northeast": {"lat": 28.4473350302915, "lng": 77.0952396802915}, "southwest": {"lat": 28.4446370697085, "lng": 77.09254171970849}}}, "opening_hours": {"open_now": false}, "place_id": "ChIJoWpCzrYYDTkR8RnVQ-5P_3M", "plus_code": {"global_code": "7JWVC3WV+7P", "compound_code": "C3WV+7P Gurugram, Haryana, India"}, "vicinity": "DLF Phase 5, Sector 53, Gurugram", "photos": [{"photo_reference": "ATtYBwLCh646bcwXXlNFK93VEqDgWEH4UjbMNpb3b7_m46hxPKKnJjdwf5hy1PkgskhI4Izhv1tMjwi_O3zQfLtuys-1V1FSC7zlrwxZQSm5Wb2Zu--ObZgj3Tw5CQ5MQuxgdA5AUtX-eUvb_vQbYeIseuJ4YVGqTIBp5OYGVw4H5HUm4XV3", "width": 4032, "html_attributions": ["<a href=\"https://maps.google.com/maps/contrib/108329127616130413599\">Kamal Jaswal</a>"], "height": 3024}], "scope": "GOOGLE", "business_status": "OPERATIONAL", "types": ["school", "point_of_interest", "establishment"], "icon": "https://maps.gstatic.com/mapfiles/place_api/icons/v1/png_71/school-71.png"}, {"permanently_closed": true, "name": "Amiown school, Near Bharat Gas Depot, Sector -27 , Gurugram, HARYANA 122002", "reference": "ChIJfRGXScwZDTkR5TI65GAFm0w", "geometry": {"location": {"lat": 28.4510205, "lng": 77.0979407}, "viewport": {"northeast": {"lat": 28.4525346802915, "lng": 77.0993726302915}, "southwest": {"lat": 28.44983671970849, "lng": 77.09667466970849}}}, "place_id": "ChIJfRGXScwZDTkR5TI65GAFm0w", "plus_code": {"global_code": "7JWVF32X+C5", "compound_code": "F32X+C5 Gurugram, Haryana, India"}, "vicinity": "near Bharat Gas Depot, Amiown School, near Bharat Gas Depot, Sector 27, Gurugram", "scope": "GOOGLE", "business_status": "CLOSED_TEMPORARILY", "types": ["school", "point_of_interest", "establishment"], "icon": "https://maps.gstatic.com/mapfiles/place_api/icons/v1/png_71/school-71.png"}, {"rating": 4.2, "user_ratings_total": 14, "name": "Eye Level Golf Course Road Center: Math & English Classes", "reference": "ChIJ06vRUbQYDTkRMgzd8DvSVo4", "geometry": {"location": {"lat": 28.4480872, "lng": 77.0988959}, "viewport": {"northeast": {"lat": 28.4492987802915, "lng": 77.1006473302915}, "southwest": {"lat": 28.4466008197085, "lng": 77.09794936970849}}}, "opening_hours": {"open_now": false}, "place_id": "ChIJ06vRUbQYDTkRMgzd8DvSVo4", "plus_code": {"global_code": "7JWVC3XX+6H", "compound_code": "C3XX+6H Gurugram, Haryana, India"}, "vicinity": "109, First Floor, South Point Mall", "photos": [{"photo_reference": "ATtYBwLUCfqzOW6jOv1Pr5a03Qj6v-_9jSJtAIk_JmDrNrvxSfNZQsr5Cyblca7NTeehVXsRXrEatwqAe5JQmcoMqwLM0Mi1YQS_DBu8hEQW5z1EWiLHJIzvGIa7-kZ8LP31P7ByiNQ4V02KcS8YziIYMZqbBGNLOYBLbVCYwrzG8SSQy_Bc", "width": 4608, "html_attributions": ["<a href=\"https://maps.google.com/maps/contrib/100317271379367982419\">Eye Level Golf Course Road Center: Math &amp; English Classes</a>"], "height": 3456}], "scope": "GOOGLE", "business_status": "OPERATIONAL", "types": ["secondary_school", "university", "school", "point_of_interest", "establishment"], "icon": "https://maps.gstatic.com/mapfiles/place_api/icons/v1/png_71/school-71.png"}, {"name": "Aman", "reference": "ChIJb6zSOQAfDTkR08Jyt0lJPIA", "geometry": {"location": {"lat": 28.4500786, "lng": 77.10279419999999}, "viewport": {"northeast": {"lat": 28.4513650302915, "lng": 77.1041506302915}, "southwest": {"lat": 28.4486670697085, "lng": 77.1014526697085}}}, "place_id": "ChIJb6zSOQAfDTkR08Jyt0lJPIA", "plus_code": {"global_code": "7JWVF423+24", "compound_code": "F423+24 Gurugram, Haryana, India"}, "vicinity": "Countryside Avenue, DLF Phase 5, Sector 54, Gurugram", "scope": "GOOGLE", "business_status": "OPERATIONAL", "types": ["school", "point_of_interest", "establishment"], "icon": "https://maps.gstatic.com/mapfiles/place_api/icons/v1/png_71/school-71.png"}, {"permanently_closed": true, "name": "Husky ka ghar", "reference": "ChIJMfr873IZDTkRY0o8ARCm834", "geometry": {"location": {"lat": 28.4472847, "lng": 77.0959769}, "viewport": {"northeast": {"lat": 28.4485930802915, "lng": 77.0973023802915}, "southwest": {"lat": 28.4458951197085, "lng": 77.09460441970849}}}, "place_id": "ChIJMfr873IZDTkRY0o8ARCm834", "plus_code": {"global_code": "7JWVC3WW+W9", "compound_code": "C3WW+W9 Gurugram, Haryana, India"}, "vicinity": "Golf Course Road, Phase 5 DLF, Sector 42, Gurugram", "scope": "GOOGLE", "business_status": "CLOSED_TEMPORARILY", "types": ["school", "point_of_interest", "establishment"], "icon": "https://maps.gstatic.com/mapfiles/place_api/icons/v1/png_71/school-71.png"}, {"permanently_closed": true, "name": "Karsui Juniear School", "reference": "ChIJYwVM9bYYDTkRV_jcgklJDrc", "geometry": {"location": {"lat": 28.4481257, "lng": 77.09527729999999}, "viewport": {"northeast": {"lat": 28.4494767302915, "lng": 77.09662348029151}, "southwest": {"lat": 28.4467787697085, "lng": 77.0939255197085}}}, "place_id": "ChIJYwVM9bYYDTkRV_jcgklJDrc", "plus_code": {"global_code": "7JWVC3XW+74", "compound_code": "C3XW+74 Gurugram, Haryana, India"}, "vicinity": "Club Drive Road, DLF Phase 5, Sector 53, Gurugram", "scope": "GOOGLE", "business_status": "CLOSED_TEMPORARILY", "types": ["school", "point_of_interest", "establishment"], "icon": "https://maps.gstatic.com/mapfiles/place_api/icons/v1/png_71/school-71.png"}, {"permanently_closed": true, "name": "Studio", "reference": "ChIJ__dQLbAfDTkRgpLUBSHJeXk", "geometry": {"location": {"lat": 28.4465872, "lng": 77.10373650000001}, "viewport": {"northeast": {"lat": 28.4479067802915, "lng": 77.1051257802915}, "southwest": {"lat": 28.4452088197085, "lng": 77.1024278197085}}}, "place_id": "ChIJ__dQLbAfDTkRgpLUBSHJeXk", "plus_code": {"global_code": "7JWVC4W3+JF", "compound_code": "C4W3+JF Gurugram, Haryana, India"}, "vicinity": "B2/3, Park Drive, Golf Course Road, Sector 54, DLF Phase 5, Gurugram", "scope": "GOOGLE", "business_status": "CLOSED_TEMPORARILY", "types": ["school", "point_of_interest", "establishment"], "icon": "https://maps.gstatic.com/mapfiles/place_api/icons/v1/png_71/school-71.png"}, {"rating": 4.5, "user_ratings_total": 4, "name": "Academic & Professional Studies Abroad", "reference": "ChIJUTo_RkgZDTkREjDaMud9IiA", "geometry": {"location": {"lat": 28.4454215, "lng": 77.1014081}, "viewport": {"northeast": {"lat": 28.4468715802915, "lng": 77.10285073029151}, "southwest": {"lat": 28.4441736197085, "lng": 77.1001527697085}}}, "place_id": "ChIJUTo_RkgZDTkREjDaMud9IiA", "plus_code": {"global_code": "7JWVC4W2+5H", "compound_code": "C4W2+5H Gurugram, Haryana, India"}, "vicinity": "Gem business centre, 8th floor, palm spring plaza golf course road Sec-54, dlf ph-5, Gurugram", "photos": [{"photo_reference": "ATtYBwIbeHX8x6ZE-VQJWf2f9-DYZ3Yb8KZZJB249pAN_pgWyBffbygV4TG3K0e8t0WUEsMzePMW2SOiE99u-4uoz-jDmBwkKJupx4mKxD2elcMLvn8NVI0cIGwBNKaV3YcUWS4jNPQG-6WFVo6RhvkaEJQeGTKoieiMRuzKrKfJBS-dVKYI", "width": 960, "html_attributions": ["<a href=\"https://maps.google.com/maps/contrib/101026693752767451647\">Academic &amp; Professional Studies Abroad</a>"], "height": 720}], "scope": "GOOGLE", "business_status": "OPERATIONAL", "types": ["secondary_school", "school", "point_of_interest", "establishment"], "icon": "https://maps.gstatic.com/mapfiles/place_api/icons/v1/png_71/school-71.png"}, {"rating": 5, "user_ratings_total": 3, "permanently_closed": true, "name": "Impressions Handwriting Academy", "reference": "ChIJPT9fWbYYDTkRg7L5sJ4vT3w", "geometry": {"location": {"lat": 28.4485037, "lng": 77.0948654}, "viewport": {"northeast": {"lat": 28.4498325302915, "lng": 77.0962471302915}, "southwest": {"lat": 28.4471345697085, "lng": 77.0935491697085}}}, "place_id": "ChIJPT9fWbYYDTkRg7L5sJ4vT3w", "plus_code": {"global_code": "7JWVC3XV+CW", "compound_code": "C3XV+CW Gurugram, Haryana, India"}, "vicinity": "Trinity Towers Road, DLF Phase 5, Sector 53, Gurugram", "scope": "GOOGLE", "business_status": "CLOSED_TEMPORARILY", "types": ["school", "point_of_interest", "establishment"], "icon": "https://maps.gstatic.com/mapfiles/place_api/icons/v1/png_71/school-71.png"}, {"rating": 5, "user_ratings_total": 1, "permanently_closed": true, "name": "Nayi Disha", "reference": "ChIJv16HxMkYDTkRSOpLIC6vKpw", "geometry": {"location": {"lat": 28.4519202, "lng": 77.0949103}, "viewport": {"northeast": {"lat": 28.4533283802915, "lng": 77.0963217802915}, "southwest": {"lat": 28.4506304197085, "lng": 77.0936238197085}}}, "place_id": "ChIJv16HxMkYDTkRSOpLIC6vKpw", "vicinity": "Harijan Colony, Opposite Westend Heights, DLF Phase 5, Sector 43, Gurugram", "scope": "GOOGLE", "business_status": "CLOSED_TEMPORARILY", "types": ["primary_school", "school", "point_of_interest", "establishment"], "icon": "https://maps.gstatic.com/mapfiles/place_api/icons/v1/png_71/school-71.png"}, {"rating": 4.9, "user_ratings_total": 7, "permanently_closed": true, "name": "KLAY Preschool and DayCare, DLF Phase 5- Sector 43", "reference": "ChIJL1Nh4ckYDTkROI_9RlEbF-4", "geometry": {"location": {"lat": 28.4519131, "lng": 77.0948665}, "viewport": {"northeast": {"lat": 28.4529424802915, "lng": 77.0966782802915}, "southwest": {"lat": 28.4502445197085, "lng": 77.09398031970849}}}, "place_id": "ChIJL1Nh4ckYDTkROI_9RlEbF-4", "plus_code": {"global_code": "7JWVF32V+QW", "compound_code": "F32V+QW Gurugram, Haryana, India"}, "vicinity": "Nursery site ACP Office (Same compound) Opp Two Horizon Building, American Express Drive, DLF Phase 5, Sector 43, Gurugram", "photos": [{"photo_reference": "ATtYBwJl7BwbaqQZfFfMoeXPWwcZIOAGuA6mQDlF14A_ohgcfYPKiJKWerpuJUm1ZyKwNAqIZlMw6sMJVcw9IwCLWKQVr2YqYNVZ6iZ3cdJBJR71SfGlu07Db-DTDLi2cCeU8_7Hjg0aNlvFZxkyQKbGN2IM4SaFpev-_UVHc95KI8YYVP5s", "width": 2176, "html_attributions": ["<a href=\"https://maps.google.com/maps/contrib/105394901295427062924\">Automolove MS</a>"], "height": 4608}], "scope": "GOOGLE", "business_status": "CLOSED_TEMPORARILY", "types": ["school", "point_of_interest", "establishment"], "icon": "https://maps.gstatic.com/mapfiles/place_api/icons/v1/png_71/school-71.png"}, {"rating": 4.6, "user_ratings_total": 60, "permanently_closed": true, "name": "CULT", "reference": "ChIJu8SrRLMYDTkRgvaDqWTzJlM", "geometry": {"location": {"lat": 28.4451678, "lng": 77.1014117}, "viewport": {"northeast": {"lat": 28.4464717302915, "lng": 77.10256578029151}, "southwest": {"lat": 28.4437737697085, "lng": 77.0998678197085}}}, "place_id": "ChIJu8SrRLMYDTkRgvaDqWTzJlM", "plus_code": {"global_code": "7JWVC4W2+3H", "compound_code": "C4W2+3H Gurugram, Haryana, India"}, "vicinity": "1st Floor, The Palm Springs, Golf Course Road, DLF Phase 5, Sector 54, Gurugram", "photos": [{"photo_reference": "ATtYBwKnfwJ8pJLJs5KBuvmQTku25UtI_4LjdESvmhom6Qp1SSgzJWxlB9juQLhTXl9VGL8rMufrctxNuwLPwq2QO2sByic0ax-1VzkOJzTW48SoNhdbNDE6g6iazk14cCnPqO2At3g7Rm9Br1_1EYVH06naWjnrs6k8bA4WV9m8tBUmBZd7", "width": 3456, "html_attributions": ["<a href=\"https://maps.google.com/maps/contrib/105889207419402163815\">Abhishek Aggarwal</a>"], "height": 4608}], "scope": "GOOGLE", "business_status": "CLOSED_TEMPORARILY", "types": ["secondary_school", "school", "gym", "health", "point_of_interest", "establishment"], "icon": "https://maps.gstatic.com/mapfiles/place_api/icons/v1/png_71/generic_business-71.png"}, {"permanently_closed": true, "name": "\u0645\u062f\u0631\u0633\u0629 \u0631\u064a\u062a\u0627\u0644", "reference": "ChIJBd168bYYDTkR_9jrPowFRzw", "geometry": {"location": {"lat": 28.4476564, "lng": 77.0949014}, "viewport": {"northeast": {"lat": 28.4489950802915, "lng": 77.09626488029151}, "southwest": {"lat": 28.4462971197085, "lng": 77.0935669197085}}}, "place_id": "ChIJBd168bYYDTkR_9jrPowFRzw", "plus_code": {"global_code": "7JWVC3XV+3X", "compound_code": "C3XV+3X Gurugram, Haryana, India"}, "vicinity": "Club Drive Road, DLF Phase 5, Sector 53, Gurugram", "scope": "GOOGLE", "business_status": "CLOSED_TEMPORARILY", "types": ["school", "point_of_interest", "establishment"], "icon": "https://maps.gstatic.com/mapfiles/place_api/icons/v1/png_71/school-71.png"}, {"rating": 5, "user_ratings_total": 1, "permanently_closed": true, "name": "Human Rhythms India", "reference": "ChIJx-VTXLYYDTkRLYhsd6lEna8", "geometry": {"location": {"lat": 28.448002, "lng": 77.0947125}, "viewport": {"northeast": {"lat": 28.4494376802915, "lng": 77.09615248029151}, "southwest": {"lat": 28.44673971970849, "lng": 77.0934545197085}}}, "place_id": "ChIJx-VTXLYYDTkRLYhsd6lEna8", "plus_code": {"global_code": "7JWVC3XV+6V", "compound_code": "C3XV+6V Gurugram, Haryana, India"}, "vicinity": "A191 Trinity towers, DLF Phase V, Gurugram", "scope": "GOOGLE", "business_status": "CLOSED_TEMPORARILY", "types": ["school", "point_of_interest", "establishment"], "icon": "https://maps.gstatic.com/mapfiles/place_api/icons/v1/png_71/school-71.png"}]}