{"status": "OK", "next_page_token": "ATtYBwIKYBpuq2op5baVDpluMC1W15xMsEKCwKt2vjxcZLJ23EOi1kuX7eisH8pBoS5p1Yq74kBSalN3OxAgA0VPHela1MZsKT-pUP8w-YDjl7TYj5GtJuDm8qBRUiRD_sDGq3PsQ4NOnpL1vgUpEvNQDwPU220PmN39fgj4dYafvdyR1hFGLZvv7PxBy3-kkQHOw_ATiv_n148JlUQ71aAxACYY4mgRUyJuJ2mSUQEcjC36WXs9zize7zqZkfh8FHVa-tihqKV5K99_B9HHQkaHlw6uqy0_XFw9mXARepzfHHhrcH5VAgMljkn5gXgqWs26_njNqVQyw-SuFvvpIebaN17MpNXiX8irQtVlo5WAla9hu6B9C1Q3QxLQTQKt-LgjoF4pQaoJlpQMpbqw2Gb0Vk7bL5ZyzY_tB1zox3ZYDTYNsaH2T3dBH8cB1mN5SsEqNxQkp1rdk1l360JM2geQY4jmR5n6hOqnnanynyxIjWKLgKT4SAhnbPnu8644Jwc1mQeAvIlH07z27fIA4oAkazYpCrbUhZxrdN811W-4LjoGYwX1OU6wWy4Z09NPRkNHwXawd8ya2eqvNoI4wDMoqBWu361iwG3_0dKL28EdVGYmNrzRJQjm08h-TwQ9qM3s79I", "html_attributions": [], "results": [{"rating": 3.4, "user_ratings_total": 12, "name": "Disha Academy", "reference": "ChIJl3kS04cDDTkRsmqoeq0tx3A", "geometry": {"location": {"lat": 28.6695577, "lng": 77.1051769}, "viewport": {"northeast": {"lat": 28.6708472302915, "lng": 77.1065433802915}, "southwest": {"lat": 28.6681492697085, "lng": 77.10384541970849}}}, "opening_hours": {"open_now": false}, "place_id": "ChIJl3kS04cDDTkRsmqoeq0tx3A", "plus_code": {"global_code": "7JWVM494+R3", "compound_code": "M494+R3 Delhi, India"}, "vicinity": "B2, Road Number 30, Paschim Vihar, Delhi", "scope": "GOOGLE", "business_status": "OPERATIONAL", "types": ["school", "point_of_interest", "establishment"], "icon": "https://maps.gstatic.com/mapfiles/place_api/icons/v1/png_71/school-71.png"}, {"rating": 5, "user_ratings_total": 24, "name": "Heritage Academy for English, History, Political Science & Social Science", "reference": "ChIJO8KbuYkDDTkRKjSZPWh0egg", "geometry": {"location": {"lat": 28.6734218, "lng": 77.10405449999999}, "viewport": {"northeast": {"lat": 28.6747811302915, "lng": 77.10540603029152}, "southwest": {"lat": 28.6720831697085, "lng": 77.1027080697085}}}, "opening_hours": {"open_now": false}, "place_id": "ChIJO8KbuYkDDTkRKjSZPWh0egg", "plus_code": {"global_code": "7JWVM4F3+9J", "compound_code": "M4F3+9J Delhi, India"}, "vicinity": "A6/282-D, DDA Flats, Paschim Vihar, Delhi", "photos": [{"photo_reference": "ATtYBwLLc5DkchZWqk-Dor1nIFDkiYMbInvjiRk6zsHQQNPaj5snyAGEO85CFtMdNz1QsampvbGFZerCdYbLgcpFidcOFxe4KNO0ls1a_wOAlMmqhSanXOYjF-z2eKonmTmi3YAsMhMal7C0x_tcLq79RqW301inkdH7ow0OIIUWbsirS4I0", "width": 700, "html_attributions": ["<a href=\"https://maps.google.com/maps/contrib/112706525634239051273\">Heritage Academy for English, History, Political Science &amp; Social Science</a>"], "height": 513}], "scope": "GOOGLE", "business_status": "OPERATIONAL", "types": ["school", "point_of_interest", "establishment"], "icon": "https://maps.gstatic.com/mapfiles/place_api/icons/v1/png_71/school-71.png"}, {"rating": 5, "user_ratings_total": 3, "name": "Listening Ears", "reference": "ChIJ-dVkd2oDDTkRVaysrj75vF8", "geometry": {"location": {"lat": 28.66466209999999, "lng": 77.1005716}, "viewport": {"northeast": {"lat": 28.6660565802915, "lng": 77.1019060802915}, "southwest": {"lat": 28.6633586197085, "lng": 77.09920811970848}}}, "opening_hours": {"open_now": false}, "place_id": "ChIJ-dVkd2oDDTkRVaysrj75vF8", "plus_code": {"global_code": "7JWVM472+V6", "compound_code": "M472+V6 New Delhi, Delhi, India"}, "vicinity": "B3, 14, B 3 Block, Paschim Vihar, New Delhi", "scope": "GOOGLE", "business_status": "OPERATIONAL", "types": ["school", "point_of_interest", "establishment"], "icon": "https://maps.gstatic.com/mapfiles/place_api/icons/v1/png_71/school-71.png"}, {"rating": 5, "user_ratings_total": 2, "permanently_closed": true, "name": "Gyan Bharati Public School", "reference": "ChIJPe3OgXoEDTkRLBIzNFzPuEE", "geometry": {"location": {"lat": 28.6687646, "lng": 77.09365009999999}, "viewport": {"northeast": {"lat": 28.67010498029149, "lng": 77.09507023029151}, "southwest": {"lat": 28.6674070197085, "lng": 77.09237226970849}}}, "place_id": "ChIJPe3OgXoEDTkRLBIzNFzPuEE", "plus_code": {"global_code": "7JWVM39V+GF", "compound_code": "M39V+GF Delhi, India"}, "vicinity": "A-Block, Shubham Enclave, Reserve Bank Enclave, Paschim Vihar, Delhi", "scope": "GOOGLE", "business_status": "CLOSED_TEMPORARILY", "types": ["school", "point_of_interest", "establishment"], "icon": "https://maps.gstatic.com/mapfiles/place_api/icons/v1/png_71/school-71.png"}, {"rating": 4.8, "user_ratings_total": 4, "permanently_closed": true, "name": "Shri Ram Pre School", "reference": "ChIJXd2MeHAEDTkRA95FTLu2rRs", "geometry": {"location": {"lat": 28.668879, "lng": 77.09335}, "viewport": {"northeast": {"lat": 28.6702155802915, "lng": 77.09460693029152}, "southwest": {"lat": 28.6675176197085, "lng": 77.0919089697085}}}, "place_id": "ChIJXd2MeHAEDTkRA95FTLu2rRs", "plus_code": {"global_code": "7JWVM39V+H8", "compound_code": "M39V+H8 Delhi, India"}, "vicinity": "Shubham Enclave, Reserve Bank Enclave, Paschim Vihar, Delhi", "photos": [{"photo_reference": "ATtYBwLaoKPlk0e9aPmQq2zxgjPtfPn1wtSCFY6E67eAgWWvL3I1PUg-bQsSQLMk53vLSDR3oORGW9z5ZSaFuc3meOa2unicNfVugTaX3YSt5O_uFO0gpSKbvUSthJKzmgh6LAGyNaHK2JAK5vd46KO84MbB8SjbJiz9Wx8XbDTM2OmKue9j", "width": 1280, "html_attributions": ["<a href=\"https://maps.google.com/maps/contrib/101722164228855346502\">happy jha</a>"], "height": 720}], "scope": "GOOGLE", "business_status": "CLOSED_TEMPORARILY", "types": ["school", "point_of_interest", "establishment"], "icon": "https://maps.gstatic.com/mapfiles/place_api/icons/v1/png_71/school-71.png"}, {"rating": 1, "user_ratings_total": 1, "permanently_closed": true, "name": "Language in Hand", "reference": "ChIJmfgNH4YDDTkRy8mhf-h8ylE", "geometry": {"location": {"lat": 28.669879, "lng": 77.106917}, "viewport": {"northeast": {"lat": 28.6712308302915, "lng": 77.1082650302915}, "southwest": {"lat": 28.6685328697085, "lng": 77.1055670697085}}}, "place_id": "ChIJmfgNH4YDDTkRy8mhf-h8ylE", "vicinity": "Shop No. 29, Ground Floor, Tara Bhawan Complex, Matke Wali Gali,, Jwala Heri Market, Paschim Vihar, New Delhi-110063, New Delhi", "scope": "GOOGLE", "business_status": "CLOSED_TEMPORARILY", "types": ["secondary_school", "school", "point_of_interest", "establishment"], "icon": "https://maps.gstatic.com/mapfiles/place_api/icons/v1/png_71/school-71.png"}, {"rating": 4.4, "user_ratings_total": 11, "permanently_closed": true, "name": "Shri Ram Global Preschool - Paschim Vihar (Best Preschool in Paschim Vihar)", "reference": "ChIJW8qXhXoEDTkRHq5HpjyMx0c", "geometry": {"location": {"lat": 28.6685888, "lng": 77.0931403}, "viewport": {"northeast": {"lat": 28.66993693029151, "lng": 77.09449483029151}, "southwest": {"lat": 28.66723896970851, "lng": 77.0917968697085}}}, "place_id": "ChIJW8qXhXoEDTkRHq5HpjyMx0c", "plus_code": {"global_code": "7JWVM39V+C7", "compound_code": "M39V+C7 Delhi, India"}, "vicinity": "A-14, Shubham Enclave, Paschim Vihar, Delhi", "photos": [{"photo_reference": "ATtYBwKr0DOnyZ3n1aNGuXF23hqiUWIq2QB4pX_lU4j6ue2WHDwS6lXVUpuwyIaKim77sDf9-cHxxQamHl1Sb1Wct_aRENI-9B8eFNAHb-25WPZB6mnlSigxmX3rsh-6uQwYvTK_xCRXYYLXv8LEwseQFoKKSRhrDg1i3bFlPFExPoxm4Ni_", "width": 4208, "html_attributions": ["<a href=\"https://maps.google.com/maps/contrib/118341803009958161201\">Deepti Tandon</a>"], "height": 3120}], "scope": "GOOGLE", "business_status": "CLOSED_TEMPORARILY", "types": ["school", "point_of_interest", "establishment"], "icon": "https://maps.gstatic.com/mapfiles/place_api/icons/v1/png_71/school-71.png"}, {"rating": 5, "user_ratings_total": 1, "name": "Advanced Institute Of Commerce", "reference": "ChIJI6rT62MEDTkRXqKjb21ceUU", "geometry": {"location": {"lat": 28.6691255, "lng": 77.0928656}, "viewport": {"northeast": {"lat": 28.6704646302915, "lng": 77.09411648029149}, "southwest": {"lat": 28.6677666697085, "lng": 77.09141851970848}}}, "opening_hours": {"open_now": false}, "place_id": "ChIJI6rT62MEDTkRXqKjb21ceUU", "plus_code": {"global_code": "7JWVM39V+M4", "compound_code": "M39V+M4 New Delhi, Delhi, India"}, "vicinity": "Paschim Vihar, New Delhi", "photos": [{"photo_reference": "ATtYBwJlUwVooMUVL787IZMV_KStuoQtYWjBUis5pnp8bnHC95Y-eCn8FCT6mJO4V3bDvd_NgfsXi24FEC9m3pxX_qp30byR8lEKCXJ6vc9W2HlHHyylLkbuoTpDnCmGNWLfkDsMUXNRBIYI69qZnRjvm9ve28ktFQayb7T_gHfcVSVKuAGC", "width": 720, "html_attributions": ["<a href=\"https://maps.google.com/maps/contrib/118111475552302247453\">Rizwan Khan</a>"], "height": 478}], "scope": "GOOGLE", "business_status": "OPERATIONAL", "types": ["school", "point_of_interest", "establishment"], "icon": "https://maps.gstatic.com/mapfiles/place_api/icons/v1/png_71/school-71.png"}, {"rating": 4.5, "user_ratings_total": 10, "name": "Bhatnagar International Summit, Paschim Vihar", "reference": "ChIJ4zAza3QEDTkRVYrWc92Jepg", "geometry": {"location": {"lat": 28.6763541, "lng": 77.0978873}, "viewport": {"northeast": {"lat": 28.6777052802915, "lng": 77.09921263029152}, "southwest": {"lat": 28.6750073197085, "lng": 77.0965146697085}}}, "place_id": "ChIJ4zAza3QEDTkRVYrWc92Jepg", "plus_code": {"global_code": "7JWVM3GX+G5", "compound_code": "M3GX+G5 Delhi, India"}, "vicinity": "A-1/74, A1 Block Paschim Vihar, Krishna Apartment, Paschim Vihar, Delhi", "scope": "GOOGLE", "business_status": "OPERATIONAL", "types": ["school", "point_of_interest", "establishment"], "icon": "https://maps.gstatic.com/mapfiles/place_api/icons/v1/png_71/school-71.png"}, {"rating": 4.6, "user_ratings_total": 50, "name": "Saplings PreSchool", "reference": "ChIJNYEjdnQEDTkRG-IpE3yxkCc", "geometry": {"location": {"lat": 28.6767573, "lng": 77.096768}, "viewport": {"northeast": {"lat": 28.6781136302915, "lng": 77.09804553029151}, "southwest": {"lat": 28.6754156697085, "lng": 77.0953475697085}}}, "opening_hours": {"open_now": false}, "place_id": "ChIJNYEjdnQEDTkRG-IpE3yxkCc", "plus_code": {"global_code": "7JWVM3GW+PP", "compound_code": "M3GW+PP Delhi, India"}, "vicinity": "A-1/254, Doctor Major Ashwini Kanwa Marg, A1 Block Paschim Vihar, Krishna Apartment, Paschim Vihar, Delhi", "photos": [{"photo_reference": "ATtYBwKVA81iz1SdRVEesin1LQLj7WE1WtAPyytjLyxhssn8xxiTSLOvFI-U-kocmSu8tT0-HLAhip2X29LO1FUAKESnXD55BCUzGrxItvTRyXoS1n6d0CtoB7bxlTYNGUG1UZosQivYH_GO01dc1TldkZ7wgY8xEHZa-Ay4isPCC3IolDl-", "width": 4160, "html_attributions": ["<a href=\"https://maps.google.com/maps/contrib/116554405021756574348\">Rajat Kumar</a>"], "height": 3120}], "scope": "GOOGLE", "business_status": "OPERATIONAL", "types": ["school", "point_of_interest", "establishment"], "icon": "https://maps.gstatic.com/mapfiles/place_api/icons/v1/png_71/school-71.png"}, {"rating": 4, "user_ratings_total": 52, "name": "St Matthew's Public School", "reference": "ChIJc20gQokDDTkRTv-ZSSkVjwE", "geometry": {"location": {"lat": 28.6739959, "lng": 77.1070754}, "viewport": {"northeast": {"lat": 28.6753448802915, "lng": 77.10842438029151}, "southwest": {"lat": 28.6726469197085, "lng": 77.1057264197085}}}, "opening_hours": {"open_now": false}, "place_id": "ChIJc20gQokDDTkRTv-ZSSkVjwE", "plus_code": {"global_code": "7JWVM4F4+HR", "compound_code": "M4F4+HR New Delhi, Delhi, India"}, "vicinity": "A-6, Paschim Vihar, New Delhi", "photos": [{"photo_reference": "ATtYBwL9bjT0-YZg_mruJwEh4myUdr8dSonxqTLsKBZ9_FYY_iw-83RHgbCSCz1RTK9BwYbSMvN6q7oOWYcF_ub_5HMdUMsTnCtaxBx5rLS_NZV9rTdn-b12kEaKPtFue1u2LTorC-ry47Yf9sI1asb4QTceWow6gSoBouf7Ww51RtsuwmWi", "width": 992, "html_attributions": ["<a href=\"https://maps.google.com/maps/contrib/116479556514877827304\">Akash Parui</a>"], "height": 555}], "scope": "GOOGLE", "business_status": "OPERATIONAL", "types": ["school", "point_of_interest", "establishment"], "icon": "https://maps.gstatic.com/mapfiles/place_api/icons/v1/png_71/school-71.png"}, {"rating": 4.6, "user_ratings_total": 28, "permanently_closed": true, "name": "G.D. Goenka La Petite Play School", "reference": "ChIJZcFlO2QEDTkR_qHfr6lUREA", "geometry": {"location": {"lat": 28.6634069, "lng": 77.104108}, "viewport": {"northeast": {"lat": 28.66476043029149, "lng": 77.10547448029149}, "southwest": {"lat": 28.6620624697085, "lng": 77.10277651970848}}}, "place_id": "ChIJZcFlO2QEDTkR_qHfr6lUREA", "plus_code": {"global_code": "7JWVM473+9J", "compound_code": "M473+9J New Delhi, Delhi, India"}, "vicinity": "Near BSES office, Block BG 7, Paschim Vihar, New Delhi", "photos": [{"photo_reference": "ATtYBwKzXnt9YFHLQD0wiKkSKZfRBEc2VUPlDpcrcU0_ytPBTYhQgtWmtPC6EychoojeWpebLcC7GU9GF00tNSlZARGmexEshabNIu64cGFpfWoxVt176HpvOISabhnjFZxEr2Ox0A1oDqqa63xqKAOl-C0fEfPBFHr5V3W3W0LHE4Qq-LkW", "width": 1280, "html_attributions": ["<a href=\"https://maps.google.com/maps/contrib/112820358246199948934\">Surbhi Sachdeva</a>"], "height": 960}], "scope": "GOOGLE", "business_status": "CLOSED_TEMPORARILY", "types": ["school", "point_of_interest", "establishment"], "icon": "https://maps.gstatic.com/mapfiles/place_api/icons/v1/png_71/school-71.png"}, {"rating": 5, "user_ratings_total": 31, "permanently_closed": true, "name": "Nest pre School-Paschim Vihar branch", "reference": "ChIJMwn_74UDDTkRuFhYC_MGfcg", "geometry": {"location": {"lat": 28.66984899999999, "lng": 77.10878799999999}, "viewport": {"northeast": {"lat": 28.67109723029149, "lng": 77.11017143029149}, "southwest": {"lat": 28.66839926970849, "lng": 77.10747346970848}}}, "place_id": "ChIJMwn_74UDDTkRuFhYC_MGfcg", "plus_code": {"global_code": "7JWVM495+WG", "compound_code": "M495+WG Delhi, India"}, "vicinity": "B-1/155, B 1 Block, Paschim Vihar, Delhi", "photos": [{"photo_reference": "ATtYBwJyzkh1U3hQy4tuqlrfubJu6wTjFhspvidFWRvzytKAMNX7YJ8tg20-U8NJpXDYRHSNXg3CLy5_h5MkSW4-nDlX1_ISQYJ4KQ89-Wb2J1b8SlAnreBkXQNkkk2xYPPksBQ8fD6LNs9kN1Zle8-15Pz2LL4IoWR8nbsBwt9yBUS3fNwN", "width": 2048, "html_attributions": ["<a href=\"https://maps.google.com/maps/contrib/105737069770997042226\">Nest International School-Paschim Vihar branch</a>"], "height": 1536}], "scope": "GOOGLE", "business_status": "CLOSED_TEMPORARILY", "types": ["school", "point_of_interest", "establishment"], "icon": "https://maps.gstatic.com/mapfiles/place_api/icons/v1/png_71/school-71.png"}, {"rating": 3.7, "user_ratings_total": 159, "permanently_closed": true, "name": "Neo Convent Senior Secondary School", "reference": "ChIJveFYDngEDTkRg1I0WuV-o14", "geometry": {"location": {"lat": 28.6623128, "lng": 77.0972086}, "viewport": {"northeast": {"lat": 28.66377838029149, "lng": 77.09868803029151}, "southwest": {"lat": 28.6610804197085, "lng": 77.0959900697085}}}, "place_id": "ChIJveFYDngEDTkRg1I0WuV-o14", "plus_code": {"global_code": "7JWVM36W+WV", "compound_code": "M36W+WV Delhi, India"}, "vicinity": "G-17 Area, Paschim Vihar, Delhi", "photos": [{"photo_reference": "ATtYBwIoybaQK0i0kM9ibBPpB2dYPErVFGh8SIYt4Yurbg9fXW7qiNkDKL7w1AZ6qX2AlvQXJZ5YRgf8DQY-swgAEiA1EHLO8ssLyfqDvRIXYhuYwTNxxO8FYUm39duk0FJcC5UstwJoOdjdDnS1ar3MQYTJXzXXIRJ-sIEuWB5GBXLChh7n", "width": 4128, "html_attributions": ["<a href=\"https://maps.google.com/maps/contrib/114283729525526139226\">Jatinder Gaba</a>"], "height": 3096}], "scope": "GOOGLE", "business_status": "CLOSED_TEMPORARILY", "types": ["school", "point_of_interest", "establishment"], "icon": "https://maps.gstatic.com/mapfiles/place_api/icons/v1/png_71/school-71.png"}, {"rating": 4.9, "user_ratings_total": 52, "name": "Dew Drops Child HealthCare - ABA centre Delhi", "reference": "ChIJHwAAEHMEDTkRZnp_CW8pQBU", "geometry": {"location": {"lat": 28.67038729999999, "lng": 77.1092978}, "viewport": {"northeast": {"lat": 28.6717482802915, "lng": 77.11064268029149}, "southwest": {"lat": 28.6690503197085, "lng": 77.10794471970848}}}, "opening_hours": {"open_now": false}, "place_id": "ChIJHwAAEHMEDTkRZnp_CW8pQBU", "plus_code": {"global_code": "7JWVM4C5+5P", "compound_code": "M4C5+5P New Delhi, Delhi, India"}, "vicinity": "East Metro Station, near, B-1/252 Ground Floor, near Ram Mandir B block park, Paschim Vihar, New Delhi", "photos": [{"photo_reference": "ATtYBwI89Piu1NnkqdIcPDx2CmEq6grlcldzXAEOODlLu8VubpWYvv8ySHWCh1WZv_o1dV85gkB4jI4kGHNvdH_ektDZqcmBBqqYrH05KqOAgj9iiDtX9y9j83FsnEPHRXJLoinnMg8-Pm7bQNGrSP6EvvFfhgDEWCR8PGJPN9RYcPTLR6BU", "width": 4928, "html_attributions": ["<a href=\"https://maps.google.com/maps/contrib/107747662770347652244\">Dew Drops Child HealthCare - ABA centre Delhi</a>"], "height": 3264}], "scope": "GOOGLE", "business_status": "OPERATIONAL", "types": ["school", "health", "point_of_interest", "establishment"], "icon": "https://maps.gstatic.com/mapfiles/place_api/icons/v1/png_71/generic_business-71.png"}, {"rating": 4.7, "user_ratings_total": 105, "name": "Mother's Pride Paschim Vihar", "reference": "ChIJL6I0GXsEDTkRwNIepEXcQ78", "geometry": {"location": {"lat": 28.6644119, "lng": 77.09251379999999}, "viewport": {"northeast": {"lat": 28.6657676802915, "lng": 77.0938075802915}, "southwest": {"lat": 28.66306971970851, "lng": 77.09110961970848}}}, "opening_hours": {"open_now": false}, "place_id": "ChIJL6I0GXsEDTkRwNIepEXcQ78", "plus_code": {"global_code": "7JWVM37V+Q2", "compound_code": "M37V+Q2 Delhi, India"}, "vicinity": "G-10, Pushkar Enclave, Paschim Vihar, Delhi", "photos": [{"photo_reference": "ATtYBwJTb54ria0UXC2c0LVGEPt6VT9ASF5VgLPn2rjBSj_VnQ4GtSf8qYblFxOWB3qFWta3pBNd7y3PZSwIrP1daLY3xYVwLzmpZQ-kgywRHtLSaPQMLU4SvG41pmQQe7rjYSnWpVUew5DkZXYvOYBCAfR3ao-OnwkJPynK0gRgLaFehH0f", "width": 1360, "html_attributions": ["<a href=\"https://maps.google.com/maps/contrib/114531246261230166075\">Mother&#39;s Pride Paschim Vihar</a>"], "height": 2048}], "scope": "GOOGLE", "business_status": "OPERATIONAL", "types": ["school", "point_of_interest", "establishment"], "icon": "https://maps.gstatic.com/mapfiles/place_api/icons/v1/png_71/school-71.png"}, {"permanently_closed": true, "name": "Maa Sharnam", "reference": "ChIJKeHcpoYDDTkRn0Rmx79IIak", "geometry": {"location": {"lat": 28.6654614, "lng": 77.1079716}, "viewport": {"northeast": {"lat": 28.6668229802915, "lng": 77.10936723029151}, "southwest": {"lat": 28.6641250197085, "lng": 77.1066692697085}}}, "place_id": "ChIJKeHcpoYDDTkRn0Rmx79IIak", "plus_code": {"global_code": "7JWVM485+55", "compound_code": "M485+55 Delhi, India"}, "vicinity": "B-2, Paschim Vihar,, Delhi", "scope": "GOOGLE", "business_status": "CLOSED_TEMPORARILY", "types": ["school", "health", "point_of_interest", "establishment"], "icon": "https://maps.gstatic.com/mapfiles/place_api/icons/v1/png_71/school-71.png"}, {"rating": 2.3, "user_ratings_total": 6, "name": "I Care Learning School", "reference": "ChIJ_4-kgXQEDTkRjmW5VEZT2g8", "geometry": {"location": {"lat": 28.677975, "lng": 77.096879}, "viewport": {"northeast": {"lat": 28.6793315302915, "lng": 77.0981631802915}, "southwest": {"lat": 28.6766335697085, "lng": 77.09546521970849}}}, "opening_hours": {"open_now": false}, "place_id": "ChIJ_4-kgXQEDTkRjmW5VEZT2g8", "plus_code": {"global_code": "7JWVM3HW+5Q", "compound_code": "M3HW+5Q Delhi, India"}, "vicinity": "27, Kanva, Doctor Major Ashwini Kanwa Marg, Block A 1, Paschim Vihar, Delhi", "scope": "GOOGLE", "business_status": "OPERATIONAL", "types": ["school", "health", "point_of_interest", "establishment"], "icon": "https://maps.gstatic.com/mapfiles/place_api/icons/v1/png_71/school-71.png"}, {"rating": 4.3, "user_ratings_total": 6, "permanently_closed": true, "name": "iit delhi", "reference": "ChIJFUVE8HQEDTkRZTsF4BzLl4g", "geometry": {"location": {"lat": 28.6785954, "lng": 77.0986435}, "viewport": {"northeast": {"lat": 28.67990903029149, "lng": 77.0999878302915}, "southwest": {"lat": 28.67721106970849, "lng": 77.09728986970849}}}, "place_id": "ChIJFUVE8HQEDTkRZTsF4BzLl4g", "plus_code": {"global_code": "7JWVM3HX+CF", "compound_code": "M3HX+CF Delhi, India"}, "vicinity": "A-1/14, Rohtak Road, A1 Block Paschim Vihar, Block A, Paschim Vihar, Delhi", "photos": [{"photo_reference": "ATtYBwK3PyM6y1G5SBNVV7e5K05CIXemC3QFXtcjTaZOE65YuRaDVhOlGVJrYi9ZAa5gx-wNqWAiuDRV9O3nVxRwsW2tjYEIf0Uzbk50ElOesorJtJPZwo2QNyG8OLVwqsSh0uyqjv3jvjMoDj5xy0ofUjgUyyL3JnZIErl5e9eCYFoXDr9m", "width": 1170, "html_attributions": ["<a href=\"https://maps.google.com/maps/contrib/117432994469868742987\">Rahul Srivastava</a>"], "height": 877}], "scope": "GOOGLE", "business_status": "CLOSED_TEMPORARILY", "types": ["school", "point_of_interest", "establishment"], "icon": "https://maps.gstatic.com/mapfiles/place_api/icons/v1/png_71/school-71.png"}, {"permanently_closed": true, "name": "Euro kids", "reference": "ChIJ8b3BuIUDDTkRNi-I0vW0fW8", "geometry": {"location": {"lat": 28.6684262, "lng": 77.1098695}, "viewport": {"northeast": {"lat": 28.6698293802915, "lng": 77.1111739302915}, "southwest": {"lat": 28.6671314197085, "lng": 77.1084759697085}}}, "place_id": "ChIJ8b3BuIUDDTkRNi-I0vW0fW8", "plus_code": {"global_code": "7JWVM495+9W", "compound_code": "M495+9W Delhi, India"}, "vicinity": "B-1/251, B-1/251, Delhi", "scope": "GOOGLE", "business_status": "CLOSED_TEMPORARILY", "types": ["school", "point_of_interest", "establishment"], "icon": "https://maps.gstatic.com/mapfiles/place_api/icons/v1/png_71/school-71.png"}]}