{"status": "OK", "next_page_token": "ATtYBwJeQW6t8fJC53BvVgMsjMuwJSdXJYd3bgbGgOBU2x3Vg3xvb5APoKOM07jfRAzkMCdbjC9AxtbnKk-3wFftp8wxhJmULUOdvqYixMi6yNarR7VgL8cnfUoLua1pnekT5MiJU41h86X9H2cPex37BOD6_-8RWqTCw9_RIX19ahlAsn-Jg_srchQj5bY4rcX0D6beEW9hUBvWZ1_GkdydIKwcV6R-75ia-8nDVMHcZb5EHQJWAXK2D59i087uBvngcbvLOMHJwCEqU9asWOuwfA97XLZGVGbi7j4gWFtlm6cOx0ZKobZ628lhyLrMLTfe-J5jYeWJjAyLcmWHp5jxFmK92YPdpOzOJO2oqv1OxahfKoCoy866HemYYlUzXH6HHTb6vNHGkdfoSJULlM6n154d4YMNjK06G1SqBe_uh_JRjA", "html_attributions": [], "results": [{"rating": 3.3, "user_ratings_total": 31, "name": "Mother's Pride Rohini Sector 5", "reference": "ChIJO9HoH1MBDTkRZHOkmphDA8o", "geometry": {"location": {"lat": 28.71286420000001, "lng": 77.1040305}, "viewport": {"northeast": {"lat": 28.7141435302915, "lng": 77.10545203029149}, "southwest": {"lat": 28.7114455697085, "lng": 77.10275406970848}}}, "opening_hours": {"open_now": false}, "place_id": "ChIJO9HoH1MBDTkRZHOkmphDA8o", "plus_code": {"global_code": "7JWVP473+4J", "compound_code": "P473+4J Delhi, India"}, "vicinity": "near Aggarwal Plaza, Pocket-A, Sector 5, Rohini, Delhi", "photos": [{"photo_reference": "ATtYBwKyM-R29LBSV-_uwx2qc0BVTbjxVLKCi3kYAJFUs3h93jq5a59I4XEdXkTSEVWXPFTUG6eNszYRpIvmz-49TPeD0l0ZwKcbDUH15qRaZURt4Sm0Du3Cf_NV3DtC4owZUZ6vfgePjAP39rPdmiwAacD1exlOptyt5q8fUpYBWE9lxwES", "width": 2048, "html_attributions": ["<a href=\"https://maps.google.com/maps/contrib/104664138927175211893\">Mother&#39;s Pride Rohini Sector 5</a>"], "height": 1389}], "scope": "GOOGLE", "business_status": "OPERATIONAL", "types": ["school", "point_of_interest", "establishment"], "icon": "https://maps.gstatic.com/mapfiles/place_api/icons/v1/png_71/school-71.png"}, {"rating": 3, "user_ratings_total": 4, "permanently_closed": true, "name": "Jay Pee Public School", "reference": "ChIJbVeVY6kGDTkRA5lQgq0PJJA", "geometry": {"location": {"lat": 28.7074013, "lng": 77.0965334}, "viewport": {"northeast": {"lat": 28.7086979802915, "lng": 77.0978577302915}, "southwest": {"lat": 28.7060000197085, "lng": 77.09515976970849}}}, "place_id": "ChIJbVeVY6kGDTkRA5lQgq0PJJA", "plus_code": {"global_code": "7JWVP34W+XJ", "compound_code": "P34W+XJ Delhi, India"}, "vicinity": "C-45,46, 40 Feet Road, Vijay Vihar Phase II, Rohini, Delhi", "scope": "GOOGLE", "business_status": "CLOSED_TEMPORARILY", "types": ["school", "point_of_interest", "establishment"], "icon": "https://maps.gstatic.com/mapfiles/place_api/icons/v1/png_71/school-71.png"}, {"rating": 3.3, "user_ratings_total": 35, "permanently_closed": true, "name": "Delhi International Public School", "reference": "ChIJuYf09awGDTkRnS4pISa1E2Y", "geometry": {"location": {"lat": 28.7112297, "lng": 77.09963619999999}, "viewport": {"northeast": {"lat": 28.7125410302915, "lng": 77.1009859302915}, "southwest": {"lat": 28.70984306970851, "lng": 77.09828796970848}}}, "place_id": "ChIJuYf09awGDTkRnS4pISa1E2Y", "plus_code": {"global_code": "7JWVP36X+FV", "compound_code": "P36X+FV Delhi, India"}, "vicinity": "Sector 9, Rohini, Delhi", "scope": "GOOGLE", "business_status": "CLOSED_TEMPORARILY", "types": ["school", "point_of_interest", "establishment"], "icon": "https://maps.gstatic.com/mapfiles/place_api/icons/v1/png_71/school-71.png"}, {"rating": 3.9, "user_ratings_total": 19, "permanently_closed": true, "name": "Govt Senior Secondary School", "reference": "ChIJdYSN_qkGDTkRNIyU6Pc23DU", "geometry": {"location": {"lat": 28.7036657, "lng": 77.09655579999999}, "viewport": {"northeast": {"lat": 28.7052113802915, "lng": 77.0980520302915}, "southwest": {"lat": 28.7025134197085, "lng": 77.09535406970849}}}, "place_id": "ChIJdYSN_qkGDTkRNIyU6Pc23DU", "plus_code": {"global_code": "7JWVP33W+FJ", "compound_code": "P33W+FJ Delhi, India"}, "vicinity": "Block B, Pocket C, Sector 1, Rohini, Delhi", "photos": [{"photo_reference": "ATtYBwLuJCI7L5IdctAxEH6gfMSFIWwMUJeZzB8Xes52-0cWwz6SnGJe0QC0Aok-BvxibgX1AuDwgzmp8AhBIotNI3vGnMmB4KA-rVYmgAA73HY5iYkf-vVZFuhmupaBCI-m6H0sPGjHNq7CIMlrVjR17sXAuZl23vUig3JJ6gY-P-Sp0Til", "width": 720, "html_attributions": ["<a href=\"https://maps.google.com/maps/contrib/100606432980486983771\">shahid ahamad</a>"], "height": 496}], "scope": "GOOGLE", "business_status": "CLOSED_TEMPORARILY", "types": ["school", "point_of_interest", "establishment"], "icon": "https://maps.gstatic.com/mapfiles/place_api/icons/v1/png_71/school-71.png"}, {"rating": 5, "user_ratings_total": 4, "permanently_closed": true, "name": "M.G. Public School", "reference": "ChIJs2iXXasGDTkRTzPUYvl43FI", "geometry": {"location": {"lat": 28.70916800000001, "lng": 77.101126}, "viewport": {"northeast": {"lat": 28.7105132302915, "lng": 77.10249818029152}, "southwest": {"lat": 28.7078152697085, "lng": 77.0998002197085}}}, "place_id": "ChIJs2iXXasGDTkRTzPUYvl43FI", "plus_code": {"global_code": "7JWVP452+MF", "compound_code": "P452+MF Delhi, India"}, "vicinity": "C-31, Vijay vihar phase-2, Sector 4, Rohini, Delhi", "scope": "GOOGLE", "business_status": "CLOSED_TEMPORARILY", "types": ["school", "point_of_interest", "establishment"], "icon": "https://maps.gstatic.com/mapfiles/place_api/icons/v1/png_71/school-71.png"}, {"rating": 3.3, "user_ratings_total": 3, "permanently_closed": true, "name": "Mount Abu Jr School", "reference": "ChIJN70yzawGDTkRj0b3bqfYdXg", "geometry": {"location": {"lat": 28.7118057, "lng": 77.102485}, "viewport": {"northeast": {"lat": 28.71317028029149, "lng": 77.1038474302915}, "southwest": {"lat": 28.7104723197085, "lng": 77.10114946970849}}}, "place_id": "ChIJN70yzawGDTkRj0b3bqfYdXg", "plus_code": {"global_code": "7JWVP462+PX", "compound_code": "P462+PX Delhi, India"}, "vicinity": "A2-1, Maharaja Agrasen Marg, Pocket 2, Sector 5A, Rohini, Delhi", "photos": [{"photo_reference": "ATtYBwIrNvEbSfIPPi7YQIpIJd_gfTzgXw_BruF1pnWoDT8IOUoZlE_73v4gPWL42vKsAH5ZwetV1qiSjFa-nR7IE7g1ZEPDZ7ofaYgris9WBKmAW-bB1GVAb7dNDnhR3U3ovVe_RpXnwASrySpFsB4oKlmqfj5X34tYYOpiEgj3lJ0mbjfY", "width": 3264, "html_attributions": ["<a href=\"https://maps.google.com/maps/contrib/114033165504061831992\">Siddharth Das</a>"], "height": 2448}], "scope": "GOOGLE", "business_status": "CLOSED_TEMPORARILY", "types": ["school", "point_of_interest", "establishment"], "icon": "https://maps.gstatic.com/mapfiles/place_api/icons/v1/png_71/school-71.png"}, {"rating": 4.5, "user_ratings_total": 4, "permanently_closed": true, "name": "Passionate Dance And Fitness Studio", "reference": "ChIJR1VVATEBDTkRxb1k8NJXvzM", "geometry": {"location": {"lat": 28.7093539, "lng": 77.1033893}, "viewport": {"northeast": {"lat": 28.7108020302915, "lng": 77.1048253802915}, "southwest": {"lat": 28.7081040697085, "lng": 77.1021274197085}}}, "place_id": "ChIJR1VVATEBDTkRxb1k8NJXvzM", "plus_code": {"global_code": "7JWVP453+P9", "compound_code": "P453+P9 Delhi, India"}, "vicinity": "B-6/95 , sector -11 Rohini Near Mother Dairy", "photos": [{"photo_reference": "ATtYBwJ0W6H09TMquuqmkPWGxZtuHkd1W80Vj_9RimKMz7IJIbfGPwoFFN3I1E4ROHyIG-6V6jag6Vo6_pVNji6lcvf5bJVq0nFu4lfzhRKy4jKVYFKPCfi8YimQbEBNi5nsHw2-1Zd0SplElaK7_SOlAM2ZXh1xn2Z-skw-Vp9QWUdAMLxR", "width": 4032, "html_attributions": ["<a href=\"https://maps.google.com/maps/contrib/106462899548274346366\">Deepak Dance</a>"], "height": 1856}], "scope": "GOOGLE", "business_status": "CLOSED_TEMPORARILY", "types": ["school", "gym", "health", "point_of_interest", "establishment"], "icon": "https://maps.gstatic.com/mapfiles/place_api/icons/v1/png_71/school-71.png"}, {"rating": 4.1, "user_ratings_total": 12, "permanently_closed": true, "name": "Bachpan Play School, Hargovind Nagar", "reference": "ChIJ9WcQ-aoGDTkRCisMP9rOpiY", "geometry": {"location": {"lat": 28.7070138, "lng": 77.10077969999999}, "viewport": {"northeast": {"lat": 28.7083563802915, "lng": 77.1022610302915}, "southwest": {"lat": 28.7056584197085, "lng": 77.09956306970848}}}, "place_id": "ChIJ9WcQ-aoGDTkRCisMP9rOpiY", "plus_code": {"global_code": "7JWVP442+R8", "compound_code": "P442+R8 Rohini, New Delhi, Delhi, India"}, "vicinity": "Near, Gurudwara A 26, Hargovind Vihar, Sector 4, Rohini, New Delhi", "scope": "GOOGLE", "business_status": "CLOSED_TEMPORARILY", "types": ["school", "point_of_interest", "establishment"], "icon": "https://maps.gstatic.com/mapfiles/place_api/icons/v1/png_71/school-71.png"}, {"rating": 3.4, "user_ratings_total": 61, "name": "Excellentcarsinc.com", "reference": "ChIJR1H_DK0GDTkRFo0rEapEFQE", "geometry": {"location": {"lat": 28.7135827, "lng": 77.0996596}, "viewport": {"northeast": {"lat": 28.7149290802915, "lng": 77.1009545302915}, "southwest": {"lat": 28.7122311197085, "lng": 77.0982565697085}}}, "place_id": "ChIJR1H_DK0GDTkRFo0rEapEFQE", "plus_code": {"global_code": "7JWVP37X+CV", "compound_code": "P37X+CV Delhi, India"}, "vicinity": "I block 174 vijay vihar phase 1 Rohini delhi, New Delhi", "photos": [{"photo_reference": "ATtYBwKumWSwOie9bITHNq6JmK9GVYpDy2bjECGcQoQszdZpTPD7S4teGrYAX3eGHF4K9J-1PYHokBtNsDg33-lKxJe_L_DGyZkptmoEv9uTBwUtms1MOaZrSP6-6CbJ0VqQeU_20tx5uI5Bg6yVKei5Xc_bBW-1wkUGvwvCykdIK0A18mpM", "width": 2448, "html_attributions": ["<a href=\"https://maps.google.com/maps/contrib/109009947706082326036\">Dhirendar Jha</a>"], "height": 3264}], "scope": "GOOGLE", "business_status": "OPERATIONAL", "types": ["school", "point_of_interest", "establishment"], "icon": "https://maps.gstatic.com/mapfiles/place_api/icons/v1/png_71/school-71.png"}, {"rating": 4.1, "user_ratings_total": 81, "name": "Mother Divine Public School", "reference": "ChIJA_Sod-MDDTkRf2DdMH6ZIxU", "geometry": {"location": {"lat": 28.7068138, "lng": 77.1035136}, "viewport": {"northeast": {"lat": 28.7081831302915, "lng": 77.1048334802915}, "southwest": {"lat": 28.7054851697085, "lng": 77.1021355197085}}}, "place_id": "ChIJA_Sod-MDDTkRf2DdMH6ZIxU", "plus_code": {"global_code": "7JWVP443+PC", "compound_code": "P443+PC Rohini, New Delhi, Delhi, India"}, "vicinity": "Mahanagar Telephone Nigam Ltd, Naharpur Village Road, Institutional Area, Sector 3, Rohini, New Delhi", "photos": [{"photo_reference": "ATtYBwKvMvQnQ3Z82WEbowx9GIqDa-bFLErrFd4HDkwMmCR0UJrepFQuzrzFG_woxTuA33TEawJ1e20FCebg4VOAqvMzTMUtqe-gf61OL_iuJiMz0-Ryf9_lxqTg7phW68D--4pJ-6IVpck4n_BzJF9efH97Ek9r-Uz1bgNmVQEBfzu9j07n", "width": 4496, "html_attributions": ["<a href=\"https://maps.google.com/maps/contrib/112486104170267476896\">Maan Singh</a>"], "height": 3000}], "scope": "GOOGLE", "business_status": "OPERATIONAL", "types": ["school", "point_of_interest", "establishment"], "icon": "https://maps.gstatic.com/mapfiles/place_api/icons/v1/png_71/school-71.png"}, {"rating": 3.3, "user_ratings_total": 57, "permanently_closed": true, "name": "Mother Divine Public School", "reference": "ChIJ-Rp9tVABDTkRvPhql_8rFnQ", "geometry": {"location": {"lat": 28.7067574, "lng": 77.10373899999999}, "viewport": {"northeast": {"lat": 28.7080298302915, "lng": 77.1050224302915}, "southwest": {"lat": 28.7053318697085, "lng": 77.10232446970849}}}, "place_id": "ChIJ-Rp9tVABDTkRvPhql_8rFnQ", "plus_code": {"global_code": "7JWVP443+PF", "compound_code": "P443+PF Delhi, India"}, "vicinity": "G 31, Avantika Road, Tota Ram Bazar, Rohini, Delhi", "photos": [{"photo_reference": "ATtYBwLiFNe4VZSjNQVETyKs3b8wIKYc41m8IvkG6ECwxktCiaWKioxZZzjbV9IKHhcJN2IsFZIhdR-gC-bZiUDuKHQWPhERp8uybIjs5eFOhdgmm51LYSbe0gOdLVS8oxSHTjGnfa7mlh1he4Is6s_JhI3QsIliPV3msrEGcHT1Oc4ivNP7", "width": 4160, "html_attributions": ["<a href=\"https://maps.google.com/maps/contrib/112874867013815885672\">strong concept</a>"], "height": 3120}], "scope": "GOOGLE", "business_status": "CLOSED_TEMPORARILY", "types": ["school", "point_of_interest", "establishment"], "icon": "https://maps.gstatic.com/mapfiles/place_api/icons/v1/png_71/school-71.png"}, {"permanently_closed": true, "name": "AMT", "reference": "ChIJVVVVFakGDTkRG5Ac1KlzKZY", "geometry": {"location": {"lat": 28.7076624, "lng": 77.095297}, "viewport": {"northeast": {"lat": 28.7090371802915, "lng": 77.0966580802915}, "southwest": {"lat": 28.7063392197085, "lng": 77.0939601197085}}}, "place_id": "ChIJVVVVFakGDTkRG5Ac1KlzKZY", "plus_code": {"global_code": "7JWVP35W+34", "compound_code": "P35W+34 Delhi, India"}, "vicinity": "C-100/, Vijay Vihar Phase II, Block E 7, Rohini, Delhi", "scope": "GOOGLE", "business_status": "CLOSED_TEMPORARILY", "types": ["school", "point_of_interest", "establishment"], "icon": "https://maps.gstatic.com/mapfiles/place_api/icons/v1/png_71/school-71.png"}, {"rating": 4, "user_ratings_total": 7, "permanently_closed": true, "name": "Seedling School", "reference": "ChIJ2Tu1DlMBDTkR13VTrbRGL8U", "geometry": {"location": {"lat": 28.7119045, "lng": 77.105004}, "viewport": {"northeast": {"lat": 28.7131742302915, "lng": 77.1062788802915}, "southwest": {"lat": 28.7104762697085, "lng": 77.10358091970849}}}, "place_id": "ChIJ2Tu1DlMBDTkR13VTrbRGL8U", "plus_code": {"global_code": "7JWVP464+Q2", "compound_code": "P464+Q2 Delhi, India"}, "vicinity": "near Canara Bank, A2, Sector 5, Rohini, Delhi", "photos": [{"photo_reference": "ATtYBwIkt02QzYUcEUU-Bx3smvL9R_-o--fMP-eN4GXjzZyfYxf3eJyh2wS5-oaQ8kMmND2qR4vldAqOXVl_fNxO_ZR6SK0aanodGC22b01-k7pVfBawtVRbhcfzWLPvdH9LBvLJDLTSDS6nVJHSF3mXw_GuhBwKX1nT8Lcm33fdxKgktc2g", "width": 4640, "html_attributions": ["<a href=\"https://maps.google.com/maps/contrib/110612351456446093310\">rishabh malhotra</a>"], "height": 2610}], "scope": "GOOGLE", "business_status": "CLOSED_TEMPORARILY", "types": ["school", "point_of_interest", "establishment"], "icon": "https://maps.gstatic.com/mapfiles/place_api/icons/v1/png_71/school-71.png"}, {"rating": 3, "user_ratings_total": 2, "permanently_closed": true, "name": "DIAS AERONAUTICAL", "reference": "ChIJQTsjOlUBDTkR2izyJAFzfq4", "geometry": {"location": {"lat": 28.7059562, "lng": 77.10330050000002}, "viewport": {"northeast": {"lat": 28.7073690802915, "lng": 77.10470493029152}, "southwest": {"lat": 28.7046711197085, "lng": 77.10200696970851}}}, "place_id": "ChIJQTsjOlUBDTkR2izyJAFzfq4", "plus_code": {"global_code": "7JWVP443+98", "compound_code": "P443+98 Pali, Haryana, India"}, "vicinity": "Plot No. 1, Hills Institutional Area, Sohna Pali Vpo, Pali Road, Bhatti Kalan, Pali", "photos": [{"photo_reference": "ATtYBwL6WvxdgbSHNn_3ybgXM-scXAOoCRcBpFPdaa_fbvB64p8X7n3xXNWN-syxDIIxHYjfbuabC9_A3hocdhyD_cmZeNXsuv4Mz8P5DFUYMrzf6uZQmDWuVart0kVNscwCAG1qP7clxmc0ita1HXene_Zugp-g3opA3Hazm95XZl1LJKbg", "width": 1140, "html_attributions": ["<a href=\"https://maps.google.com/maps/contrib/118419595188424337647\">Dias 1025</a>"], "height": 541}], "scope": "GOOGLE", "business_status": "CLOSED_TEMPORARILY", "types": ["school", "point_of_interest", "establishment"], "icon": "https://maps.gstatic.com/mapfiles/place_api/icons/v1/png_71/school-71.png"}, {"permanently_closed": true, "name": "Saraswati academy", "reference": "ChIJyak4saoGDTkRxeiLe6dxvUU", "geometry": {"location": {"lat": 28.7050592, "lng": 77.1020681}, "viewport": {"northeast": {"lat": 28.7063844302915, "lng": 77.10339838029151}, "southwest": {"lat": 28.7036864697085, "lng": 77.1007004197085}}}, "place_id": "ChIJyak4saoGDTkRxeiLe6dxvUU", "plus_code": {"global_code": "7JWVP442+2R", "compound_code": "P442+2R Delhi, India"}, "vicinity": "Saraswati Academy", "scope": "GOOGLE", "business_status": "CLOSED_TEMPORARILY", "types": ["school", "point_of_interest", "establishment"], "icon": "https://maps.gstatic.com/mapfiles/place_api/icons/v1/png_71/school-71.png"}, {"rating": 3.6, "user_ratings_total": 170, "name": "St. Giri Sr. Sec. School", "reference": "ChIJpYDRsaoGDTkR91P22W_bGtM", "geometry": {"location": {"lat": 28.70489910000001, "lng": 77.10180299999999}, "viewport": {"northeast": {"lat": 28.7062651302915, "lng": 77.10312708029151}, "southwest": {"lat": 28.7035671697085, "lng": 77.1004291197085}}}, "opening_hours": {"open_now": false}, "place_id": "ChIJpYDRsaoGDTkR91P22W_bGtM", "plus_code": {"global_code": "7JWVP432+XP", "compound_code": "P432+XP Delhi, India"}, "vicinity": "G27-14, Deenbandhu Chotooram Marg, Pocket G-27, Sector 3, Rohini, Delhi", "photos": [{"photo_reference": "ATtYBwKDrFqgOEPefkZbeNmljxmUfs0llZqbMQvwqR-NFVXWizCzNZbd9_akwWUUYTMsRi7_FrBvbvRBIYb8R1wlV4CQkun3b9mqsvGEQebWZCV1cnkEom5sjytLWhd5svbrrr3Mb78jbz1p6T5aSuAIgsAogLNhevbLdZS1RfsD79YZCtxG", "width": 4160, "html_attributions": ["<a href=\"https://maps.google.com/maps/contrib/112874867013815885672\">strong concept</a>"], "height": 3120}], "scope": "GOOGLE", "business_status": "OPERATIONAL", "types": ["school", "point_of_interest", "establishment"], "icon": "https://maps.gstatic.com/mapfiles/place_api/icons/v1/png_71/school-71.png"}, {"rating": 4.1, "user_ratings_total": 8, "permanently_closed": true, "name": "Twinkle Star Public School", "reference": "ChIJsZ0Dm7IGDTkRUJ0ClzG87kc", "geometry": {"location": {"lat": 28.71584789999999, "lng": 77.1004792}, "viewport": {"northeast": {"lat": 28.71724103029149, "lng": 77.1018277302915}, "southwest": {"lat": 28.71454306970849, "lng": 77.09912976970848}}}, "place_id": "ChIJsZ0Dm7IGDTkRUJ0ClzG87kc", "plus_code": {"global_code": "7JWVP482+85", "compound_code": "P482+85 Rohini, New Delhi, Delhi, India"}, "vicinity": "Rithala Road Vijay vihar Phase I Phase 1, Block B, Vijay Vihar, Rohini, New Delhi", "photos": [{"photo_reference": "ATtYBwIWjZls7SH28YYTbu35M9owa9m1rYuQU3_HgniXYRI0oDPWKlgbE1XvB2wCqFvqPjD4Oc4x20-8z2vToKWTZEd_nQyrAZihIVcmuDo7DAITt5uqUVcCcaenitCQYsfUdu8fcKWCH336tPghf2faN3UoiI51VmbDp-ozVoluWrzXBb13", "width": 3264, "html_attributions": ["<a href=\"https://maps.google.com/maps/contrib/103746031518633124659\">gopinath nair</a>"], "height": 2448}], "scope": "GOOGLE", "business_status": "CLOSED_TEMPORARILY", "types": ["school", "point_of_interest", "establishment"], "icon": "https://maps.gstatic.com/mapfiles/place_api/icons/v1/png_71/school-71.png"}, {"rating": 4.1, "user_ratings_total": 10, "permanently_closed": true, "name": "S.R Public School", "reference": "ChIJg_q1nK8GDTkRFl5GKW4Oo2k", "geometry": {"location": {"lat": 28.71195389999999, "lng": 77.0917204}, "viewport": {"northeast": {"lat": 28.7133044802915, "lng": 77.0931020302915}, "southwest": {"lat": 28.7106065197085, "lng": 77.0904040697085}}}, "place_id": "ChIJg_q1nK8GDTkRFl5GKW4Oo2k", "plus_code": {"global_code": "7JWVP36R+QM", "compound_code": "P36R+QM Delhi, India"}, "vicinity": "Y-1/9, Ch Gugan Singh Marg, Budh Vihar Phase I, Budh Vihar, Delhi", "photos": [{"photo_reference": "ATtYBwKAHjsVLtdQpondD9GG057WS_9kai6EMb6HrHpwSvgU59ugsxD5liHJJjCZfRbqrleFL4PUjPiPNZEGBncs-zPiqHZel_tUFks6vujZdIRhMVJyjqi1iirMu_n6LPwiP_4Zq_sMwe9Yg3qxDTBqPbapssNgpfFxmTRbcs2szBJnvn7v", "width": 3120, "html_attributions": ["<a href=\"https://maps.google.com/maps/contrib/113494751652538257897\">Rahul Vishvkarma</a>"], "height": 4160}], "scope": "GOOGLE", "business_status": "CLOSED_TEMPORARILY", "types": ["school", "point_of_interest", "establishment"], "icon": "https://maps.gstatic.com/mapfiles/place_api/icons/v1/png_71/school-71.png"}, {"rating": 5, "user_ratings_total": 1, "permanently_closed": true, "name": "Little Angel Public School", "reference": "ChIJmToOVVUBDTkRKSE5iwcMPQM", "geometry": {"location": {"lat": 28.70419269999999, "lng": 77.10262829999999}, "viewport": {"northeast": {"lat": 28.70546878029149, "lng": 77.1038667302915}, "southwest": {"lat": 28.70277081970849, "lng": 77.10116876970848}}}, "place_id": "ChIJmToOVVUBDTkRKSE5iwcMPQM", "plus_code": {"global_code": "7JWVP433+M3", "compound_code": "P433+M3 Delhi, India"}, "vicinity": "C Block Street No.9, C Block, Block C, Bhajanpura, Khazoori Khas, Delhi", "scope": "GOOGLE", "business_status": "CLOSED_TEMPORARILY", "types": ["school", "point_of_interest", "establishment"], "icon": "https://maps.gstatic.com/mapfiles/place_api/icons/v1/png_71/school-71.png"}, {"rating": 5, "user_ratings_total": 2, "permanently_closed": true, "name": "Hindi University", "reference": "ChIJVVVVVVUBDTkRIHw_lXwqE3U", "geometry": {"location": {"lat": 28.7040585, "lng": 77.1024588}, "viewport": {"northeast": {"lat": 28.7054160802915, "lng": 77.1037837302915}, "southwest": {"lat": 28.7027181197085, "lng": 77.10108576970849}}}, "place_id": "ChIJVVVVVVUBDTkRIHw_lXwqE3U", "plus_code": {"global_code": "7JWVP432+JX", "compound_code": "P432+JX Delhi, India"}, "vicinity": "2, Pocket G-27, Sector 3G, Rohini, Delhi", "scope": "GOOGLE", "business_status": "CLOSED_TEMPORARILY", "types": ["school", "point_of_interest", "establishment"], "icon": "https://maps.gstatic.com/mapfiles/place_api/icons/v1/png_71/school-71.png"}]}