{"status": "OK", "html_attributions": [], "results": [{"rating": 4.5, "user_ratings_total": 2, "permanently_closed": true, "name": "Recovery And Hydra Service", "reference": "ChIJGVJrVOQDDTkRWTf1z3Dfkf0", "geometry": {"location": {"lat": 28.6183831, "lng": 77.11341329999999}, "viewport": {"northeast": {"lat": 28.6197315802915, "lng": 77.11476293029149}, "southwest": {"lat": 28.6170336197085, "lng": 77.11206496970848}}}, "place_id": "ChIJGVJrVOQDDTkRWTf1z3Dfkf0", "plus_code": {"global_code": "7JWVJ497+99", "compound_code": "J497+99 New Delhi, Delhi, India"}, "vicinity": "Mayapuri Industrial Area Phase II, Mayapuri, New Delhi", "photos": [{"photo_reference": "ATtYBwJpXN5bz0YYa2LKhPzxYqIHapjcn2qTxGxCSjKO1bPDMH1yOKZ9GURL4zEmmASAFP9ON85WjRyX-8u_05RakqiLVk9xgOjjC8IL1S0GN8cLkBxt09iBjAH8R2vrPWS6J4S2_1HHVF9zmGaQ0QLOktZWRVxnOh0n0eywT7PuSa97yuQQ", "width": 1080, "html_attributions": ["<a href=\"https://maps.google.com/maps/contrib/108338723316003733867\">Abhishek Kumar</a>"], "height": 1920}], "scope": "GOOGLE", "business_status": "CLOSED_TEMPORARILY", "types": ["school", "point_of_interest", "establishment"], "icon": "https://maps.gstatic.com/mapfiles/place_api/icons/v1/png_71/school-71.png"}, {"permanently_closed": true, "name": "Raz n Pia Thikana", "reference": "ChIJ_8uqzasdDTkR16Dea0j580c", "geometry": {"location": {"lat": 28.6095092, "lng": 77.1083982}, "viewport": {"northeast": {"lat": 28.6108581802915, "lng": 77.1097471802915}, "southwest": {"lat": 28.6081602197085, "lng": 77.10704921970849}}}, "place_id": "ChIJ_8uqzasdDTkR16Dea0j580c", "plus_code": {"global_code": "7JWVJ455+R9", "compound_code": "J455+R9 New Delhi, Delhi, India"}, "vicinity": "RC Basti,Block WZ, Nangal Raya, Janakpuri, New Delhi", "scope": "GOOGLE", "business_status": "CLOSED_TEMPORARILY", "types": ["school", "point_of_interest", "establishment"], "icon": "https://maps.gstatic.com/mapfiles/place_api/icons/v1/png_71/school-71.png"}, {"permanently_closed": true, "name": "Play school prajapati", "reference": "ChIJT7VsxuwdDTkReDP1BNRzBiI", "geometry": {"location": {"lat": 28.6045417, "lng": 77.1101067}, "viewport": {"northeast": {"lat": 28.6059109302915, "lng": 77.1114211802915}, "southwest": {"lat": 28.6032129697085, "lng": 77.1087232197085}}}, "place_id": "ChIJT7VsxuwdDTkReDP1BNRzBiI", "plus_code": {"global_code": "7JWVJ436+R2", "compound_code": "J436+R2 New Delhi, Delhi, India"}, "vicinity": "32, Pankha Road, Pocket D 2A, Nangal Raya, Janakpuri, New Delhi", "photos": [{"photo_reference": "ATtYBwLm-J7O39nsWwSPovlkY-uyLnTcX5CxnR5VzAtKWpuVFiPg_HQ3eygBl3zZoL_ljKtt3DCr4gkiE2hOFfO1sr2wkQLOniw7Cjd8pDO6GFhptNrBft34w929Tbc6pRu3VNI1RUoxejxNImGwi5947KYHbLA-T8CeuJ1cKRTus37iQCGU", "width": 720, "html_attributions": ["<a href=\"https://maps.google.com/maps/contrib/116833023530111337526\">Param veer</a>"], "height": 1280}], "scope": "GOOGLE", "business_status": "CLOSED_TEMPORARILY", "types": ["school", "point_of_interest", "establishment"], "icon": "https://maps.gstatic.com/mapfiles/place_api/icons/v1/png_71/school-71.png"}, {"permanently_closed": true, "name": "Sahadat", "reference": "ChIJzfG0DOAdDTkRYt1ueN5xgGo", "geometry": {"location": {"lat": 28.6127243, "lng": 77.1082954}, "viewport": {"northeast": {"lat": 28.6139724802915, "lng": 77.10956093029151}, "southwest": {"lat": 28.6112745197085, "lng": 77.1068629697085}}}, "place_id": "ChIJzfG0DOAdDTkRYt1ueN5xgGo", "plus_code": {"global_code": "7JWVJ475+38", "compound_code": "J475+38 New Delhi, Delhi, India"}, "vicinity": "101, Block WZ, Lajwanti Garden, Janakpuri, New Delhi", "scope": "GOOGLE", "business_status": "CLOSED_TEMPORARILY", "types": ["school", "point_of_interest", "establishment"], "icon": "https://maps.gstatic.com/mapfiles/place_api/icons/v1/png_71/school-71.png"}, {"rating": 5, "user_ratings_total": 6, "name": "EKLAVYA Academic & Music Institute", "reference": "ChIJzTvUaCcdDTkRY1fD5U6tVkA", "geometry": {"location": {"lat": 28.6101855, "lng": 77.1075943}, "viewport": {"northeast": {"lat": 28.6115707802915, "lng": 77.10890268029151}, "southwest": {"lat": 28.6088728197085, "lng": 77.1062047197085}}}, "opening_hours": {"open_now": false}, "place_id": "ChIJzTvUaCcdDTkRY1fD5U6tVkA", "plus_code": {"global_code": "7JWVJ465+32", "compound_code": "J465+32 New Delhi, Delhi, India"}, "vicinity": "1391/22A, Pandit Vishnu Dutt Marg, RC Basti,Block WZ, Nangal Raya, Janakpuri, New Delhi", "photos": [{"photo_reference": "ATtYBwIEH14IuOXJNHMPvTzvUTLEphAGvttfn8hR3Nia9LHydmxh6LxLKRu34ow5y8xGjCOugdxIDrcA793FNNCqU4Vb9QR11TfU9p2bWOhQhxIctX76zD9twQfwh7Oi81qCYAcJR8NIr3NrhVKwhil5QBBVHw2CN5GDEIQ-2Oa2p0fFZqte", "width": 2877, "html_attributions": ["<a href=\"https://maps.google.com/maps/contrib/112710880553073782244\">EKLAVYA Academic &amp; Music Institute</a>"], "height": 1503}], "scope": "GOOGLE", "business_status": "OPERATIONAL", "types": ["school", "point_of_interest", "establishment"], "icon": "https://maps.gstatic.com/mapfiles/place_api/icons/v1/png_71/school-71.png"}, {"rating": 5, "user_ratings_total": 10, "permanently_closed": true, "name": "Govt. Senior Secondary School No 2", "reference": "ChIJvYfWdqscDTkRqCJOhOw9wa4", "geometry": {"location": {"lat": 28.6102322, "lng": 77.1075797}, "viewport": {"northeast": {"lat": 28.6116010802915, "lng": 77.1089063302915}, "southwest": {"lat": 28.6089031197085, "lng": 77.1062083697085}}}, "place_id": "ChIJvYfWdqscDTkRqCJOhOw9wa4", "plus_code": {"global_code": "7JWVJ465+32", "compound_code": "J465+32 New Delhi, Delhi, India"}, "vicinity": "1391/27A, Pandit Vishnu Dutt Marg, RC Basti,Block WZ, Nangal Raya, Janakpuri, New Delhi", "photos": [{"photo_reference": "ATtYBwKLtoO8bpZE2FpAC5-wmG7LFrHdQ-TfN1N4U174C1R5LWJfH-suDy7DspJ7MyFRB6eItwyXvnrRI0bZe265NsSgKnip96R29s4MWqwAs2B1mluYR4pXrX0Nt18anro_1bykCqkuKEbjfR6GZgikLVy0YTCrUaeFEzHL89KojeU1VE76", "width": 2592, "html_attributions": ["<a href=\"https://maps.google.com/maps/contrib/111276338282739535217\">Samudra Gupta ADEN ETW</a>"], "height": 1944}], "scope": "GOOGLE", "business_status": "CLOSED_TEMPORARILY", "types": ["school", "point_of_interest", "establishment"], "icon": "https://maps.gstatic.com/mapfiles/place_api/icons/v1/png_71/school-71.png"}, {"rating": 5, "user_ratings_total": 1, "permanently_closed": true, "name": "Ravi Sir Coaching centre", "reference": "ChIJsY6TtUsDDTkRp7jiYJc8ofc", "geometry": {"location": {"lat": 28.6165993, "lng": 77.13003549999999}, "viewport": {"northeast": {"lat": 28.6181711302915, "lng": 77.1309769302915}, "southwest": {"lat": 28.6154731697085, "lng": 77.12827896970849}}}, "place_id": "ChIJsY6TtUsDDTkRp7jiYJc8ofc", "plus_code": {"global_code": "7JWVJ48J+J2", "compound_code": "J48J+J2 New Delhi, Delhi, India"}, "vicinity": "Kirby Place, Delhi Cantonment, New Delhi", "scope": "GOOGLE", "business_status": "CLOSED_TEMPORARILY", "types": ["school", "point_of_interest", "establishment"], "icon": "https://maps.gstatic.com/mapfiles/place_api/icons/v1/png_71/school-71.png"}, {"permanently_closed": true, "name": "Government Boys Sr Secondary School", "reference": "ChIJrfG7d6scDTkREPr8Wn10pbs", "geometry": {"location": {"lat": 28.6100716, "lng": 77.10741949999999}, "viewport": {"northeast": {"lat": 28.61144738029151, "lng": 77.1087376802915}, "southwest": {"lat": 28.6087494197085, "lng": 77.10603971970848}}}, "place_id": "ChIJrfG7d6scDTkREPr8Wn10pbs", "plus_code": {"global_code": "7JWVJ464+2X", "compound_code": "J464+2X New Delhi, Delhi, India"}, "vicinity": "1390/R, Pandit Vishnu Dutt Marg, RC Basti,Block WZ, Nangal Raya, Janakpuri, New Delhi", "scope": "GOOGLE", "business_status": "CLOSED_TEMPORARILY", "types": ["school", "point_of_interest", "establishment"], "icon": "https://maps.gstatic.com/mapfiles/place_api/icons/v1/png_71/school-71.png"}, {"permanently_closed": true, "name": "CMS Which Vidyalaya Shahapur", "reference": "ChIJiVWiTfIDDTkR0rIPKw5WYU0", "geometry": {"location": {"lat": 28.62008569999999, "lng": 77.1147697}, "viewport": {"northeast": {"lat": 28.6214589302915, "lng": 77.1160957802915}, "southwest": {"lat": 28.61876096970849, "lng": 77.1133978197085}}}, "place_id": "ChIJiVWiTfIDDTkR0rIPKw5WYU0", "plus_code": {"global_code": "7JWVJ4C7+2W", "compound_code": "J4C7+2W New Delhi, Delhi, India"}, "vicinity": "Mayapuri Road, Mayapuri Industrial Area Phase II, Mayapuri, New Delhi", "scope": "GOOGLE", "business_status": "CLOSED_TEMPORARILY", "types": ["school", "point_of_interest", "establishment"], "icon": "https://maps.gstatic.com/mapfiles/place_api/icons/v1/png_71/school-71.png"}, {"rating": 4.7, "user_ratings_total": 6, "permanently_closed": true, "name": "Navyug Pre Prepatroy School", "reference": "ChIJ4wPxQqscDTkRMvfvb2jVIRM", "geometry": {"location": {"lat": 28.6115145, "lng": 77.10737759999999}, "viewport": {"northeast": {"lat": 28.6128182802915, "lng": 77.10867368029149}, "southwest": {"lat": 28.6101203197085, "lng": 77.10597571970848}}}, "place_id": "ChIJ4wPxQqscDTkRMvfvb2jVIRM", "plus_code": {"global_code": "7JWVJ464+JX", "compound_code": "J464+JX New Delhi, Delhi, India"}, "vicinity": "D1-C Block, Nangal Raya, Janakpuri, New Delhi", "photos": [{"photo_reference": "ATtYBwJD-ipMbQrOkPqZK9XJFUpsRDnq7pQJTtnqY5qYl7ZBGch0KJwmYHfRNf6GbYZWWceWAh0Swt8cx6lChI3YoYopvIfiz-kHnSJksZU91sImyMzQBqWaJnAoJIUzmkn5laBWVKH-hEhnM0U-Y9Zy9u95wcaBYBxDvAllN_DiDSH9Iymc", "width": 1152, "html_attributions": ["<a href=\"https://maps.google.com/maps/contrib/100724683897731137582\">Ram kishor Meena</a>"], "height": 864}], "scope": "GOOGLE", "business_status": "CLOSED_TEMPORARILY", "types": ["school", "point_of_interest", "establishment"], "icon": "https://maps.gstatic.com/mapfiles/place_api/icons/v1/png_71/school-71.png"}, {"permanently_closed": true, "name": "Exam Centre", "reference": "ChIJF_oRdqscDTkRXapXDcxH_ds", "geometry": {"location": {"lat": 28.6100089, "lng": 77.107213}, "viewport": {"northeast": {"lat": 28.6113333302915, "lng": 77.10859023029151}, "southwest": {"lat": 28.60863536970849, "lng": 77.10589226970849}}}, "place_id": "ChIJF_oRdqscDTkRXapXDcxH_ds", "plus_code": {"global_code": "7JWVJ464+2V", "compound_code": "J464+2V New Delhi, Delhi, India"}, "vicinity": "1391/34A, Pandit Vishnu Dutt Marg, Nangal Raya Extention, RC Basti,Block WZ, Nangal Raya, Janakpuri, New Delhi", "scope": "GOOGLE", "business_status": "CLOSED_TEMPORARILY", "types": ["school", "point_of_interest", "establishment"], "icon": "https://maps.gstatic.com/mapfiles/place_api/icons/v1/png_71/school-71.png"}, {"permanently_closed": true, "name": "Sarvodaya Bad And Kanya Vidhyalaya", "reference": "ChIJPzZPoKscDTkRzkcs9HkYOWQ", "geometry": {"location": {"lat": 28.6098325, "lng": 77.1072093}, "viewport": {"northeast": {"lat": 28.6112218802915, "lng": 77.1085117302915}, "southwest": {"lat": 28.6085239197085, "lng": 77.10581376970849}}}, "place_id": "ChIJPzZPoKscDTkRzkcs9HkYOWQ", "plus_code": {"global_code": "7JWVJ454+WV", "compound_code": "J454+WV New Delhi, Delhi, India"}, "vicinity": "1399/34, Pandit Vishnu Dutt Marg, RC Basti,Block WZ, Nangal Raya, Janakpuri, New Delhi", "photos": [{"photo_reference": "ATtYBwJXCNSl41M6l1kJFRIXjnzPz-thThP-7pGztXdflWJrDxw_6Bq21OW5415_qJHwHT1jy1aWELrs26FkoRBc4tskKT5Duq8E63jvyS71_eS2-zpsU0wuJPKvlUd8MHBlR3d_bS8-w1ZcN26G3E3j6V0bgC7sU7XnTcs4wtnN_0jbwgJ9", "width": 3264, "html_attributions": ["<a href=\"https://maps.google.com/maps/contrib/111456673280933693830\">Pen2Print Services</a>"], "height": 2448}], "scope": "GOOGLE", "business_status": "CLOSED_TEMPORARILY", "types": ["school", "point_of_interest", "establishment"], "icon": "https://maps.gstatic.com/mapfiles/place_api/icons/v1/png_71/school-71.png"}, {"name": "Preetam", "reference": "ChIJ10cKDDcdDTkRpsP9m6oZrpY", "geometry": {"location": {"lat": 28.5983869, "lng": 77.1211905}, "viewport": {"northeast": {"lat": 28.5998345302915, "lng": 77.1225385802915}, "southwest": {"lat": 28.59713656970849, "lng": 77.11984061970848}}}, "place_id": "ChIJ10cKDDcdDTkRpsP9m6oZrpY", "plus_code": {"global_code": "7JWVH4XC+9F", "compound_code": "H4XC+9F New Delhi, Delhi, India"}, "vicinity": "Sadar Bazaar, Delhi Cantonment, New Delhi", "photos": [{"photo_reference": "ATtYBwJx-7vbNqmle5KRjcmiRc2Ttj0ok05hYpDA6ylhSe4PhoWreOHxN7jKb9W6m4qQSlwpY2tJrcmEBfkdlE8T18pRmS9Nv6lqFcQNGZRyJ-nzLtIOdAaKZQmLGEKS__k1T6W0bjx3iLrMGiC4sAIN16qkfq0FMLxCXzfrnK3FHta1dCPo", "width": 346, "html_attributions": ["<a href=\"https://maps.google.com/maps/contrib/108131962403863266849\">Preetam Kumar</a>"], "height": 346}], "scope": "GOOGLE", "business_status": "OPERATIONAL", "types": ["school", "point_of_interest", "establishment"], "icon": "https://maps.gstatic.com/mapfiles/place_api/icons/v1/png_71/school-71.png"}, {"permanently_closed": true, "name": "shanti Mohan Ravi Highschool", "reference": "ChIJ0ZJkRdEdDTkRLeLVkonZ0ho", "geometry": {"location": {"lat": 28.5983869, "lng": 77.1211905}, "viewport": {"northeast": {"lat": 28.5998345302915, "lng": 77.1225385802915}, "southwest": {"lat": 28.59713656970849, "lng": 77.11984061970848}}}, "place_id": "ChIJ0ZJkRdEdDTkRLeLVkonZ0ho", "plus_code": {"global_code": "7JWVH4XC+9F", "compound_code": "H4XC+9F New Delhi, Delhi, India"}, "vicinity": "Sadar Bazaar, Delhi Cantonment, New Delhi", "scope": "GOOGLE", "business_status": "CLOSED_TEMPORARILY", "types": ["school", "point_of_interest", "establishment"], "icon": "https://maps.gstatic.com/mapfiles/place_api/icons/v1/png_71/school-71.png"}, {"rating": 5, "user_ratings_total": 1, "name": "Sanjeet tution", "reference": "ChIJqaVlG4gDDTkROhIMo5Lj4lg", "geometry": {"location": {"lat": 28.6214415, "lng": 77.1227098}, "viewport": {"northeast": {"lat": 28.6227622302915, "lng": 77.1241163802915}, "southwest": {"lat": 28.6200642697085, "lng": 77.12141841970849}}}, "place_id": "ChIJqaVlG4gDDTkROhIMo5Lj4lg", "plus_code": {"global_code": "7JWVJ4CF+H3", "compound_code": "J4CF+H3 New Delhi, Delhi, India"}, "vicinity": "R-24, C-3/13, Mayapuri Industrial Area Phase II, Mayapuri, New Delhi", "scope": "GOOGLE", "business_status": "OPERATIONAL", "types": ["school", "point_of_interest", "establishment"], "icon": "https://maps.gstatic.com/mapfiles/place_api/icons/v1/png_71/school-71.png"}, {"rating": 4.2, "user_ratings_total": 5, "permanently_closed": true, "name": "skv", "reference": "ChIJh9YKoKscDTkRepCc9GvIFFs", "geometry": {"location": {"lat": 28.609887, "lng": 77.1066432}, "viewport": {"northeast": {"lat": 28.6111718302915, "lng": 77.10806038029149}, "southwest": {"lat": 28.6084738697085, "lng": 77.10536241970848}}}, "place_id": "ChIJh9YKoKscDTkRepCc9GvIFFs", "plus_code": {"global_code": "7JWVJ454+XM", "compound_code": "J454+XM New Delhi, Delhi, India"}, "vicinity": "D Block, Janakpuri Institutional Area, Janakpuri, New Delhi", "scope": "GOOGLE", "business_status": "CLOSED_TEMPORARILY", "types": ["school", "point_of_interest", "establishment"], "icon": "https://maps.gstatic.com/mapfiles/place_api/icons/v1/png_71/school-71.png"}, {"permanently_closed": true, "name": "Delhi Milk Scheme Colony primary school", "reference": "ChIJ6b2tuacDDTkRCh55ZRAOir8", "geometry": {"location": {"lat": 28.620778, "lng": 77.11372399999999}, "viewport": {"northeast": {"lat": 28.6222042802915, "lng": 77.11507198029149}, "southwest": {"lat": 28.6195063197085, "lng": 77.11237401970848}}}, "place_id": "ChIJ6b2tuacDDTkRCh55ZRAOir8", "plus_code": {"global_code": "7JWVJ4C7+8F", "compound_code": "J4C7+8F New Delhi, Delhi, India"}, "vicinity": "295, Delhi Milk Scheme Colony, Hari Nagar, New Delhi", "scope": "GOOGLE", "business_status": "CLOSED_TEMPORARILY", "types": ["school", "point_of_interest", "establishment"], "icon": "https://maps.gstatic.com/mapfiles/place_api/icons/v1/png_71/school-71.png"}, {"rating": 5, "user_ratings_total": 4, "permanently_closed": true, "name": "ProZone Fitness", "reference": "ChIJM-EAMascDTkR-mDRy-6CQ-8", "geometry": {"location": {"lat": 28.6121982, "lng": 77.10627629999999}, "viewport": {"northeast": {"lat": 28.6135521802915, "lng": 77.1076198302915}, "southwest": {"lat": 28.61085421970849, "lng": 77.10492186970849}}}, "place_id": "ChIJM-EAMascDTkR-mDRy-6CQ-8", "plus_code": {"global_code": "7JWVJ464+VG", "compound_code": "J464+VG New Delhi, Delhi, India"}, "vicinity": "110058, Block WZ, Lajwanti Garden, Janakpuri, New Delhi", "photos": [{"photo_reference": "ATtYBwJwZUqf0qHaH0DLqrBRKsfaOL7o_mSXsk3YLF2cywF2I7mQkgPzcVw4TahE0fw62GrPj7Io6MnOCTmn5rS3F0yW7CHy3cdF03SMVRLKw9tu6WIRdEKGvvcMi0eBFlWUdnU-jHgqhAqlqkqip5xTn2WE0RijetRXWAqqBTggw8p_b7YA", "width": 4048, "html_attributions": ["<a href=\"https://maps.google.com/maps/contrib/112426175794986530435\">Ayaan Zaidi</a>"], "height": 3036}], "scope": "GOOGLE", "business_status": "CLOSED_TEMPORARILY", "types": ["school", "point_of_interest", "establishment"], "icon": "https://maps.gstatic.com/mapfiles/place_api/icons/v1/png_71/school-71.png"}, {"name": "Sshil khan", "reference": "ChIJBYt6LlodDTkRw7cIdEBAgus", "geometry": {"location": {"lat": 28.60484199999999, "lng": 77.1073126}, "viewport": {"northeast": {"lat": 28.6061775302915, "lng": 77.1086728802915}, "southwest": {"lat": 28.6034795697085, "lng": 77.10597491970849}}}, "place_id": "ChIJBYt6LlodDTkRw7cIdEBAgus", "plus_code": {"global_code": "7JWVJ434+WW", "compound_code": "J434+WW New Delhi, Delhi, India"}, "vicinity": "Mohan Nagar, Block RZ, Main Sagarpur, Sagar Pur, New Delhi", "scope": "GOOGLE", "business_status": "OPERATIONAL", "types": ["school", "point_of_interest", "establishment"], "icon": "https://maps.gstatic.com/mapfiles/place_api/icons/v1/png_71/school-71.png"}, {"permanently_closed": true, "name": "Law College in Delhi", "reference": "ChIJEVBT2SIdDTkR9WUdjIYsdRw", "geometry": {"location": {"lat": 28.6066714, "lng": 77.1065117}, "viewport": {"northeast": {"lat": 28.6080008302915, "lng": 77.1078496802915}, "southwest": {"lat": 28.6053028697085, "lng": 77.10515171970849}}}, "place_id": "ChIJEVBT2SIdDTkR9WUdjIYsdRw", "plus_code": {"global_code": "7JWVJ444+MJ", "compound_code": "J444+MJ New Delhi, Delhi, India"}, "vicinity": "Mohan Nagar, Block RZ, Main Sagarpur, Sagar Pur, New Delhi", "scope": "GOOGLE", "business_status": "CLOSED_TEMPORARILY", "types": ["school", "point_of_interest", "establishment"], "icon": "https://maps.gstatic.com/mapfiles/place_api/icons/v1/png_71/school-71.png"}]}