{"status": "OK", "next_page_token": "ATtYBwJ5QGm6O8yTDYfsP_B7zHazG9FxIJ6TREW4kwJKfiNflS1tz8id4HlciCame_EkPi03KBO70qC32POCtsTF5MBfttN-Wd-tnA-kd408iGVHozieY8FcQuVx2KsBIo747h1rkVjvNSstpC7wrU8IfKSc_AIk3PAagx6Tic8ATQw6eFsmXZJiPaOvMvZ3bftANpk9Ho1NlUgVWvzKL8rlmJfgbvX7n1Gr7IsXtwvCqgcc7-SYZEGrhX44ivR7fzkqEFm2_34W1SIK60Fj_Pc7itHIEQI-eae8YgHOSkTj4INbt9tSaMR9szDCPYF4UlmfB6TeIYp5hmxFRnPGAtQWfPPqoGFYuU5nUNDF9EkyGHrDad3Q3e4F40AFgaESRNBYuuv--K-9DQu6rFdSk5kAR8ka-AZ-D52c_konBYUXIa17jA", "html_attributions": [], "results": [{"rating": 4, "user_ratings_total": 2, "name": "Shemrock Little Pearls Play School Kundli", "reference": "ChIJyfVeSQysDTkRqT0NfM_Fc-4", "geometry": {"location": {"lat": 28.897361, "lng": 77.121472}, "viewport": {"northeast": {"lat": 28.8984552802915, "lng": 77.1225472302915}, "southwest": {"lat": 28.8957573197085, "lng": 77.1198492697085}}}, "opening_hours": {"open_now": false}, "place_id": "ChIJyfVeSQysDTkRqT0NfM_Fc-4", "plus_code": {"global_code": "7JWVV4WC+WH", "compound_code": "V4WC+WH Sonipat, Haryana, India"}, "vicinity": "Plot No.A-A23/10 Block A, Village Nangalkalan in TDI City Kundli, Sonipat", "scope": "GOOGLE", "business_status": "OPERATIONAL", "types": ["school", "point_of_interest", "establishment"], "icon": "https://maps.gstatic.com/mapfiles/place_api/icons/v1/png_71/school-71.png"}, {"rating": 5, "user_ratings_total": 12, "permanently_closed": true, "name": "L'Ecole Tejal", "reference": "ChIJu5nI4gmsDTkRz-IfsdZtMn4", "geometry": {"location": {"lat": 28.8890149, "lng": 77.1189545}, "viewport": {"northeast": {"lat": 28.8903634802915, "lng": 77.1203483302915}, "southwest": {"lat": 28.8876655197085, "lng": 77.1176503697085}}}, "place_id": "ChIJu5nI4gmsDTkRz-IfsdZtMn4", "plus_code": {"global_code": "7JWVV4Q9+JH", "compound_code": "V4Q9+JH Rasoi, Sonipat, Haryana, India"}, "vicinity": "Rasoi", "photos": [{"photo_reference": "ATtYBwItiIZlq0_Dyuies_jc-Xl5v6JaesM0H4TTBuzzKljSB5KPQLWSPROV3npwJvnx3rgo_zo_M20ITpduraV8QrxuzMmUV9IdHVBUIvj2sgVC5SdRWk-CeYF8g2sNY9ZBORbyg32xW4JH6nr39r9v1zRnwjRpM0HEfuFiv2fo9joycwKt", "width": 1920, "html_attributions": ["<a href=\"https://maps.google.com/maps/contrib/105297009678782870818\">Anish Rana</a>"], "height": 1080}], "scope": "GOOGLE", "business_status": "CLOSED_TEMPORARILY", "types": ["school", "point_of_interest", "establishment"], "icon": "https://maps.gstatic.com/mapfiles/place_api/icons/v1/png_71/school-71.png"}, {"rating": 4.7, "user_ratings_total": 12, "permanently_closed": true, "name": "Nsce Computer Centre", "reference": "ChIJBbQjesGrDTkREa-EYRAbqq0", "geometry": {"location": {"lat": 28.8833023, "lng": 77.11726259999999}, "viewport": {"northeast": {"lat": 28.88468638029149, "lng": 77.11863353029149}, "southwest": {"lat": 28.8819884197085, "lng": 77.11593556970848}}}, "place_id": "ChIJBbQjesGrDTkREa-EYRAbqq0", "plus_code": {"global_code": "7JWVV4M8+8W", "compound_code": "V4M8+8W Sonipat, Haryana, India"}, "vicinity": "NSCE computer centre, piou maniyari, kundli-131028, Sonipat", "photos": [{"photo_reference": "ATtYBwI5T3TPjtFwYmDO2cT3vGnTtjshD5MoJXXvjPfGWIYR0qerrwbc2r_CbKcI6YKv7ZQI6Jg7LuG0X9Cazhybj13HzJBbsbSdd3BDm28Bw5CWFpjHp4JT5Y7M2tdgS5osFrOBbYmeEeiH4MDQsxsBZI59bxmnxFMDD9NhqPX-gP3hEQuJ", "width": 2592, "html_attributions": ["<a href=\"https://maps.google.com/maps/contrib/114177691100814458244\">Vikram kumar shah</a>"], "height": 1944}], "scope": "GOOGLE", "business_status": "CLOSED_TEMPORARILY", "types": ["school", "point_of_interest", "establishment"], "icon": "https://maps.gstatic.com/mapfiles/place_api/icons/v1/png_71/school-71.png"}, {"permanently_closed": true, "name": "Mandir", "reference": "ChIJnXegKa2rDTkR6m5gNcO-h4o", "geometry": {"location": {"lat": 28.8823623, "lng": 77.11906669999999}, "viewport": {"northeast": {"lat": 28.88371678029149, "lng": 77.1204726302915}, "southwest": {"lat": 28.8810188197085, "lng": 77.11777466970848}}}, "place_id": "ChIJnXegKa2rDTkR6m5gNcO-h4o", "plus_code": {"global_code": "7JWVV4J9+WJ", "compound_code": "V4J9+WJ Sonipat, Haryana, India"}, "vicinity": "Unnamed Road, Sector 57, Sonipat", "scope": "GOOGLE", "business_status": "CLOSED_TEMPORARILY", "types": ["school", "point_of_interest", "establishment"], "icon": "https://maps.gstatic.com/mapfiles/place_api/icons/v1/png_71/school-71.png"}, {"permanently_closed": true, "name": "Shivam Kumar Khatik", "reference": "ChIJp9ydpImrDTkRh4SJu-c_A1I", "geometry": {"location": {"lat": 28.8820242, "lng": 77.11679}, "viewport": {"northeast": {"lat": 28.88339178029149, "lng": 77.11809293029151}, "southwest": {"lat": 28.8806938197085, "lng": 77.11539496970849}}}, "place_id": "ChIJp9ydpImrDTkRh4SJu-c_A1I", "plus_code": {"global_code": "7JWVV4J8+RP", "compound_code": "V4J8+RP Sonipat, Haryana, India"}, "vicinity": "piou maniyari kundli, Gali Number 6, !, Sonipat", "photos": [{"photo_reference": "ATtYBwIIjSLry_f4jIA9zXQewqEf-NuPLttdqB59lTG3UIk8uSywX2lJcCGbh1NNmJa7m6vrNYf3RDEqvWElCIArzP4RkhaRAF92A41_lFN0LeIzLOG6NoBE8OqNwvxLLYP3VdQABZNTO8t_gYLnq9DrK2D_ylTQ-XJUfRoQPGX6snFmNxWi", "width": 4160, "html_attributions": ["<a href=\"https://maps.google.com/maps/contrib/114269201984112692743\">Shivam Kumar</a>"], "height": 3120}], "scope": "GOOGLE", "business_status": "CLOSED_TEMPORARILY", "types": ["school", "point_of_interest", "establishment"], "icon": "https://maps.gstatic.com/mapfiles/place_api/icons/v1/png_71/school-71.png"}, {"name": "Niftem College", "reference": "ChIJG-A4hGKrDTkRFbLfUCJ_DO8", "geometry": {"location": {"lat": 28.880523, "lng": 77.11921219999999}, "viewport": {"northeast": {"lat": 28.8818666302915, "lng": 77.12054143029151}, "southwest": {"lat": 28.8791686697085, "lng": 77.11784346970849}}}, "place_id": "ChIJG-A4hGKrDTkRFbLfUCJ_DO8", "plus_code": {"global_code": "7JWVV4J9+6M", "compound_code": "V4J9+6M Sonipat, Haryana, India"}, "vicinity": "Jammu - Delhi Road, Sonipat", "scope": "GOOGLE", "business_status": "OPERATIONAL", "types": ["school", "point_of_interest", "establishment"], "icon": "https://maps.gstatic.com/mapfiles/place_api/icons/v1/png_71/school-71.png"}, {"permanently_closed": true, "name": "Shivam", "reference": "ChIJV4oQjCGrDTkRriM5EcjYkyA", "geometry": {"location": {"lat": 28.8800683, "lng": 77.11733509999999}, "viewport": {"northeast": {"lat": 28.8815077802915, "lng": 77.1186844302915}, "southwest": {"lat": 28.8788098197085, "lng": 77.11598646970847}}}, "place_id": "ChIJV4oQjCGrDTkRriM5EcjYkyA", "plus_code": {"global_code": "7JWVV4J8+2W", "compound_code": "V4J8+2W Sonipat, Haryana, India"}, "vicinity": "16, near Parnami Hospital, Kundli, Sonipat", "scope": "GOOGLE", "business_status": "CLOSED_TEMPORARILY", "types": ["school", "point_of_interest", "establishment"], "icon": "https://maps.gstatic.com/mapfiles/place_api/icons/v1/png_71/school-71.png"}, {"permanently_closed": true, "name": "Softech Group Of Institutions", "reference": "ChIJtysSprKtDTkRRTihUs2PlGM", "geometry": {"location": {"lat": 28.8982915, "lng": 77.126942}, "viewport": {"northeast": {"lat": 28.89964193029149, "lng": 77.12816018029152}, "southwest": {"lat": 28.8969439697085, "lng": 77.1254622197085}}}, "place_id": "ChIJtysSprKtDTkRRTihUs2PlGM", "plus_code": {"global_code": "7JWVV4XG+8Q", "compound_code": "V4XG+8Q Sonipat, Haryana, India"}, "vicinity": "Sector 58, Sonipat", "photos": [{"photo_reference": "ATtYBwLPZ_OBC0SccBP-Mf4q-xtBFLbuRLlq0t4CM2mz7iSc6XFqfYBK4H_ESGgLwH02coAyZEmfRU7lc8geeIWK0ZHu3gOtGZIvq3VW2GY5vAYeMkKXpnj4AZQLJzV2gP9RatuCJEuJDflbTIM9mZWMNh-xIiihyIoLy8QZRonMGsGmiXy9", "width": 905, "html_attributions": ["<a href=\"https://maps.google.com/maps/contrib/117830581409701986981\">Narender Sharma</a>"], "height": 646}], "scope": "GOOGLE", "business_status": "CLOSED_TEMPORARILY", "types": ["school", "point_of_interest", "establishment"], "icon": "https://maps.gstatic.com/mapfiles/place_api/icons/v1/png_71/school-71.png"}, {"permanently_closed": true, "name": "Focal Skill Development Center", "reference": "ChIJETGOxLqtDTkRoP1qqzq8-fY", "geometry": {"location": {"lat": 28.8967328, "lng": 77.11112140000002}, "viewport": {"northeast": {"lat": 28.8976952802915, "lng": 77.1124573302915}, "southwest": {"lat": 28.8949973197085, "lng": 77.10975936970848}}}, "place_id": "ChIJETGOxLqtDTkRoP1qqzq8-fY", "plus_code": {"global_code": "7JWVV4W6+MC", "compound_code": "V4W6+MC Rasoi, Sonipat, Haryana, India"}, "vicinity": "Rasoi", "photos": [{"photo_reference": "ATtYBwLnM4hAFWOZ9ifThaJsq4ZfEfhLB2alxxgvHFVJYb-VqaYswG85lwDHK1gj48-zpNqpheaCCbuhAAnInV_3wHABnJDOdn9CyGpnXS7s8r0_yypNeDzMawFwa2KREp0lUyDdsd9qMv3My_yHwrWBiDgGUl20xdKUYmABbobVTpgP_EHU", "width": 1040, "html_attributions": ["<a href=\"https://maps.google.com/maps/contrib/115591191064869607686\">\u090f\u0915 \u0928\u0908 \u092a\u0939\u0932</a>"], "height": 780}], "scope": "GOOGLE", "business_status": "CLOSED_TEMPORARILY", "types": ["school", "point_of_interest", "establishment"], "icon": "https://maps.gstatic.com/mapfiles/place_api/icons/v1/png_71/school-71.png"}, {"permanently_closed": true, "name": "R K Rasoi", "reference": "ChIJ_____wSsDTkRlh00xmRt8Sc", "geometry": {"location": {"lat": 28.8967328, "lng": 77.11112140000002}, "viewport": {"northeast": {"lat": 28.8976952802915, "lng": 77.1124573302915}, "southwest": {"lat": 28.8949973197085, "lng": 77.10975936970848}}}, "place_id": "ChIJ_____wSsDTkRlh00xmRt8Sc", "plus_code": {"global_code": "7JWVV4W6+MC", "compound_code": "V4W6+MC Sonipat, Haryana, India"}, "vicinity": "Saboli Road, Sector 46, Sonipat", "scope": "GOOGLE", "business_status": "CLOSED_TEMPORARILY", "types": ["school", "point_of_interest", "establishment"], "icon": "https://maps.gstatic.com/mapfiles/place_api/icons/v1/png_71/school-71.png"}, {"rating": 4.8, "user_ratings_total": 4, "permanently_closed": true, "name": "SUBHADRA COMPUTER AND COACHING CENTER, TDI KUNDLI", "reference": "ChIJJQ3H3nKsDTkR3o2CP-fpwso", "geometry": {"location": {"lat": 28.8984969, "lng": 77.1266426}, "viewport": {"northeast": {"lat": 28.89983688029149, "lng": 77.12799133029151}, "southwest": {"lat": 28.89713891970849, "lng": 77.12529336970849}}}, "place_id": "ChIJJQ3H3nKsDTkR3o2CP-fpwso", "plus_code": {"global_code": "7JWVV4XG+9M", "compound_code": "V4XG+9M Sonipat, Haryana, India"}, "vicinity": "SUBHADRA COMPUTER AND COACHING CENTER, MY FLOOR 1, TDI CITY, NEAR NANGAL KALAAN, KUNDLI, Sonipat", "photos": [{"photo_reference": "ATtYBwKoMNhNSSSilB5W5nPO7yDvnxVod0JdR6HvbNLzUDigR6TTL_uXMzkTyRV25iW1_TOhHRESB8gRoNdIeI6x30PlX3qhguKZoK_vqNV8bmmM6BE7f4CtIzYZhaTX8t7tD5l4rqUjDVPhid18xvwBHyneKk4bRoj-O2y88df-kkGCo3GE", "width": 4160, "html_attributions": ["<a href=\"https://maps.google.com/maps/contrib/100047707240490174523\">Arun Kumar Sethi</a>"], "height": 3120}], "scope": "GOOGLE", "business_status": "CLOSED_TEMPORARILY", "types": ["school", "point_of_interest", "establishment"], "icon": "https://maps.gstatic.com/mapfiles/place_api/icons/v1/png_71/school-71.png"}, {"rating": 4.3, "user_ratings_total": 3, "permanently_closed": true, "name": "Nav Chetna Model School", "reference": "ChIJT6f9I_qrDTkRzEeduhJEaUo", "geometry": {"location": {"lat": 28.882167, "lng": 77.1122338}, "viewport": {"northeast": {"lat": 28.88351613029149, "lng": 77.11349203029151}, "southwest": {"lat": 28.88081816970849, "lng": 77.11079406970849}}}, "place_id": "ChIJT6f9I_qrDTkRzEeduhJEaUo", "plus_code": {"global_code": "7JWVV4J6+VV", "compound_code": "V4J6+VV Sonipat, Haryana, India"}, "vicinity": "Piau Maniyari, Kundli, Sonipat", "photos": [{"photo_reference": "ATtYBwITgOp2L5iYAsUP_wJXM4fmDTTwQL64jVhMoNpcH8NTR4fB9FFFUqKqMpOq0hhbLkPZK1e7BTp3PAmaKuK8vv4C1CQE9FZwcKycvqQZeLTiTGcjCS3tKlJ4UGTChujHXvKQCBqb72Stnpija-ckJWzvwck6zNDtQ5Wv8vmno1p72vZ8", "width": 1536, "html_attributions": ["<a href=\"https://maps.google.com/maps/contrib/114496463446773361455\">Arjun Thakur</a>"], "height": 2048}], "scope": "GOOGLE", "business_status": "CLOSED_TEMPORARILY", "types": ["school", "point_of_interest", "establishment"], "icon": "https://maps.gstatic.com/mapfiles/place_api/icons/v1/png_71/school-71.png"}, {"rating": 1, "user_ratings_total": 1, "permanently_closed": true, "name": "Music Classes J1- 904", "reference": "ChIJ__z-ZQ2sDTkRym50HBBcp3s", "geometry": {"location": {"lat": 28.90010749999999, "lng": 77.1236942}, "viewport": {"northeast": {"lat": 28.9014519802915, "lng": 77.1250432302915}, "southwest": {"lat": 28.89875401970851, "lng": 77.12234526970849}}}, "place_id": "ChIJ__z-ZQ2sDTkRym50HBBcp3s", "plus_code": {"global_code": "7JWVW42F+2F", "compound_code": "W42F+2F Sector 61, Sonipat, Haryana, India"}, "vicinity": "TDI Kingsbury, j1- 904, Sector 61", "scope": "GOOGLE", "business_status": "CLOSED_TEMPORARILY", "types": ["school", "point_of_interest", "establishment"], "icon": "https://maps.gstatic.com/mapfiles/place_api/icons/v1/png_71/school-71.png"}, {"rating": 5, "user_ratings_total": 2, "name": "Progress play school", "reference": "ChIJ55ladwOrDTkRE_paD6Mx_uY", "geometry": {"location": {"lat": 28.8824793, "lng": 77.111161}, "viewport": {"northeast": {"lat": 28.8838334802915, "lng": 77.1124501302915}, "southwest": {"lat": 28.8811355197085, "lng": 77.1097521697085}}}, "place_id": "ChIJ55ladwOrDTkRE_paD6Mx_uY", "plus_code": {"global_code": "7JWVV4J6+XF", "compound_code": "V4J6+XF Sonipat, Haryana, India"}, "vicinity": "Unnamed Road, Sector 48, Sonipat", "scope": "GOOGLE", "business_status": "OPERATIONAL", "types": ["school", "point_of_interest", "establishment"], "icon": "https://maps.gstatic.com/mapfiles/place_api/icons/v1/png_71/school-71.png"}, {"name": "\u092a\u094d\u0930\u094b\u0917\u094d\u0930\u0947\u0938 \u092a\u094d\u0932\u0947 \u0938\u094d\u0915\u0942\u0932", "reference": "ChIJ--Z-Oh6rDTkRnWRu4yoCrCM", "geometry": {"location": {"lat": 28.8824793, "lng": 77.111161}, "viewport": {"northeast": {"lat": 28.8838334802915, "lng": 77.1124501302915}, "southwest": {"lat": 28.8811355197085, "lng": 77.1097521697085}}}, "place_id": "ChIJ--Z-Oh6rDTkRnWRu4yoCrCM", "plus_code": {"global_code": "7JWVV4J6+XF", "compound_code": "V4J6+XF Sonipat, Haryana, India"}, "vicinity": "Unnamed Road, Sector 48, Sonipat", "scope": "GOOGLE", "business_status": "OPERATIONAL", "types": ["school", "point_of_interest", "establishment"], "icon": "https://maps.gstatic.com/mapfiles/place_api/icons/v1/png_71/school-71.png"}, {"permanently_closed": true, "name": "Shri Radhey Crane Service", "reference": "ChIJ-wDkJaitDTkRaOsIwp1xgC4", "geometry": {"location": {"lat": 28.8958492, "lng": 77.1094899}, "viewport": {"northeast": {"lat": 28.8972600802915, "lng": 77.11084108029151}, "southwest": {"lat": 28.8945621197085, "lng": 77.10814311970849}}}, "place_id": "ChIJ-wDkJaitDTkRaOsIwp1xgC4", "plus_code": {"global_code": "7JWVV4W5+8Q", "compound_code": "V4W5+8Q Rasoi, Sonipat, Haryana, India"}, "vicinity": "Rasoi", "scope": "GOOGLE", "business_status": "CLOSED_TEMPORARILY", "types": ["school", "point_of_interest", "establishment"], "icon": "https://maps.gstatic.com/mapfiles/place_api/icons/v1/png_71/school-71.png"}, {"name": "Aayaansh - Montessori Play School", "reference": "ChIJt2gMQWStDTkRi-IIfqffV4E", "geometry": {"location": {"lat": 28.9011608, "lng": 77.122351}, "viewport": {"northeast": {"lat": 28.9022269802915, "lng": 77.1236954802915}, "southwest": {"lat": 28.8995290197085, "lng": 77.1209975197085}}}, "opening_hours": {"open_now": false}, "place_id": "ChIJt2gMQWStDTkRi-IIfqffV4E", "plus_code": {"global_code": "7JWVW42C+FW", "compound_code": "W42C+FW Sonipat, Haryana, India"}, "vicinity": "Aayaansh, Dream Homes, Max Heights Kundli, Sonipat", "photos": [{"photo_reference": "ATtYBwL6v-eFCreeHA31hdutxys_Px2vHaB_CsmHGDfBu21TUMfOJi9Il4OBrITMaPXPBOHBAXtEBFb4Yf3PYIKKr4z7C1wOa47dDhgCgE4dtn65Ey5q9mdd3R9GAlH5mTeKIZC5NwUP7aSz3FCPUB2zQRRs64IAwmj5pMTP7_h4nFiDw3IG", "width": 5472, "html_attributions": ["<a href=\"https://maps.google.com/maps/contrib/102225356152945268556\">Aayaansh - Montessori Play School</a>"], "height": 3072}], "scope": "GOOGLE", "business_status": "OPERATIONAL", "types": ["school", "point_of_interest", "establishment"], "icon": "https://maps.gstatic.com/mapfiles/place_api/icons/v1/png_71/school-71.png"}, {"rating": 5, "user_ratings_total": 80, "name": "CTC Book World", "reference": "ChIJMxbOPo2rDTkRBbUzSa8vmvs", "geometry": {"location": {"lat": 28.8798698, "lng": 77.1266507}, "viewport": {"northeast": {"lat": 28.8812182302915, "lng": 77.1280763802915}, "southwest": {"lat": 28.8785202697085, "lng": 77.1253784197085}}}, "opening_hours": {"open_now": false}, "place_id": "ChIJMxbOPo2rDTkRBbUzSa8vmvs", "plus_code": {"global_code": "7JWVV4HG+WM", "compound_code": "V4HG+WM Sonipat, Haryana, India"}, "vicinity": "Plot No.196, Phase IV, Sector 57, HSIIDC, Industrial Area, Kundli, Sonipat", "photos": [{"photo_reference": "ATtYBwK0DcrhLIRbiULuZW8OsFhV32fJnhWC5SxokTLDtcaQ4jTq6bcRWdBHEs65o1zF26uSTrkgY-ZO6yS2vPUFqWK9aIW4IdGW1hdVJJesg1bk6zccyq5FyzeSIXuTPZsh9FAiaOSaKoVKjaM4EKLEtzdPSlfP9nHrI0Gh3V2QkYwVfTZx", "width": 1280, "html_attributions": ["<a href=\"https://maps.google.com/maps/contrib/112007384717106399592\">CTC Book World</a>"], "height": 640}], "scope": "GOOGLE", "business_status": "OPERATIONAL", "types": ["book_store", "school", "point_of_interest", "store", "establishment"], "icon": "https://maps.gstatic.com/mapfiles/place_api/icons/v1/png_71/generic_business-71.png"}, {"permanently_closed": true, "name": "Government Primary School", "reference": "ChIJBwjRaPCrDTkRm2w1zG6g6H8", "geometry": {"location": {"lat": 28.8790871, "lng": 77.1151081}, "viewport": {"northeast": {"lat": 28.8804746302915, "lng": 77.1163765302915}, "southwest": {"lat": 28.8777766697085, "lng": 77.1136785697085}}}, "place_id": "ChIJBwjRaPCrDTkRm2w1zG6g6H8", "plus_code": {"global_code": "7JWVV4H8+J2", "compound_code": "V4H8+J2 Sonipat, Haryana, India"}, "vicinity": "Sector 48, Sonipat", "scope": "GOOGLE", "business_status": "CLOSED_TEMPORARILY", "types": ["school", "point_of_interest", "establishment"], "icon": "https://maps.gstatic.com/mapfiles/place_api/icons/v1/png_71/school-71.png"}, {"rating": 4.9, "user_ratings_total": 7, "permanently_closed": true, "name": "Govt. Sr. Sec. School", "reference": "ChIJ6z4BE_CrDTkRyLqzH0M89rc", "geometry": {"location": {"lat": 28.8783239, "lng": 77.11459289999999}, "viewport": {"northeast": {"lat": 28.8797042302915, "lng": 77.11587638029151}, "southwest": {"lat": 28.8770062697085, "lng": 77.1131784197085}}}, "place_id": "ChIJ6z4BE_CrDTkRyLqzH0M89rc", "plus_code": {"global_code": "7JWVV4H7+8R", "compound_code": "V4H7+8R Sonipat, Haryana, India"}, "vicinity": "Sector 48, Sonipat", "photos": [{"photo_reference": "ATtYBwJqL-wYNbJhvCs-uaeV2-n6BKeVzjwhU6urT278Nlm00fxEr4wQXLTAKqqgAbqeCSoK6TULS5ys6lAqDwFEyPJVtS0SzoitTOVzUP2e9NnyxDA4uMBo0GfXbmoGVAP5mIqANjcwJCQVOCgr8635b-trdctaH-w4oFDj3aMgQWGROvaW", "width": 11008, "html_attributions": ["<a href=\"https://maps.google.com/maps/contrib/103263554542003925494\">Amusing Boys</a>"], "height": 2944}], "scope": "GOOGLE", "business_status": "CLOSED_TEMPORARILY", "types": ["school", "point_of_interest", "establishment"], "icon": "https://maps.gstatic.com/mapfiles/place_api/icons/v1/png_71/school-71.png"}]}