{"status": "OK", "next_page_token": "ATtYBwJVhnaEoZoFlgx-vgg2AR1jqn999yKUgFd76gESiYDnwbBS1OKhZl0p9sSHv6_nc4-wj9YyIBnK2HLPOPLX4kzCd4RR7o2QUYV29kOT4BukZbxOSa4uaeAHTDmnHmYaXlMMisHk6Sfr89k-RjiQsG6D7NpicHtx1BfrUfkP_CCqv-lSwV_5SD07SeSkKmjqYJ-yrjYGSH326HJuVtwooWuWSZkh_rqzFT2A3Qo4sGXsJ6r5OVCmAva5xORrjND2XluB16AfXcxBx9MzpcxenWAZXijn9xL2kWGx31P2CPCqQbuxD6up5p4_Ll77uEXCFcvFhXZQE1SFUfpPMPAqcUIIRLkCXWXUg3z4MDRDMRuoO0xKW0ETvzl2k_xf6X3hYHJclMwT_FUerz3p066ITWiMiKMJ3hwRBJ3aCCH7lDs_Nw", "html_attributions": [], "results": [{"rating": 3.6, "user_ratings_total": 154, "name": "Pathways School Gurgaon", "reference": "ChIJh7JZydohDTkRp8ixXV9Q95I", "geometry": {"location": {"lat": 28.420764, "lng": 77.135736}, "viewport": {"northeast": {"lat": 28.4224613802915, "lng": 77.1370940302915}, "southwest": {"lat": 28.4197634197085, "lng": 77.13439606970849}}}, "opening_hours": {"open_now": false}, "place_id": "ChIJh7JZydohDTkRp8ixXV9Q95I", "plus_code": {"global_code": "7JWVC4CP+87", "compound_code": "C4CP+87 Gurugram, Haryana, India"}, "vicinity": "Faridabad - Gurgaon Road, Baliawas, Gurugram", "photos": [{"photo_reference": "ATtYBwIKgbKOFFsAvsd5QFdLtR12c_1YeldAb4ttzL9nSQEoejx_8ZRiSSgFUXAQrK0k7JuxaR4SxA5r1pZpZX31VdGDYlOXonLP9f0A_4a2xDmCVPrhVFApJzu5dT57IQfAphOFybV3Z8ALFkd9Anbjf7QEg3GxoMHDsiy-l7PtxkJ75YBi", "width": 1800, "html_attributions": ["<a href=\"https://maps.google.com/maps/contrib/103492412414576237009\">Pathways School Gurgaon</a>"], "height": 1201}], "scope": "GOOGLE", "business_status": "OPERATIONAL", "types": ["school", "point_of_interest", "establishment"], "icon": "https://maps.gstatic.com/mapfiles/place_api/icons/v1/png_71/school-71.png"}, {"rating": 4.1, "user_ratings_total": 227, "name": "Croire Cricket Club", "reference": "ChIJ1VY3k8kYDTkRqvLSAL4hTjw", "geometry": {"location": {"lat": 28.4227981, "lng": 77.1341623}, "viewport": {"northeast": {"lat": 28.4240874302915, "lng": 77.13502088029149}, "southwest": {"lat": 28.4213894697085, "lng": 77.13232291970849}}}, "opening_hours": {"open_now": false}, "place_id": "ChIJ1VY3k8kYDTkRqvLSAL4hTjw", "plus_code": {"global_code": "7JWVC4FM+4M", "compound_code": "C4FM+4M Gurugram, Haryana, India"}, "vicinity": "opposite TERI Off, Faridabad - Gurgaon Road, Baliawas, Gurugram", "photos": [{"photo_reference": "ATtYBwL0ZOlbG9MxknC0piSoIv7Ue-7jF8Tgy3lsIz1t7K-bwxGWbyLID3UG8-uZlV3F77Ykja5VOTOolaA9ABJnYasFMsJ4Fbwiyap6xPq_jmiFO8LH0atO5eyENy2FZ1oFTTrB3_IJQbhFLRSOMwcJH1n0ppXUSx6Jc5z9MSdkX3ubFquv", "width": 3922, "html_attributions": ["<a href=\"https://maps.google.com/maps/contrib/112406097946978205825\">Croire Cricket Club</a>"], "height": 5674}], "scope": "GOOGLE", "business_status": "OPERATIONAL", "types": ["school", "point_of_interest", "establishment"], "icon": "https://maps.gstatic.com/mapfiles/place_api/icons/v1/png_71/school-71.png"}, {"permanently_closed": true, "name": "Ravi Electrical. House wiring", "reference": "ChIJbefoYyIhDTkRl_OkykX9oYM", "geometry": {"location": {"lat": 28.42688579999999, "lng": 77.142856}, "viewport": {"northeast": {"lat": 28.42820358029149, "lng": 77.1443230802915}, "southwest": {"lat": 28.42550561970849, "lng": 77.1416251197085}}}, "place_id": "ChIJbefoYyIhDTkRl_OkykX9oYM", "plus_code": {"global_code": "7JWVC4GV+Q4", "compound_code": "C4GV+Q4 Bandhwari, Haryana, India"}, "vicinity": "Khori Jamalpur", "scope": "GOOGLE", "business_status": "CLOSED_TEMPORARILY", "types": ["school", "point_of_interest", "establishment"], "icon": "https://maps.gstatic.com/mapfiles/place_api/icons/v1/png_71/school-71.png"}, {"permanently_closed": true, "name": "Yansh Adventure Moterspkrts", "reference": "ChIJa7I3Di8fDTkR81gGa-MfgWI", "geometry": {"location": {"lat": 28.4327731, "lng": 77.136257}, "viewport": {"northeast": {"lat": 28.4341242802915, "lng": 77.13759453029151}, "southwest": {"lat": 28.43142631970849, "lng": 77.13489656970849}}}, "place_id": "ChIJa7I3Di8fDTkR81gGa-MfgWI", "plus_code": {"global_code": "7JWVC4MP+4G", "compound_code": "C4MP+4G Bandhwari, Haryana, India"}, "vicinity": "BSF Co-Operative House Society, Baliawas, Bandhwari", "scope": "GOOGLE", "business_status": "CLOSED_TEMPORARILY", "types": ["school", "point_of_interest", "establishment"], "icon": "https://maps.gstatic.com/mapfiles/place_api/icons/v1/png_71/school-71.png"}, {"permanently_closed": true, "name": "National institute of solar energy", "reference": "ChIJh9wijxghDTkRSTMFbR-Xxa0", "geometry": {"location": {"lat": 28.427082, "lng": 77.1445889}, "viewport": {"northeast": {"lat": 28.4284024302915, "lng": 77.14590808029152}, "southwest": {"lat": 28.4257044697085, "lng": 77.1432101197085}}}, "place_id": "ChIJh9wijxghDTkRSTMFbR-Xxa0", "plus_code": {"global_code": "7JWVC4GV+RR", "compound_code": "C4GV+RR Bandhwari, Haryana, India"}, "vicinity": "Major District Road 137, Gwal Pahari, Bandhwari", "scope": "GOOGLE", "business_status": "CLOSED_TEMPORARILY", "types": ["school", "point_of_interest", "establishment"], "icon": "https://maps.gstatic.com/mapfiles/place_api/icons/v1/png_71/school-71.png"}, {"permanently_closed": true, "name": "Rajkumar Harsana", "reference": "ChIJ-Q2DW4chDTkRt2eQrzBDJfk", "geometry": {"location": {"lat": 28.42432299999999, "lng": 77.141727}, "viewport": {"northeast": {"lat": 28.4256720302915, "lng": 77.1430801802915}, "southwest": {"lat": 28.42297406970849, "lng": 77.14038221970848}}}, "place_id": "ChIJ-Q2DW4chDTkRt2eQrzBDJfk", "plus_code": {"global_code": "7JWVC4FR+PM", "compound_code": "C4FR+PM Baliawas, Haryana, India"}, "vicinity": "Village, Baliawas", "scope": "GOOGLE", "business_status": "CLOSED_TEMPORARILY", "types": ["school", "point_of_interest", "establishment"], "icon": "https://maps.gstatic.com/mapfiles/place_api/icons/v1/png_71/school-71.png"}, {"name": "Computer Learning Centar", "reference": "ChIJexomIDQfDTkRmkpnZ3dxB_A", "geometry": {"location": {"lat": 28.4339545, "lng": 77.1449846}, "viewport": {"northeast": {"lat": 28.4353026302915, "lng": 77.1463359802915}, "southwest": {"lat": 28.43260466970849, "lng": 77.14363801970849}}}, "place_id": "ChIJexomIDQfDTkRmkpnZ3dxB_A", "plus_code": {"global_code": "7JWVC4MV+HX", "compound_code": "C4MV+HX Bandhwari, Haryana, India"}, "vicinity": "Unnamed Road, Gwal Pahari, Bandhwari", "photos": [{"photo_reference": "ATtYBwIQHewNacmC5UtKLg5DlgzXe_uzjFDomezDfoO6zp461kc1pcfdK9VclhylYwvwRGgxdZgEjY-ipHjOWlM9P7VWG42JTWIAwqoZj79B0Olhaa2m2fA14LUW0KADmwk5tA3hH9rzQDKqhEKJ816CDMLNw7IXbYzSwdRUrcO1fi70Q4D9", "width": 1280, "html_attributions": ["<a href=\"https://maps.google.com/maps/contrib/103814522890617159115\">Amritesh Singh</a>"], "height": 640}], "scope": "GOOGLE", "business_status": "OPERATIONAL", "types": ["school", "point_of_interest", "establishment"], "icon": "https://maps.gstatic.com/mapfiles/place_api/icons/v1/png_71/generic_business-71.png"}, {"permanently_closed": true, "name": "mathclasses", "reference": "ChIJ95j7p20fDTkRymmER0xMPgs", "geometry": {"location": {"lat": 28.43457519999999, "lng": 77.14530320000001}, "viewport": {"northeast": {"lat": 28.4359223802915, "lng": 77.14657848029151}, "southwest": {"lat": 28.43322441970849, "lng": 77.1438805197085}}}, "place_id": "ChIJ95j7p20fDTkRymmER0xMPgs", "plus_code": {"global_code": "7JWVC4MW+R4", "compound_code": "C4MW+R4 Gurugram, Haryana, India"}, "vicinity": "H. No. 4719 B/104 , Sec23A, Gurugram", "scope": "GOOGLE", "business_status": "CLOSED_TEMPORARILY", "types": ["secondary_school", "university", "school", "point_of_interest", "establishment"], "icon": "https://maps.gstatic.com/mapfiles/place_api/icons/v1/png_71/school-71.png"}, {"rating": 5, "user_ratings_total": 1, "permanently_closed": true, "name": "D veer Gurjar", "reference": "ChIJ5wy5vSkfDTkR8GLqc0tOE6Y", "geometry": {"location": {"lat": 28.43457519999999, "lng": 77.14530320000001}, "viewport": {"northeast": {"lat": 28.4359223802915, "lng": 77.14657848029151}, "southwest": {"lat": 28.43322441970849, "lng": 77.1438805197085}}}, "place_id": "ChIJ5wy5vSkfDTkR8GLqc0tOE6Y", "plus_code": {"global_code": "7JWVC4MW+R4", "compound_code": "C4MW+R4 Gurugram, Haryana, India"}, "vicinity": "H.NO- 10 SWEET HOME, near kinder plume school, 327, Sector 55, Gurugram", "photos": [{"photo_reference": "ATtYBwLsJQM1KNfK16yrid6NREfO6VsrVkr7pqKO1qJqoDR_DwfcdVntJikPqnVdO48ZfN3zxckoD6IiRORv45q8k9xMQxUpj4x6TdxkueCY37E_Uok1Ve2xB9pGsTGb7svJrZf9YdXMOfLdZV9NKBENzRZFe1dtaSCq8vw09PDa4DxhBVV7", "width": 698, "html_attributions": ["<a href=\"https://maps.google.com/maps/contrib/111784857083756698992\">Guruh studios</a>"], "height": 392}], "scope": "GOOGLE", "business_status": "CLOSED_TEMPORARILY", "types": ["school", "point_of_interest", "establishment"], "icon": "https://maps.gstatic.com/mapfiles/place_api/icons/v1/png_71/school-71.png"}, {"rating": 4.4, "user_ratings_total": 5, "permanently_closed": true, "name": "GPS GMS GSSS Gwal Pahari", "reference": "ChIJFxnjy38fDTkRhls8soS3ikY", "geometry": {"location": {"lat": 28.4340865, "lng": 77.1459867}, "viewport": {"northeast": {"lat": 28.4353193302915, "lng": 77.14728633029151}, "southwest": {"lat": 28.4326213697085, "lng": 77.1445883697085}}}, "place_id": "ChIJFxnjy38fDTkRhls8soS3ikY", "plus_code": {"global_code": "7JWVC4MW+J9", "compound_code": "C4MW+J9 Bandhwari, Haryana, India"}, "vicinity": "Faridabad - Gurgaon Road, Gwal Pahari, Bandhwari", "photos": [{"photo_reference": "ATtYBwK04o4RCywjMnDeztuJHM45FUedJV8R9KHn9hg2tZGomOKq6-pci1tY-7TiYDx8julen_fnvIutHf6bvIPTzBkED8MUFVcJQ25I6rfED7XwW73Kr985_uLvYuPHK1FAFT4CzWFe8lRrbTXx4loEZDI1_reT4Jx-jUJDOBERr9WDJxfR", "width": 4096, "html_attributions": ["<a href=\"https://maps.google.com/maps/contrib/103268273775971439927\">Amit Sharma</a>"], "height": 2304}], "scope": "GOOGLE", "business_status": "CLOSED_TEMPORARILY", "types": ["school", "point_of_interest", "establishment"], "icon": "https://maps.gstatic.com/mapfiles/place_api/icons/v1/png_71/school-71.png"}, {"permanently_closed": true, "name": "Vikas convent shool", "reference": "ChIJ0X3KKCwfDTkRBomQiAlhLS4", "geometry": {"location": {"lat": 28.43535829999999, "lng": 77.1449217}, "viewport": {"northeast": {"lat": 28.4367395802915, "lng": 77.14628823029152}, "southwest": {"lat": 28.43404161970849, "lng": 77.1435902697085}}}, "place_id": "ChIJ0X3KKCwfDTkRBomQiAlhLS4", "plus_code": {"global_code": "7JWVC4PV+4X", "compound_code": "C4PV+4X Bandhwari, Haryana, India"}, "vicinity": "Unnamed Road, Dera Mandi, Bandhwari", "scope": "GOOGLE", "business_status": "CLOSED_TEMPORARILY", "types": ["school", "point_of_interest", "establishment"], "icon": "https://maps.gstatic.com/mapfiles/place_api/icons/v1/png_71/school-71.png"}, {"permanently_closed": true, "name": "Government Middle School, Baliawas, Gurgaon", "reference": "ChIJfYC4odYhDTkRndL-AAfnddQ", "geometry": {"location": {"lat": 28.42440629999999, "lng": 77.1446224}, "viewport": {"northeast": {"lat": 28.4257164802915, "lng": 77.14597618029151}, "southwest": {"lat": 28.42301851970849, "lng": 77.1432782197085}}}, "place_id": "ChIJfYC4odYhDTkRndL-AAfnddQ", "plus_code": {"global_code": "7JWVC4FV+QR", "compound_code": "C4FV+QR Bandhwari, Haryana, India"}, "vicinity": "Unnamed Road, Baliawas, Bandhwari", "scope": "GOOGLE", "business_status": "CLOSED_TEMPORARILY", "types": ["school", "point_of_interest", "establishment"], "icon": "https://maps.gstatic.com/mapfiles/place_api/icons/v1/png_71/school-71.png"}, {"permanently_closed": true, "name": "GPS Baliawas", "reference": "ChIJo7QyG8IhDTkRbaivDk9mIUU", "geometry": {"location": {"lat": 28.4244752, "lng": 77.1447572}, "viewport": {"northeast": {"lat": 28.42581463029151, "lng": 77.1461175302915}, "southwest": {"lat": 28.4231166697085, "lng": 77.1434195697085}}}, "place_id": "ChIJo7QyG8IhDTkRbaivDk9mIUU", "plus_code": {"global_code": "7JWVC4FV+QW", "compound_code": "C4FV+QW Baliawas, Haryana, India"}, "vicinity": "Baliawas", "photos": [{"photo_reference": "ATtYBwKMkJ2O0ZK0jHxpNBSTbIytr4lcKkB9UcqFE1BXvRut5jLSa-s5FLSZMFV3K3rlow0qK_wWOq8gz8lQ9fWF4a4V8lj_Ir7WIXX1A5ZCHVCWU43mBP-ggslzyBMIPAbksjcwV5csYGfcgQj7hGROVITwy6u69Ava_VY2ZIBpn0JA-6gH", "width": 1920, "html_attributions": ["<a href=\"https://maps.google.com/maps/contrib/112773375539074816400\">uchit parikh</a>"], "height": 1080}], "scope": "GOOGLE", "business_status": "CLOSED_TEMPORARILY", "types": ["school", "point_of_interest", "establishment"], "icon": "https://maps.gstatic.com/mapfiles/place_api/icons/v1/png_71/school-71.png"}, {"rating": 5, "user_ratings_total": 1, "permanently_closed": true, "name": "Sunita's Yogic Fitness Studio", "reference": "ChIJQ9m2GGMfDTkRkQTKQqq63LE", "geometry": {"location": {"lat": 28.435688, "lng": 77.13532459999999}, "viewport": {"northeast": {"lat": 28.4370571302915, "lng": 77.1366460302915}, "southwest": {"lat": 28.4343591697085, "lng": 77.1339480697085}}}, "place_id": "ChIJQ9m2GGMfDTkRkQTKQqq63LE", "plus_code": {"global_code": "7JWVC4PP+74", "compound_code": "C4PP+74 Gurugram, Haryana, India"}, "vicinity": "Ansal Road 1R, Faridabad - Gurgaon Road, Valley View Estate, Gwal Pahari, Gurugram", "scope": "GOOGLE", "business_status": "CLOSED_TEMPORARILY", "types": ["school", "point_of_interest", "establishment"], "icon": "https://maps.gstatic.com/mapfiles/place_api/icons/v1/png_71/school-71.png"}, {"rating": 5, "user_ratings_total": 2, "permanently_closed": true, "name": "Paper Boat Play School", "reference": "ChIJ8RDIZ7wfDTkRGyGtm2QYub8", "geometry": {"location": {"lat": 28.4362879, "lng": 77.14372399999999}, "viewport": {"northeast": {"lat": 28.4377508302915, "lng": 77.1449727802915}, "southwest": {"lat": 28.4350528697085, "lng": 77.14227481970849}}}, "place_id": "ChIJ8RDIZ7wfDTkRGyGtm2QYub8", "plus_code": {"global_code": "7JWVC4PV+GF", "compound_code": "C4PV+GF New Delhi, Delhi, India"}, "vicinity": "Gwal Pahari, New Delhi", "photos": [{"photo_reference": "ATtYBwIYbpjEWwNz-bN92gQmcYB9Cj0KbG1aUYhella68btFpztdyUA6p4yMGl8yH1SRNHWPfx1kJVh58_GE3k2n0AqtoDQorLF9Blm0Z-c4ygkN4nco5xPuDm68L8bY_eenhUkakHiNmLAHJkJGWUzzP1ntFxMFwSvKlsSI5QfLkEK3rD_i", "width": 1280, "html_attributions": ["<a href=\"https://maps.google.com/maps/contrib/116650401432794821964\">Karol Landry</a>"], "height": 960}], "scope": "GOOGLE", "business_status": "CLOSED_TEMPORARILY", "types": ["school", "point_of_interest", "establishment"], "icon": "https://maps.gstatic.com/mapfiles/place_api/icons/v1/png_71/school-71.png"}, {"rating": 2.3, "user_ratings_total": 9, "permanently_closed": true, "name": "Vikas Convent School", "reference": "ChIJtdEQw0UhDTkRXhpDMCH7WKs", "geometry": {"location": {"lat": 28.4309434, "lng": 77.1314301}, "viewport": {"northeast": {"lat": 28.4322911802915, "lng": 77.1328130802915}, "southwest": {"lat": 28.4295932197085, "lng": 77.13011511970849}}}, "place_id": "ChIJtdEQw0UhDTkRXhpDMCH7WKs", "plus_code": {"global_code": "7JWVC4JJ+9H", "compound_code": "C4JJ+9H Baliawas, Haryana, India"}, "vicinity": "Baliawas", "scope": "GOOGLE", "business_status": "CLOSED_TEMPORARILY", "types": ["school", "point_of_interest", "establishment"], "icon": "https://maps.gstatic.com/mapfiles/place_api/icons/v1/png_71/school-71.png"}, {"rating": 5, "user_ratings_total": 1, "name": "Sportive India 3 Ground", "reference": "ChIJ7UdBd9AhDTkRl6wpxXIrDeg", "geometry": {"location": {"lat": 28.4227286, "lng": 77.1373005}, "viewport": {"northeast": {"lat": 28.4239767302915, "lng": 77.1381289802915}, "southwest": {"lat": 28.4212787697085, "lng": 77.13543101970848}}}, "place_id": "ChIJ7UdBd9AhDTkRl6wpxXIrDeg", "plus_code": {"global_code": "7JWVC4FP+3W", "compound_code": "C4FP+3W Bandhwari, Haryana, India"}, "vicinity": "Baliawas, Bandhwari", "scope": "GOOGLE", "business_status": "OPERATIONAL", "types": ["school", "point_of_interest", "establishment"], "icon": "https://maps.gstatic.com/mapfiles/place_api/icons/v1/png_71/school-71.png"}, {"rating": 5, "user_ratings_total": 1, "permanently_closed": true, "name": "Ipsaa Day Care & Pre School ASF Insignia Gwal Pahari", "reference": "ChIJ-Y0804EfDTkR6ieCu0Ws0CE", "geometry": {"location": {"lat": 28.43405079999999, "lng": 77.1475659}, "viewport": {"northeast": {"lat": 28.4353285802915, "lng": 77.14890843029151}, "southwest": {"lat": 28.4326306197085, "lng": 77.14621046970849}}}, "place_id": "ChIJ-Y0804EfDTkR6ieCu0Ws0CE", "plus_code": {"global_code": "7JWVC4MX+J2", "compound_code": "C4MX+J2 Gwal Pahari, New Delhi, India"}, "vicinity": "Podium Building, ASF Insignia Road, Gwal Pahari, ASF", "photos": [{"photo_reference": "ATtYBwLoN2lqV1waWC8ThyoIwrNnIvlqvMeh-6W9IsIpPqkptrzGmjlmBv5RoR2i-xeE8XdcsdzC5HmbBVd4R1GHwyUDsMCt-_FC3dwQr2hbXybmLsbVkB-TgifxuC6jPApLkiLJCO3NYk5UiTWq5ya6qtsIfVHX9_1q9lYxF35tRYOBOWlB", "width": 4288, "html_attributions": ["<a href=\"https://maps.google.com/maps/contrib/105564835058426450805\">Ipsaa Day Care &amp; Pre School ASF Insignia Gwal Pahari</a>"], "height": 2848}], "scope": "GOOGLE", "business_status": "CLOSED_TEMPORARILY", "types": ["school", "point_of_interest", "establishment"], "icon": "https://maps.gstatic.com/mapfiles/place_api/icons/v1/png_71/school-71.png"}, {"permanently_closed": true, "name": "Neeraj Harsana", "reference": "ChIJs_4DCdohDTkRQ3MrBqUNr1k", "geometry": {"location": {"lat": 28.4226928, "lng": 77.1447546}, "viewport": {"northeast": {"lat": 28.42404348029151, "lng": 77.1460658802915}, "southwest": {"lat": 28.4213455197085, "lng": 77.1433679197085}}}, "place_id": "ChIJs_4DCdohDTkRQ3MrBqUNr1k", "plus_code": {"global_code": "7JWVC4FV+3W", "compound_code": "C4FV+3W Bandhwari, Haryana, India"}, "vicinity": "Unnamed Road, Baliawas, Bandhwari", "photos": [{"photo_reference": "ATtYBwIghF0dkBc4jSSaWoAaJPfV7uTnS5ymg1K6L6QOLVt_8IDfMzMCdyCdx1S0WbIz5W8JZ8lwexAhr7nCixzJvSxDfcG-sGc4cZDeN46N-MvDmHhvoSky05ZcSQLW3k7uVAJMNxF5C7-m-FD13YnOYe_WfFFSv5pfwBER8mYvNFA4Ynyh", "width": 701, "html_attributions": ["<a href=\"https://maps.google.com/maps/contrib/105620438648339906614\">Neeraj Harsana</a>"], "height": 1095}], "scope": "GOOGLE", "business_status": "CLOSED_TEMPORARILY", "types": ["school", "point_of_interest", "establishment"], "icon": "https://maps.gstatic.com/mapfiles/place_api/icons/v1/png_71/school-71.png"}, {"name": "MMP School", "reference": "ChIJQ1OOeGQhDTkRaWYBs-wLAaQ", "geometry": {"location": {"lat": 28.4226138, "lng": 77.1448551}, "viewport": {"northeast": {"lat": 28.4239667302915, "lng": 77.14611403029151}, "southwest": {"lat": 28.4212687697085, "lng": 77.14341606970851}}}, "place_id": "ChIJQ1OOeGQhDTkRaWYBs-wLAaQ", "plus_code": {"global_code": "7JWVC4FV+2W", "compound_code": "C4FV+2W Bandhwari, Haryana, India"}, "vicinity": "Bandhwari", "scope": "GOOGLE", "business_status": "OPERATIONAL", "types": ["secondary_school", "school", "point_of_interest", "establishment"], "icon": "https://maps.gstatic.com/mapfiles/place_api/icons/v1/png_71/school-71.png"}]}