{"status": "OK", "next_page_token": "ATtYBwKl4iHPsjoCwbJovJ9iBf1xFybE3wIAQ0k8z2pXdQQNiwayBsXz7q4UI77iHH_PBpj17l1o4zDF-GL_OhdIVGOkxoaP9toe9r8ZqBlEBulNIF2DRSaD9Q-7BSlAXGCkjUMprwCHENHtcutNi_NCr4UgkxhMq62hISnW2few6FR6dLXmyDic6TgpeUiKT1pPmsrnN3Szu4xoP93DcSCgD9ewoYzYBJGYgd-tBJ_sn8qEFHUU1qI05yb2rM35VDmvioDMWL4tUWOtlgCUQy14wRwQZyx7iI80Xc06U3QtxCxkbYWofwsi1jIkTksTMKDPc_mwksG_392bIjZ-wyHZfJE840Qt-g72_A7lcHwx-Li4JTmBFsP4gsEcwM55wklo4CRW7QJenNJcAcDpJEtvRbKMX_KnhWpGvLM1rxdHss7lhw", "html_attributions": [], "results": [{"rating": 3.7, "user_ratings_total": 202, "name": "Tagore International School", "reference": "ChIJfwMxS6YdDTkRXNRAWUsR6J8", "geometry": {"location": {"lat": 28.5693514, "lng": 77.1617898}, "viewport": {"northeast": {"lat": 28.5704900302915, "lng": 77.1633076802915}, "southwest": {"lat": 28.5677920697085, "lng": 77.16060971970849}}}, "opening_hours": {"open_now": false}, "place_id": "ChIJfwMxS6YdDTkRXNRAWUsR6J8", "plus_code": {"global_code": "7JWVH596+PP", "compound_code": "H596+PP New Delhi, Delhi, India"}, "vicinity": "Paschimi Marg, Block C, Vasant Vihar, New Delhi", "photos": [{"photo_reference": "ATtYBwJNDnYoBgHYHza7cIq2Gtq_rhHkqdKifu0RPBfTXPIJaUjSrehfiZg3rzNvlKGZ_8ye_FV_c4QOkwAAJTb9ndcf4qmhPq-uf8LFrm9UaXyowykPucO17_QojNQfkXDFY-LzQzyPU2H22OFBAOnIt8fjVEW0Ed2ZlYMo5BaHJUvcpGQb", "width": 3264, "html_attributions": ["<a href=\"https://maps.google.com/maps/contrib/106712922337168001487\">Sayanolipavan Ramakirushnan</a>"], "height": 2448}], "scope": "GOOGLE", "business_status": "OPERATIONAL", "types": ["school", "point_of_interest", "establishment"], "icon": "https://maps.gstatic.com/mapfiles/place_api/icons/v1/png_71/school-71.png"}, {"rating": 4.3, "user_ratings_total": 311, "name": "Kendriya Vidyalaya sector 8 RK Puram , New Delhi", "reference": "ChIJh9jLfacdDTkR4e5DV7wZYI8", "geometry": {"location": {"lat": 28.5721664, "lng": 77.16373}, "viewport": {"northeast": {"lat": 28.5737324802915, "lng": 77.1648336302915}, "southwest": {"lat": 28.5710345197085, "lng": 77.16213566970849}}}, "opening_hours": {"open_now": false}, "place_id": "ChIJh9jLfacdDTkR4e5DV7wZYI8", "plus_code": {"global_code": "7JWVH5C7+VF", "compound_code": "H5C7+VF New Delhi, Delhi, India"}, "vicinity": "Rao Tularam Marg, Sector 8, Rama Krishna Puram, New Delhi", "photos": [{"photo_reference": "ATtYBwJkzgSMdqil8uHFDXVv-Nj99bpqUYk0aK3YUuNiPpQrd25z5DkUctckx_d3Y5VXfuuQYgcNiKAQuo4H3MHOEZf0PXURPs4JS6GgJULT7N5UXWXrgnl-onzJP89Mh86PUdEm_pr9lFKWzqEcFEuNq7gBoLpftGAc3s-9fDrc5GK3LY9q", "width": 5664, "html_attributions": ["<a href=\"https://maps.google.com/maps/contrib/116524169938281692836\">deepak sharma</a>"], "height": 4248}], "scope": "GOOGLE", "business_status": "OPERATIONAL", "types": ["school", "point_of_interest", "establishment"], "icon": "https://maps.gstatic.com/mapfiles/place_api/icons/v1/png_71/school-71.png"}, {"rating": 4.4, "user_ratings_total": 372, "name": "AIR FORCE SCHOOL SUBROTO PARK", "reference": "ChIJs-3IeRwdDTkRbj-P5yEaHZg", "geometry": {"location": {"lat": 28.5797808, "lng": 77.15139239999999}, "viewport": {"northeast": {"lat": 28.5811042802915, "lng": 77.1527894302915}, "southwest": {"lat": 28.5784063197085, "lng": 77.1500914697085}}}, "place_id": "ChIJs-3IeRwdDTkRbj-P5yEaHZg", "plus_code": {"global_code": "7JWVH5H2+WH", "compound_code": "H5H2+WH New Delhi, Delhi, India"}, "vicinity": "Air Force School HQ WAC (Unit, Subroto Park, New Delhi", "photos": [{"photo_reference": "ATtYBwL3NGViUJcRMEttVkOZyGVe2mmbtSyySEQKdcC4gTlER5Psx72w6igptdiyb6oSUneqErDxo0yNS6Gt-DuckGl6Rn5Nv6jfsUEftK9JMS95CzoNxSgsZdaECOH7HuVfTDG-gRRsskOCrE18X3gka1WA1WiiJFgjB3dPaIuIaqCOZNe1", "width": 4160, "html_attributions": ["<a href=\"https://maps.google.com/maps/contrib/115947313049949716990\">Hemant Kumar Dubey</a>"], "height": 2340}], "scope": "GOOGLE", "business_status": "OPERATIONAL", "types": ["school", "point_of_interest", "establishment"], "icon": "https://maps.gstatic.com/mapfiles/place_api/icons/v1/png_71/school-71.png"}, {"rating": 4.4, "user_ratings_total": 42, "name": "Kerala Education Society Senior Secondary School", "reference": "ChIJHfZiRqcdDTkRjC2C3OXE6bk", "geometry": {"location": {"lat": 28.5709733, "lng": 77.1649003}, "viewport": {"northeast": {"lat": 28.5723251302915, "lng": 77.16624353029151}, "southwest": {"lat": 28.56962716970849, "lng": 77.16354556970849}}}, "place_id": "ChIJHfZiRqcdDTkRjC2C3OXE6bk", "plus_code": {"global_code": "7JWVH5C7+9X", "compound_code": "H5C7+9X New Delhi, Delhi, India"}, "vicinity": "Sector 8, Rama Krishna Puram, New Delhi", "photos": [{"photo_reference": "ATtYBwIjAaO2CWvQjChGbHfvAPsOQPs_dT5GqJZY2uapp-VBgs16upmU8PHVm3nXXTBhBVir2k2ZTm3QSarZ5gNIAVa_uXNQrwKbqG6DCSSbemjVsFzpYEhNwvMgbW5C5pjbJlk3gBUKTET3xZrgb7mK-T2z8TDxDatguoUrmy4GIUalIUij", "width": 1920, "html_attributions": ["<a href=\"https://maps.google.com/maps/contrib/107112604260802371452\">Neelam Rawat</a>"], "height": 1080}], "scope": "GOOGLE", "business_status": "OPERATIONAL", "types": ["school", "point_of_interest", "establishment"], "icon": "https://maps.gstatic.com/mapfiles/place_api/icons/v1/png_71/school-71.png"}, {"rating": 4.2, "user_ratings_total": 205, "name": "Guru Harkrishan Public School", "reference": "ChIJW6Qi-7wdDTkRAaD46mZuEHA", "geometry": {"location": {"lat": 28.5596885, "lng": 77.16844379999999}, "viewport": {"northeast": {"lat": 28.5612961302915, "lng": 77.1697357302915}, "southwest": {"lat": 28.5585981697085, "lng": 77.16703776970849}}}, "opening_hours": {"open_now": false}, "place_id": "ChIJW6Qi-7wdDTkRAaD46mZuEHA", "plus_code": {"global_code": "7JWVH559+V9", "compound_code": "H559+V9 New Delhi, Delhi, India"}, "vicinity": "Vasant Vihar Poorvi Marg, Vasant Vihar, Opp St. Dominic\u2019s Church, New Delhi", "photos": [{"photo_reference": "ATtYBwIjw16346wdOKZ3XUmKPMapAJtwhWyvcGCa--0X5AJn_DEpLMttEMmi5O40vZJpckxBDJMkVIhDtiEjt2g4hJVTq4bhKO5PYW_WADQtCQ0q5o0ea0vWiRpmfp42RqMqqn9_q4K9NMtULqBAfc-wzcer9V-4OQlAPeQj12Uz6Xy5Fdfw", "width": 4160, "html_attributions": ["<a href=\"https://maps.google.com/maps/contrib/104314952887803969761\">Chetan Mehra</a>"], "height": 2340}], "scope": "GOOGLE", "business_status": "OPERATIONAL", "types": ["school", "point_of_interest", "establishment"], "icon": "https://maps.gstatic.com/mapfiles/place_api/icons/v1/png_71/school-71.png"}, {"rating": 4.6, "user_ratings_total": 17, "name": "Convent of Rani Jhansi", "reference": "ChIJP8MXaaAdDTkRHaF2ZGtLK2I", "geometry": {"location": {"lat": 28.5715453, "lng": 77.16930579999999}, "viewport": {"northeast": {"lat": 28.5729151302915, "lng": 77.17072323029149}, "southwest": {"lat": 28.5702171697085, "lng": 77.16802526970848}}}, "opening_hours": {"open_now": false}, "place_id": "ChIJP8MXaaAdDTkRHaF2ZGtLK2I", "plus_code": {"global_code": "7JWVH5C9+JP", "compound_code": "H5C9+JP New Delhi, Delhi, India"}, "vicinity": "Sector 8 R K Puram, RamaKrishna Puram, New Delhi", "photos": [{"photo_reference": "ATtYBwJjpea4lwOXDrQ5fizPFNQXDLN8KYg3f0wz6ceFyKXdE-7wh1b2r3yz9mHCMQITeM6ZJzHytprTHf3VS9jeLFdBf5RLwQA7BB2i9Cm4-l8IYAc2C3utricQwQlKsAp1qRfw-Qf-J9coRKrIGvIZDLZWRb_ZWLmP60s4j-GuqzYiDevf", "width": 4640, "html_attributions": ["<a href=\"https://maps.google.com/maps/contrib/107888711351716801837\">Abhishek Sharma</a>"], "height": 3480}], "scope": "GOOGLE", "business_status": "OPERATIONAL", "types": ["school", "point_of_interest", "establishment"], "icon": "https://maps.gstatic.com/mapfiles/place_api/icons/v1/png_71/school-71.png"}, {"rating": 3, "user_ratings_total": 2, "permanently_closed": true, "name": "Nai Disha", "reference": "ChIJc4_x56gdDTkRfbFDHmmxUZw", "geometry": {"location": {"lat": 28.5679441, "lng": 77.1572534}, "viewport": {"northeast": {"lat": 28.5692397802915, "lng": 77.15864363029151}, "southwest": {"lat": 28.5665418197085, "lng": 77.15594566970849}}}, "place_id": "ChIJc4_x56gdDTkRfbFDHmmxUZw", "plus_code": {"global_code": "7JWVH594+5W", "compound_code": "H594+5W New Delhi, Delhi, India"}, "vicinity": "Near Kalyan Kendra Society, C-10/8, Block C, Vasant Vihar, New Delhi", "scope": "GOOGLE", "business_status": "CLOSED_TEMPORARILY", "types": ["school", "point_of_interest", "establishment"], "icon": "https://maps.gstatic.com/mapfiles/place_api/icons/v1/png_71/school-71.png"}, {"permanently_closed": true, "name": "Senior Citizens Welfare Association", "reference": "ChIJu5Ou5KYdDTkRgG_Kx_cxQoE", "geometry": {"location": {"lat": 28.56909499999999, "lng": 77.163642}, "viewport": {"northeast": {"lat": 28.5703763802915, "lng": 77.1650395802915}, "southwest": {"lat": 28.5676784197085, "lng": 77.16234161970849}}}, "place_id": "ChIJu5Ou5KYdDTkRgG_Kx_cxQoE", "plus_code": {"global_code": "7JWVH597+JF", "compound_code": "H597+JF New Delhi, Delhi, India"}, "vicinity": "B10, Pandav Nagar, Sector B 1, Vasant Vihar, New Delhi", "scope": "GOOGLE", "business_status": "CLOSED_TEMPORARILY", "types": ["school", "point_of_interest", "establishment"], "icon": "https://maps.gstatic.com/mapfiles/place_api/icons/v1/png_71/school-71.png"}, {"rating": 4.8, "user_ratings_total": 4, "permanently_closed": true, "name": "Little Senators Montessori Preschool", "reference": "ChIJJRLPX6YdDTkR4b_Tj61jnQs", "geometry": {"location": {"lat": 28.56780059999999, "lng": 77.1629956}, "viewport": {"northeast": {"lat": 28.5691176802915, "lng": 77.16428308029151}, "southwest": {"lat": 28.5664197197085, "lng": 77.1615851197085}}}, "place_id": "ChIJJRLPX6YdDTkR4b_Tj61jnQs", "plus_code": {"global_code": "7JWVH597+45", "compound_code": "H597+45 New Delhi, Delhi, India"}, "vicinity": "B3/26, B-3, Pandav Nagar, Sector B 1, Vasant Vihar, New Delhi", "scope": "GOOGLE", "business_status": "CLOSED_TEMPORARILY", "types": ["school", "point_of_interest", "establishment"], "icon": "https://maps.gstatic.com/mapfiles/place_api/icons/v1/png_71/school-71.png"}, {"rating": 4.3, "user_ratings_total": 10, "name": "The Magic Years", "reference": "ChIJ066dTq8dDTkRYvEm0pJ7XTg", "geometry": {"location": {"lat": 28.56478529999999, "lng": 77.1589032}, "viewport": {"northeast": {"lat": 28.5661105802915, "lng": 77.16021193029151}, "southwest": {"lat": 28.56341261970849, "lng": 77.1575139697085}}}, "place_id": "ChIJ066dTq8dDTkRYvEm0pJ7XTg", "plus_code": {"global_code": "7JWVH575+WH", "compound_code": "H575+WH New Delhi, Delhi, India"}, "vicinity": "near Delhi Public School Vasant Vihar, Street, E-3, Vasant Vihar, New Delhi", "photos": [{"photo_reference": "ATtYBwICGcOzjXF_28Uid6_SBo1KgAjaz1i2zMe2Q3P0N4XH8cTQYkHtEQUbrj64lgldlbUIflItWrHjcdEtfsfw0f5COktCnwlcjp2d1FTkeCXXtChUEjVwxkk07-18fo6X2svu9Ztte9-cl1vZSHibtbovyt1fYSD6kg3fsV-jgaoiaBvk", "width": 1000, "html_attributions": ["<a href=\"https://maps.google.com/maps/contrib/111293501238253347204\">Gaurav kumar</a>"], "height": 2000}], "scope": "GOOGLE", "business_status": "OPERATIONAL", "types": ["school", "point_of_interest", "establishment"], "icon": "https://maps.gstatic.com/mapfiles/place_api/icons/v1/png_71/school-71.png"}, {"rating": 4.2, "user_ratings_total": 31, "permanently_closed": true, "name": "Upras Vidyalaya", "reference": "ChIJDQmECqUdDTkRcJr4tnPt7ew", "geometry": {"location": {"lat": 28.5659583, "lng": 77.1640556}, "viewport": {"northeast": {"lat": 28.5671825302915, "lng": 77.16549478029151}, "southwest": {"lat": 28.5644845697085, "lng": 77.1627968197085}}}, "place_id": "ChIJDQmECqUdDTkRcJr4tnPt7ew", "plus_code": {"global_code": "7JWVH587+9J", "compound_code": "H587+9J New Delhi, Delhi, India"}, "vicinity": "Vasant Marg , Vasant Vihar, New Delhi", "photos": [{"photo_reference": "ATtYBwITnR81vgdn2aQ5je4h30lhvwSIA2zL1YIMYQpip3VQTClJEZy-A5-Qf5ABwgb-y4lyKLwK-Pho07KcXCAE-OXBI1_Jhx59GuyD_8fnRT8IPaaOO9Gw_B2n-pfN473GLgU-rFeeojLhXvl0uupw42Q55uAFZElj4mI7_Bf2wuLxbaHo", "width": 750, "html_attributions": ["<a href=\"https://maps.google.com/maps/contrib/100930901241276867962\">shankar karmakar</a>"], "height": 500}], "scope": "GOOGLE", "business_status": "CLOSED_TEMPORARILY", "types": ["school", "point_of_interest", "establishment"], "icon": "https://maps.gstatic.com/mapfiles/place_api/icons/v1/png_71/school-71.png"}, {"rating": 5, "user_ratings_total": 3, "permanently_closed": true, "name": "Narayani school", "reference": "ChIJ1ygama4dDTkRZcLgOCfF2wY", "geometry": {"location": {"lat": 28.5640993, "lng": 77.1546897}, "viewport": {"northeast": {"lat": 28.5654414802915, "lng": 77.1560370302915}, "southwest": {"lat": 28.5627435197085, "lng": 77.1533390697085}}}, "place_id": "ChIJ1ygama4dDTkRZcLgOCfF2wY", "plus_code": {"global_code": "7JWVH573+JV", "compound_code": "H573+JV New Delhi, Delhi, India"}, "vicinity": "D3 Street, Block D, Vasant Vihar, New Delhi", "scope": "GOOGLE", "business_status": "CLOSED_TEMPORARILY", "types": ["school", "point_of_interest", "establishment"], "icon": "https://maps.gstatic.com/mapfiles/place_api/icons/v1/png_71/school-71.png"}, {"rating": 4.6, "user_ratings_total": 23, "name": "Yogi Anoop\u2019s Yogic Therapy", "reference": "ChIJvUWE8qQdDTkRApBzRAZIUqs", "geometry": {"location": {"lat": 28.5630494, "lng": 77.16360879999999}, "viewport": {"northeast": {"lat": 28.5643893802915, "lng": 77.16491263029151}, "southwest": {"lat": 28.5616914197085, "lng": 77.16221466970849}}}, "opening_hours": {"open_now": false}, "place_id": "ChIJvUWE8qQdDTkRApBzRAZIUqs", "plus_code": {"global_code": "7JWVH577+6C", "compound_code": "H577+6C New Delhi, Delhi, India"}, "vicinity": "A-11 basement Sangeet Shyamala, Block A, Vasant Vihar, New Delhi", "photos": [{"photo_reference": "ATtYBwI2GmpKqR0QVs2AnZSH8TDwtmeJc3zWCC0l8YSJ4-pkstmPdPoGZjWko-_hES7xeDHKlIfVPlXk1vTIF2LFw6CP-Ds6wAI5owbpsxkXrPaddqN5Xw-BdIcK4z-3S0gRoK6L9Kls2TP2799uUdQBD9t1orlNGn-JpkIJe8qpEOkYqA-h", "width": 4032, "html_attributions": ["<a href=\"https://maps.google.com/maps/contrib/111459666271964099748\">Yogi Anoop\u2019s Yogic Therapy</a>"], "height": 3024}], "scope": "GOOGLE", "business_status": "OPERATIONAL", "types": ["school", "gym", "health", "point_of_interest", "establishment"], "icon": "https://maps.gstatic.com/mapfiles/place_api/icons/v1/png_71/school-71.png"}, {"rating": 4.2, "user_ratings_total": 129, "name": "MOUNT CARMEL SCHOOL", "reference": "ChIJ3Usf8SbG5zsRG1DXeZQEr_A", "geometry": {"location": {"lat": 28.5762201, "lng": 77.1650834}, "viewport": {"northeast": {"lat": 28.5774937302915, "lng": 77.1666831802915}, "southwest": {"lat": 28.57479576970849, "lng": 77.16398521970848}}}, "place_id": "ChIJ3Usf8SbG5zsRG1DXeZQEr_A", "plus_code": {"global_code": "7JWVH5G8+F2", "compound_code": "H5G8+F2 New Delhi, Delhi, India"}, "vicinity": "A-21, Anand Niketan, New Delhi", "photos": [{"photo_reference": "ATtYBwLmCCeWUfhf1CJMVdj7EBorDBJDymKk6Y-0RN7PCb_jKoqla0ZcNWCIGp1NLLVbMYSTY8W6lUHjJikwxfB-HN8vonBZqCLAH-Q0x9ylnCQunOJ4Rme7TcVbgbXq6YysaKDXcmoKPpJ3_PrchIWsCuPJDeRBmd4OA2U_-GEEuXuFqWOQ", "width": 4160, "html_attributions": ["<a href=\"https://maps.google.com/maps/contrib/118320871216377691424\">sanjay berry</a>"], "height": 3120}], "scope": "GOOGLE", "business_status": "OPERATIONAL", "types": ["school", "point_of_interest", "establishment"], "icon": "https://maps.gstatic.com/mapfiles/place_api/icons/v1/png_71/school-71.png"}, {"rating": 4.6, "user_ratings_total": 5, "permanently_closed": true, "name": "sound of music", "reference": "ChIJgdg3Rr4cDTkRrE4KlLTlcv8", "geometry": {"location": {"lat": 28.572378, "lng": 77.15058499999999}, "viewport": {"northeast": {"lat": 28.5737075302915, "lng": 77.15196628029149}, "southwest": {"lat": 28.5710095697085, "lng": 77.14926831970848}}}, "place_id": "ChIJgdg3Rr4cDTkRrE4KlLTlcv8", "plus_code": {"global_code": "7JWVH5C2+X6", "compound_code": "H5C2+X6 New Delhi, Delhi, India"}, "vicinity": "AWWA Vocational Institute, Shankar Vihar, Delhi Cantt, New Delhi", "photos": [{"photo_reference": "ATtYBwK_iCSQN3SG8CcoixGCdWVGtqQS2v8vNtEq2ruqjyqUKB6beV22ryqBdtiZ312vRYy_g2S88vq_8fqfcGnRwXKBgTwJfqQdmrzX5rIChtFwX354lX2hPvIIE4qH_vIEfDCWytDb5FX_r6GKf_v32f2wPs-AmtsrphH3ZH8ecxaYDM-8", "width": 2048, "html_attributions": ["<a href=\"https://maps.google.com/maps/contrib/109941333279890173522\">sound of music</a>"], "height": 1365}], "scope": "GOOGLE", "business_status": "CLOSED_TEMPORARILY", "types": ["school", "point_of_interest", "establishment"], "icon": "https://maps.gstatic.com/mapfiles/place_api/icons/v1/png_71/school-71.png"}, {"rating": 4.2, "user_ratings_total": 92, "name": "Holy Child Auxilium High School", "reference": "ChIJ5y4-S7sdDTkRzkMaY7l2NYA", "geometry": {"location": {"lat": 28.5608744, "lng": 77.1649609}, "viewport": {"northeast": {"lat": 28.5621316802915, "lng": 77.16634823029149}, "southwest": {"lat": 28.5594337197085, "lng": 77.16365026970848}}}, "opening_hours": {"open_now": false}, "place_id": "ChIJ5y4-S7sdDTkRzkMaY7l2NYA", "plus_code": {"global_code": "7JWVH567+8X", "compound_code": "H567+8X New Delhi, Delhi, India"}, "vicinity": "Poorvi Marg, Vasant Vihar, New Delhi, 110019", "photos": [{"photo_reference": "ATtYBwJrcvU6fB-nfw4wyUAHfizdsmTbh9-UejwMy7k97XhfyJqmYYHYLVuza4Wk1zbt857UP6KICYMmkWQtegjmgGP9oYVRYIm3UrHkzn20WjtF3OLIr0g2U01c4_Ax19I1nLHPTgPOAZ9d8Yj-qgcpjG7GAjcM9fhGuqzgfMicZ7GmauZQ", "width": 3024, "html_attributions": ["<a href=\"https://maps.google.com/maps/contrib/102482762380646435983\">sandeep sharma</a>"], "height": 4032}], "scope": "GOOGLE", "business_status": "OPERATIONAL", "types": ["secondary_school", "school", "point_of_interest", "establishment"], "icon": "https://maps.gstatic.com/mapfiles/place_api/icons/v1/png_71/school-71.png"}, {"rating": 4.7, "user_ratings_total": 3, "permanently_closed": true, "name": "SDMC Pratibha Co. Ed. School, Sector 7, RK Puram", "reference": "ChIJEwxy3aEdDTkRaotlJu80h1w", "geometry": {"location": {"lat": 28.5693026, "lng": 77.17109339999999}, "viewport": {"northeast": {"lat": 28.5706221302915, "lng": 77.1722205802915}, "southwest": {"lat": 28.5679241697085, "lng": 77.16952261970849}}}, "place_id": "ChIJEwxy3aEdDTkRaotlJu80h1w", "plus_code": {"global_code": "7JWVH59C+PC", "compound_code": "H59C+PC New Delhi, Delhi, India"}, "vicinity": "Sector 7, Rama Krishna Puram, New Delhi", "photos": [{"photo_reference": "ATtYBwLENWx3XpSyWyj9MfIh-PvdcWgiRwaM_Q_C-_uma01gX3tOWjXqkDuSsdCrJW4ues9wf1a9Q_AxU8cD4R3H8akdUMQVxV-uf0kQmWToBFIwR5Z-5SVBQVnyMzj0CMvWIwtXIXQxNpk41uK6RK6_-XN2hOyaEGjbm8W1LXYBuGiVy7VU", "width": 3456, "html_attributions": ["<a href=\"https://maps.google.com/maps/contrib/100773128953622905237\">KL Kaushik</a>"], "height": 4608}], "scope": "GOOGLE", "business_status": "CLOSED_TEMPORARILY", "types": ["school", "point_of_interest", "establishment"], "icon": "https://maps.gstatic.com/mapfiles/place_api/icons/v1/png_71/school-71.png"}, {"rating": 5, "user_ratings_total": 4, "name": "MONGRACE MONTESSORI HOUSE", "reference": "ChIJ-z4Scq4dDTkRqRYIakd_HcQ", "geometry": {"location": {"lat": 28.5617976, "lng": 77.1536539}, "viewport": {"northeast": {"lat": 28.5631141802915, "lng": 77.15479193029151}, "southwest": {"lat": 28.5604162197085, "lng": 77.15209396970849}}}, "place_id": "ChIJ-z4Scq4dDTkRqRYIakd_HcQ", "plus_code": {"global_code": "7JWVH563+PF", "compound_code": "H563+PF New Delhi, Delhi, India"}, "vicinity": "near Tamana School, D6 Street, Vasant Vihar, New Delhi", "photos": [{"photo_reference": "ATtYBwLv73qLwasWUCldx1R9iRI_cXcdpcJWZNjxyLLA7gYHBI4GbsyOS7G7X9S-bI50WuSG3fLPVuc4M9GzBSAo1v-0hk0G_OgKno9NsKmHWBScxeyja1ilNspWzlLWVTTkLSNtWf8lCzcV33WphADv2lu4beyJCJl73vXOi_SMZtdfW8AL", "width": 419, "html_attributions": ["<a href=\"https://maps.google.com/maps/contrib/105850103429658254585\">MONGRACE MONTESSORI HOUSE - PLAY SCHOOL IN VASANT VIHAR, NEW DELHI</a>"], "height": 313}], "scope": "GOOGLE", "business_status": "OPERATIONAL", "types": ["school", "point_of_interest", "establishment"], "icon": "https://maps.gstatic.com/mapfiles/place_api/icons/v1/png_71/school-71.png"}, {"rating": 5, "user_ratings_total": 3, "permanently_closed": true, "name": "School of Hope Tamana Association", "reference": "ChIJqdyO3K0dDTkRg74aG1IJ-o0", "geometry": {"location": {"lat": 28.5616621, "lng": 77.1537024}, "viewport": {"northeast": {"lat": 28.5631509802915, "lng": 77.15505023029151}, "southwest": {"lat": 28.5604530197085, "lng": 77.15235226970849}}}, "place_id": "ChIJqdyO3K0dDTkRg74aG1IJ-o0", "plus_code": {"global_code": "7JWVH563+MF", "compound_code": "H563+MF New Delhi, Delhi, India"}, "vicinity": "Block D, Vasant Vihar, New Delhi", "photos": [{"photo_reference": "ATtYBwLIGD6xl3tTXAEuRxdxmKOhmd9n84284iGyJbNtmchw7e2sYUt_wsZlfiXRYgNnr_aGfogGteBig8a8Y1BNvHdAKI8oIjrlXjxx-2LgqfCCbstpVaB9Eu21tFxTWAoFZoO8-BltyaN9ypp-si4Y88jWUlHgH8G_dkSHzDhbAQ7f3P2W", "width": 3024, "html_attributions": ["<a href=\"https://maps.google.com/maps/contrib/101422625159595400494\">AvtarRana \u0938\u0928\u094d\u0924\u093e\u0923\u0917\u093e\u0901\u0935</a>"], "height": 4032}], "scope": "GOOGLE", "business_status": "CLOSED_TEMPORARILY", "types": ["school", "point_of_interest", "establishment"], "icon": "https://maps.gstatic.com/mapfiles/place_api/icons/v1/png_71/school-71.png"}, {"permanently_closed": true, "name": "Maitri India", "reference": "ChIJk4dRTZ8dDTkRDYckIdFew8k", "geometry": {"location": {"lat": 28.56746429999999, "lng": 77.17227770000001}, "viewport": {"northeast": {"lat": 28.5689817802915, "lng": 77.1735747802915}, "southwest": {"lat": 28.5662838197085, "lng": 77.1708768197085}}}, "place_id": "ChIJk4dRTZ8dDTkRDYckIdFew8k", "plus_code": {"global_code": "7JWVH58C+XW", "compound_code": "H58C+XW New Delhi, Delhi, India"}, "vicinity": "Lal Bahadur Shastri Colony, Sector 6, Rama Krishna Puram, New Delhi", "scope": "GOOGLE", "business_status": "CLOSED_TEMPORARILY", "types": ["school", "point_of_interest", "establishment"], "icon": "https://maps.gstatic.com/mapfiles/place_api/icons/v1/png_71/school-71.png"}]}