{"status": "OK", "html_attributions": [], "results": [{"name": "Dps International School", "reference": "ChIJf10WR54dDTkR4eWU2utGnsA", "geometry": {"location": {"lat": 28.5719223, "lng": 77.1753777}, "viewport": {"northeast": {"lat": 28.5732592302915, "lng": 77.1767165802915}, "southwest": {"lat": 28.5705612697085, "lng": 77.17401861970849}}}, "place_id": "ChIJf10WR54dDTkR4eWU2utGnsA", "plus_code": {"global_code": "7JWVH5CG+Q5", "compound_code": "H5CG+Q5 New Delhi, Delhi, India"}, "vicinity": "1369, Kaifi Azmi Marg, Sector 12, Rama Krishna Puram, New Delhi", "scope": "GOOGLE", "business_status": "OPERATIONAL", "types": ["school", "point_of_interest", "establishment"], "icon": "https://maps.gstatic.com/mapfiles/place_api/icons/v1/png_71/school-71.png"}, {"permanently_closed": true, "name": "Blue building white bridge", "reference": "ChIJMbVrFrAdDTkRw_dPA9MRd6I", "geometry": {"location": {"lat": 28.5718967, "lng": 77.1750984}, "viewport": {"northeast": {"lat": 28.5732508302915, "lng": 77.1764343302915}, "southwest": {"lat": 28.5705528697085, "lng": 77.1737363697085}}}, "place_id": "ChIJMbVrFrAdDTkRw_dPA9MRd6I", "plus_code": {"global_code": "7JWVH5CG+Q2", "compound_code": "H5CG+Q2 New Delhi, Delhi, India"}, "vicinity": "Unnamed Road, Som Vihar, Rama Krishna Puram, New Delhi", "scope": "GOOGLE", "business_status": "CLOSED_TEMPORARILY", "types": ["school", "point_of_interest", "establishment"], "icon": "https://maps.gstatic.com/mapfiles/place_api/icons/v1/png_71/school-71.png"}, {"rating": 5, "user_ratings_total": 2, "permanently_closed": true, "name": "R.K PURAM SEC 7", "reference": "ChIJ8cjonvgdDTkRSKYnHhSl09E", "geometry": {"location": {"lat": 28.5675379, "lng": 77.1753676}, "viewport": {"northeast": {"lat": 28.5689170302915, "lng": 77.1766988302915}, "southwest": {"lat": 28.56621906970849, "lng": 77.1740008697085}}}, "place_id": "ChIJ8cjonvgdDTkRSKYnHhSl09E", "plus_code": {"global_code": "7JWVH59G+24", "compound_code": "H59G+24 New Delhi, Delhi, India"}, "vicinity": "Tamil Sangam Marg, O Block, Nivedita Kunj, Sector 10, Rama Krishna Puram, New Delhi", "photos": [{"photo_reference": "ATtYBwJl1C9OahWKP-AmvdmRSkGB5fR6XgaSDyXve4g_B5ngN2QPj6nDqSQuMINRfMtBFtm9Ab5naH0kvecdvLeX0KRmkY1zOHJ-CVu1bz7sBYaa8dETk10BZuS8qFlFg3tlcoQvKmrne3lkVn3NJuCXu_mdOiqUq4Yt0MJqFlaV3RcoOuN8", "width": 4000, "html_attributions": ["<a href=\"https://maps.google.com/maps/contrib/102626555811736604585\">Dpak Upreti</a>"], "height": 3000}], "scope": "GOOGLE", "business_status": "CLOSED_TEMPORARILY", "types": ["school", "point_of_interest", "establishment"], "icon": "https://maps.gstatic.com/mapfiles/place_api/icons/v1/png_71/school-71.png"}, {"rating": 5, "user_ratings_total": 1, "name": "Sohail Khan", "reference": "ChIJgTsc_ZodDTkR03SxqSZtAjQ", "geometry": {"location": {"lat": 28.5651849, "lng": 77.1808302}, "viewport": {"northeast": {"lat": 28.5665071302915, "lng": 77.1822146802915}, "southwest": {"lat": 28.5638091697085, "lng": 77.17951671970849}}}, "opening_hours": {"open_now": false}, "place_id": "ChIJgTsc_ZodDTkR03SxqSZtAjQ", "plus_code": {"global_code": "7JWVH58J+38", "compound_code": "H58J+38 New Delhi, Delhi, India"}, "vicinity": "Shop No.18, Kashmiri Market, Chemist Market, Sector-1, Vivekanand Marg, West Block 6, Rama Krishna Puram, New Delhi", "photos": [{"photo_reference": "ATtYBwKPMLXMgkRDolIhxEkOysg6IBNbBuOinGsSvcpKPk06t2M5W_vWZ1q3jz12_iyxeiY4AePmgzDJu7wRo_LWFH62Lc4m_oLDPSjha6G3sVc63M71dgebqr_TCRf2ItK-Nvt4b99cCcD5vQIe-6HmbQ3UmC4R28PdN8eWfBolzp8vCkOI", "width": 1200, "html_attributions": ["<a href=\"https://maps.google.com/maps/contrib/104745010901878089712\">Sohil Khan</a>"], "height": 674}], "scope": "GOOGLE", "business_status": "OPERATIONAL", "types": ["school", "car_repair", "point_of_interest", "establishment"], "icon": "https://maps.gstatic.com/mapfiles/place_api/icons/v1/png_71/school-71.png"}, {"permanently_closed": true, "name": "Sdmc Sector 12", "reference": "ChIJyW4JpsUdDTkR4NokYKBOThg", "geometry": {"location": {"lat": 28.5660075, "lng": 77.1767435}, "viewport": {"northeast": {"lat": 28.5673335302915, "lng": 77.17806453029151}, "southwest": {"lat": 28.5646355697085, "lng": 77.17536656970849}}}, "place_id": "ChIJyW4JpsUdDTkR4NokYKBOThg", "plus_code": {"global_code": "7JWVH58G+CM", "compound_code": "H58G+CM New Delhi, Delhi, India"}, "vicinity": "Rama Krishna Puram, New Delhi", "scope": "GOOGLE", "business_status": "CLOSED_TEMPORARILY", "types": ["school", "point_of_interest", "establishment"], "icon": "https://maps.gstatic.com/mapfiles/place_api/icons/v1/png_71/school-71.png"}, {"rating": 2, "user_ratings_total": 2, "permanently_closed": true, "name": "Kamdhenu School", "reference": "ChIJTYDQX3wdDTkR_pQccwyvMeY", "geometry": {"location": {"lat": 28.5660075, "lng": 77.1767435}, "viewport": {"northeast": {"lat": 28.56735563029151, "lng": 77.1780932802915}, "southwest": {"lat": 28.5646576697085, "lng": 77.1753953197085}}}, "place_id": "ChIJTYDQX3wdDTkR_pQccwyvMeY", "vicinity": "Kama Koti Marg, RBI Colony, West Block, Rama Krishna Puram, New Delhi", "scope": "GOOGLE", "business_status": "CLOSED_TEMPORARILY", "types": ["school", "point_of_interest", "establishment"], "icon": "https://maps.gstatic.com/mapfiles/place_api/icons/v1/png_71/school-71.png"}, {"rating": 3, "user_ratings_total": 1, "permanently_closed": true, "name": "oppal public school", "reference": "ChIJhYQ0ZJkdDTkRCpknixWa-qA", "geometry": {"location": {"lat": 28.5660075, "lng": 77.1767435}, "viewport": {"northeast": {"lat": 28.5673335302915, "lng": 77.17806453029151}, "southwest": {"lat": 28.5646355697085, "lng": 77.17536656970849}}}, "place_id": "ChIJhYQ0ZJkdDTkRCpknixWa-qA", "vicinity": "RBI Colony, Sector 6, Rama Krishna Puram, New Delhi", "scope": "GOOGLE", "business_status": "CLOSED_TEMPORARILY", "types": ["school", "point_of_interest", "establishment"], "icon": "https://maps.gstatic.com/mapfiles/place_api/icons/v1/png_71/school-71.png"}, {"rating": 4, "user_ratings_total": 1, "permanently_closed": true, "name": "VOCATIONAL TRAINING CENTRE", "reference": "ChIJ-SlQMJkdDTkRX4NwzqW7yB8", "geometry": {"location": {"lat": 28.5671533, "lng": 77.175252}, "viewport": {"northeast": {"lat": 28.5685670302915, "lng": 77.1766848802915}, "southwest": {"lat": 28.56586906970849, "lng": 77.1739869197085}}}, "place_id": "ChIJ-SlQMJkdDTkRX4NwzqW7yB8", "plus_code": {"global_code": "7JWVH58G+V4", "compound_code": "H58G+V4 New Delhi, Delhi, India"}, "vicinity": "00, Tamil Sangam Marg, Ekta Vihar, Sector 7, Rama Krishna Puram, New Delhi", "scope": "GOOGLE", "business_status": "CLOSED_TEMPORARILY", "types": ["school", "point_of_interest", "establishment"], "icon": "https://maps.gstatic.com/mapfiles/place_api/icons/v1/png_71/school-71.png"}, {"permanently_closed": true, "name": "Subroto park", "reference": "ChIJUywDFHYdDTkR73AZwrhYydM", "geometry": {"location": {"lat": 28.574851, "lng": 77.17839599999999}, "viewport": {"northeast": {"lat": 28.5761826802915, "lng": 77.17970768029151}, "southwest": {"lat": 28.5734847197085, "lng": 77.1770097197085}}}, "place_id": "ChIJUywDFHYdDTkR73AZwrhYydM", "plus_code": {"global_code": "7JWVH5FH+W9", "compound_code": "H5FH+W9 New Delhi, Delhi, India"}, "vicinity": "AR Colony, Rama Krishna Puram, New Delhi", "scope": "GOOGLE", "business_status": "CLOSED_TEMPORARILY", "types": ["school", "point_of_interest", "establishment"], "icon": "https://maps.gstatic.com/mapfiles/place_api/icons/v1/png_71/school-71.png"}, {"name": "Project-Kusumpur Pahari , CDPO Name- Nadira Madam. Supervisor- Usha Madam. Anganwadi No-94. Ekta Vihar", "reference": "ChIJj-oPA4odDTkRGb7e5dSGt3c", "geometry": {"location": {"lat": 28.56733969999999, "lng": 77.17496659999999}, "viewport": {"northeast": {"lat": 28.5687084802915, "lng": 77.1763414302915}, "southwest": {"lat": 28.5660105197085, "lng": 77.17364346970848}}}, "place_id": "ChIJj-oPA4odDTkRGb7e5dSGt3c", "plus_code": {"global_code": "7JWVH58F+WX", "compound_code": "H58F+WX New Delhi, Delhi, India"}, "vicinity": "Ekta Vihar, Sector 6, Rama Krishna Puram, New Delhi", "scope": "GOOGLE", "business_status": "OPERATIONAL", "types": ["school", "point_of_interest", "establishment"], "icon": "https://maps.gstatic.com/mapfiles/place_api/icons/v1/png_71/school-71.png"}, {"name": "shiv yoga class", "reference": "ChIJKWeDgD8dDTkRW_2puYky_Hc", "geometry": {"location": {"lat": 28.5742416, "lng": 77.1765558}, "viewport": {"northeast": {"lat": 28.5755277302915, "lng": 77.17782848029151}, "southwest": {"lat": 28.5728297697085, "lng": 77.1751305197085}}}, "opening_hours": {"open_now": false}, "place_id": "ChIJKWeDgD8dDTkRW_2puYky_Hc", "plus_code": {"global_code": "7JWVH5FG+MJ", "compound_code": "H5FG+MJ New Delhi, Delhi, India"}, "vicinity": "HOUSE.NO, CPWD ENQIURY OFFICE, F 10 Marg, Sector 12, Rama Krishna Puram, New Delhi", "scope": "GOOGLE", "business_status": "OPERATIONAL", "types": ["school", "gym", "health", "point_of_interest", "establishment"], "icon": "https://maps.gstatic.com/mapfiles/place_api/icons/v1/png_71/school-71.png"}, {"permanently_closed": true, "name": "Arif", "reference": "ChIJ6dmfq_sdDTkR1NHYGbJHDLg", "geometry": {"location": {"lat": 28.5742416, "lng": 77.1765558}, "viewport": {"northeast": {"lat": 28.5755977802915, "lng": 77.1778324302915}, "southwest": {"lat": 28.5728998197085, "lng": 77.1751344697085}}}, "place_id": "ChIJ6dmfq_sdDTkR1NHYGbJHDLg", "plus_code": {"global_code": "7JWVH5FG+MJ", "compound_code": "H5FG+MJ New Delhi, Delhi, India"}, "vicinity": "Sector 12, Rama Krishna Puram, New Delhi", "scope": "GOOGLE", "business_status": "CLOSED_TEMPORARILY", "types": ["school", "point_of_interest", "establishment"], "icon": "https://maps.gstatic.com/mapfiles/place_api/icons/v1/png_71/school-71.png"}, {"rating": 4.4, "user_ratings_total": 26, "name": "Sarvodaya (Co-Ed) Senior Secondary School", "reference": "ChIJrZZED3gdDTkRr0Q8z963Jq0", "geometry": {"location": {"lat": 28.57469, "lng": 77.18373679999999}, "viewport": {"northeast": {"lat": 28.57606143029151, "lng": 77.1853372302915}, "southwest": {"lat": 28.5733634697085, "lng": 77.18263926970849}}}, "opening_hours": {"open_now": false}, "place_id": "ChIJrZZED3gdDTkRr0Q8z963Jq0", "plus_code": {"global_code": "7JWVH5FM+VF", "compound_code": "H5FM+VF New Delhi, Delhi, India"}, "vicinity": "Netaji Nagar, New Delhi", "photos": [{"photo_reference": "ATtYBwLwVBQu7cSqtncJXKG7RDnFscr3y4CX5VU9EMarbG8J87Un0sUGWUCvDYVWLRaFgEn8fn6yF80-QEnylxVWuQQjafNLdo8FCGbk49sDhM1qZuJC_58NwPJM9KGktw5MG2FHK0KVfMpYO7C2ekEaweq9Iusqtf7XKG2R8-sT5dPCKGkG", "width": 4608, "html_attributions": ["<a href=\"https://maps.google.com/maps/contrib/110713737952831320871\">NS vs NS</a>"], "height": 3456}], "scope": "GOOGLE", "business_status": "OPERATIONAL", "types": ["school", "point_of_interest", "establishment"], "icon": "https://maps.gstatic.com/mapfiles/place_api/icons/v1/png_71/school-71.png"}, {"permanently_closed": true, "name": "Project-Kusumpur Pahari, GDPO Name-Ms.Nadira. Supervisor- Ms.Usha Aganwadi No-94", "reference": "ChIJWUUrzr8dDTkRcE30_juhNIg", "geometry": {"location": {"lat": 28.5672521, "lng": 77.1740423}, "viewport": {"northeast": {"lat": 28.56860268029151, "lng": 77.1753932302915}, "southwest": {"lat": 28.5659047197085, "lng": 77.1726952697085}}}, "place_id": "ChIJWUUrzr8dDTkRcE30_juhNIg", "plus_code": {"global_code": "7JWVH58F+WJ", "compound_code": "H58F+WJ New Delhi, Delhi, India"}, "vicinity": "Ekta Vihar, Sector 6, Rama Krishna Puram, New Delhi", "scope": "GOOGLE", "business_status": "CLOSED_TEMPORARILY", "types": ["school", "point_of_interest", "establishment"], "icon": "https://maps.gstatic.com/mapfiles/place_api/icons/v1/png_71/school-71.png"}, {"rating": 3, "user_ratings_total": 5, "name": "South Delhi Commercial College", "reference": "ChIJ5_vJlHUdDTkRwIuRggtcGYs", "geometry": {"location": {"lat": 28.574706, "lng": 77.1758656}, "viewport": {"northeast": {"lat": 28.5760374802915, "lng": 77.17717528029151}, "southwest": {"lat": 28.5733395197085, "lng": 77.17447731970849}}}, "place_id": "ChIJ5_vJlHUdDTkRwIuRggtcGYs", "plus_code": {"global_code": "7JWVH5FG+V8", "compound_code": "H5FG+V8 New Delhi, Delhi, India"}, "vicinity": "Sector 12, Rama Krishna Puram, New Delhi", "scope": "GOOGLE", "business_status": "OPERATIONAL", "types": ["school", "point_of_interest", "establishment"], "icon": "https://maps.gstatic.com/mapfiles/place_api/icons/v1/png_71/school-71.png"}, {"rating": 5, "user_ratings_total": 1, "permanently_closed": true, "name": "CHEMISTRY CLASSES for CBSE, NEET & IIT", "reference": "ChIJw-94NYsdDTkRvV_exqzLEKE", "geometry": {"location": {"lat": 28.5755614, "lng": 77.17745339999999}, "viewport": {"northeast": {"lat": 28.5769248802915, "lng": 77.1788342302915}, "southwest": {"lat": 28.5742269197085, "lng": 77.1761362697085}}}, "place_id": "ChIJw-94NYsdDTkRvV_exqzLEKE", "plus_code": {"global_code": "7JWVH5GG+6X", "compound_code": "H5GG+6X New Delhi, Delhi, India"}, "vicinity": "Unnamed Road, Sector 12, Rama Krishna Puram, New Delhi", "photos": [{"photo_reference": "ATtYBwIekZVgOmg0ggKhq7zg05kQm0L572d7Kwy0Po4DTtL2YFPiX-q1fc7Wg0YVQkIG29Zw1IFjcWNN75CV6Ss77teH2pjH8MhKVerQ5Wd28mgIVe3X7Kh7PHzKMg_SVKnAkmtIOO6NTvU1Z1cflM-Ci1Gs2SFPck9_bBu6-bCkV-IYjpt1", "width": 540, "html_attributions": ["<a href=\"https://maps.google.com/maps/contrib/106276938206750583644\">K K Upadhyay</a>"], "height": 719}], "scope": "GOOGLE", "business_status": "CLOSED_TEMPORARILY", "types": ["school", "point_of_interest", "establishment"], "icon": "https://maps.gstatic.com/mapfiles/place_api/icons/v1/png_71/school-71.png"}, {"rating": 4.5, "user_ratings_total": 8, "name": "D.A.V MODEL BAL VIDHYALAYA", "reference": "ChIJzdsfIZodDTkR0Tq3dbV2Upg", "geometry": {"location": {"lat": 28.563896, "lng": 77.177455}, "viewport": {"northeast": {"lat": 28.5652400302915, "lng": 77.1788092302915}, "southwest": {"lat": 28.5625420697085, "lng": 77.17611126970849}}}, "opening_hours": {"open_now": false}, "place_id": "ChIJzdsfIZodDTkR0Tq3dbV2Upg", "plus_code": {"global_code": "7JWVH57G+HX", "compound_code": "H57G+HX New Delhi, Delhi, India"}, "vicinity": "Sector 5, Rama Krishna Puram, New Delhi", "photos": [{"photo_reference": "ATtYBwKg7wwkz8Y2eVSO1ruj1cAwxU8lNKrcDW9g0q38bj5no2AD1V6iMierTnYUZsmh-uFYf7BTkRFIGy8EBFG3S5HhGMkGqfwOsuwMjnWWB85RbSDa76S3w5Cahgpdn-xYjnKR-ahJSZeodcvGdVig8l_KxaPnTR_JVph0SpPEwffmpF4c", "width": 1280, "html_attributions": ["<a href=\"https://maps.google.com/maps/contrib/114211670559067699143\">AVIJIT BANERJEE</a>"], "height": 720}], "scope": "GOOGLE", "business_status": "OPERATIONAL", "types": ["school", "point_of_interest", "establishment"], "icon": "https://maps.gstatic.com/mapfiles/place_api/icons/v1/png_71/school-71.png"}, {"rating": 4.3, "user_ratings_total": 3, "permanently_closed": true, "name": "VIDYANJALI EDUCATION POINT ( COACHING CENTRE )", "reference": "ChIJH9Pw7RsdDTkRMW_7tZxrU7s", "geometry": {"location": {"lat": 28.5655076, "lng": 77.1856884}, "viewport": {"northeast": {"lat": 28.5668575802915, "lng": 77.1870359802915}, "southwest": {"lat": 28.5641596197085, "lng": 77.18433801970848}}}, "place_id": "ChIJH9Pw7RsdDTkRMW_7tZxrU7s", "plus_code": {"global_code": "7JWVH58P+67", "compound_code": "H58P+67 New Delhi, Delhi, India"}, "vicinity": "near bhikaji cama place, C -128/1, Mohammadpur, Rama Krishna Puram, New Delhi", "photos": [{"photo_reference": "ATtYBwK71p-ekY7qsz9JJEfiPDiw4berUTR3NgC18aGvmkwo1T-o5heS20Cdt2kracCAcdD10AxMLJux3dXjvbMgtuyxh2SjXfcZFQ3EFp9bEaU8pXVN0Y_-8_EWZICrOewdRbZ0Q5q6ngYHN1VxdAl9JZW2ZGn1NUEvCblsb2PKZIe-m7-y", "width": 1920, "html_attributions": ["<a href=\"https://maps.google.com/maps/contrib/114825791539205034759\">SHISHUPAL KUMAR</a>"], "height": 1080}], "scope": "GOOGLE", "business_status": "CLOSED_TEMPORARILY", "types": ["school", "point_of_interest", "establishment"], "icon": "https://maps.gstatic.com/mapfiles/place_api/icons/v1/png_71/school-71.png"}, {"rating": 4, "user_ratings_total": 1, "permanently_closed": true, "name": "S.D.M.C Primary Co. Ed. School", "reference": "ChIJAWWnTIUdDTkRsfDsJrB63Ak", "geometry": {"location": {"lat": 28.563812, "lng": 77.1830839}, "viewport": {"northeast": {"lat": 28.5652395802915, "lng": 77.18446073029149}, "southwest": {"lat": 28.5625416197085, "lng": 77.18176276970848}}}, "place_id": "ChIJAWWnTIUdDTkRsfDsJrB63Ak", "plus_code": {"global_code": "7JWVH57M+G6", "compound_code": "H57M+G6 New Delhi, Delhi, India"}, "vicinity": "Sector 1, Rama Krishna Puram, New Delhi", "photos": [{"photo_reference": "ATtYBwJwkTGXD3spmcboa1so7uQZmCU4vLUwCrSQxdpm1aFDCsfEzBTUGkrNStQ-kiOCALKvP6kCT_AqAU0XmRefFmkbMvnj6SWwVaH9og49KIIGjzixW5RfmtXVuPTYkNEYJ7bsDf79rVCvg2UdpAyS98LcErcNtYPm265Xzog0SN8oUOVD", "width": 4608, "html_attributions": ["<a href=\"https://maps.google.com/maps/contrib/114579217459736231882\">P L Arora</a>"], "height": 2592}], "scope": "GOOGLE", "business_status": "CLOSED_TEMPORARILY", "types": ["school", "point_of_interest", "establishment"], "icon": "https://maps.gstatic.com/mapfiles/place_api/icons/v1/png_71/school-71.png"}, {"rating": 5, "user_ratings_total": 1, "name": "SDMC Primary School Mohammadpur", "reference": "ChIJ2xgtEoUdDTkRd1rUqu52f_M", "geometry": {"location": {"lat": 28.5646797, "lng": 77.1850072}, "viewport": {"northeast": {"lat": 28.5660368802915, "lng": 77.18635088029151}, "southwest": {"lat": 28.5633389197085, "lng": 77.18365291970849}}}, "place_id": "ChIJ2xgtEoUdDTkRd1rUqu52f_M", "plus_code": {"global_code": "7JWVH57P+V2", "compound_code": "H57P+V2 New Delhi, Delhi, India"}, "vicinity": "New, Adarsh Basti, Rama Krishna Puram, New Delhi", "scope": "GOOGLE", "business_status": "OPERATIONAL", "types": ["school", "point_of_interest", "establishment"], "icon": "https://maps.gstatic.com/mapfiles/place_api/icons/v1/png_71/school-71.png"}]}