{"status": "OK", "next_page_token": "ATtYBwLGKhz3y0oD0I2g5Fd-ojujX5FSY3mCK0aw7MUaux-52DNtMO3uqpfiE4Tz3lxo5uajNsLxVScYzw44rWHY7B2Ke0cMqumWLyPgX8YeW8rqHZNt0JEXQ8yBY9mWE6-8mCtcsBtfLQb23BlD4MZs3kQ__6gGa-aLFnlaJLn1rnJ284clv76ELq8ulgCwx9GQC5hht8BZZztJsdA7jTuHgjPCMnqIa4KxlzRncmd6TjaMvMk0sES7loqmVCHnwKqgupDbw9JZUYzlMs6_HT-RD_z2EKBJlxMgVK2ecrJswa1CktZkgACsvOlzMmKmY5yDjAitA-5FdiqjuSM6gvFQIRCZnuBarvkJ3ASSg-7W--7ooFM4yHdY2DNabehUMP5wVSxY8PZw6ovn337DTmv7A7zHMHEKaOJBqYx1CYTyRCHW9LFqjWT2jkDrWjfqNnenwG407cSBFdv32LeQYVaI_xbakBGLK8XQx3lOcSZqsYvt-bQKExjXkhxcS9cgLyKAyYFCleYBcvjIa3Fq_AyWQ61Scu_N0bzstLp0KaT9wz9Wt5Yacq0Umdd3TXltUSjg3vYMM0Nyj9Rh-OtaSGJ4ASItpZTpAK8ndodSx_K0Mcc-_OAbqlStoTPxb84fA0ytrXk", "html_attributions": [], "results": [{"rating": 4.1, "user_ratings_total": 15, "name": "N. G. F. Junior School", "reference": "ChIJK1T2Ah_iDDkRklpxnIwNVLw", "geometry": {"location": {"lat": 28.5344628, "lng": 77.21484989999999}, "viewport": {"northeast": {"lat": 28.53576428029151, "lng": 77.21599793029148}, "southwest": {"lat": 28.5330663197085, "lng": 77.21329996970847}}}, "opening_hours": {"open_now": false}, "place_id": "ChIJK1T2Ah_iDDkRklpxnIwNVLw", "plus_code": {"global_code": "7JWVG6M7+QW", "compound_code": "G6M7+QW New Delhi, Delhi, India"}, "vicinity": "Shop No. T, 21, Malviya Nagar Road, Khirki Extension, Malviya Nagar, New Delhi", "scope": "GOOGLE", "business_status": "OPERATIONAL", "types": ["primary_school", "school", "point_of_interest", "establishment"], "icon": "https://maps.gstatic.com/mapfiles/place_api/icons/v1/png_71/school-71.png"}, {"rating": 4.3, "user_ratings_total": 12, "permanently_closed": true, "name": "Tansen Sangeet Mahavidyalaya saket.", "reference": "ChIJkzBZ7PDhDDkRxxmFrXIl3Kw", "geometry": {"location": {"lat": 28.5252806, "lng": 77.2150649}, "viewport": {"northeast": {"lat": 28.5265817802915, "lng": 77.2164267802915}, "southwest": {"lat": 28.52388381970849, "lng": 77.21372881970849}}}, "place_id": "ChIJkzBZ7PDhDDkRxxmFrXIl3Kw", "plus_code": {"global_code": "7JWVG6G8+42", "compound_code": "G6G8+42 New Delhi, Delhi, India"}, "vicinity": "M-9, Ground Floor, Mandir Marg Near -DDA Saket Sports Complex, Saket, New Delhi", "photos": [{"photo_reference": "ATtYBwKHexSm_cgjbkRHOf9DoSik7v3dWhPzy6DAuFg-EumwKQpAXyhOPbjzMuizdJyKDgVlB0i1TJPy9g-iraiaa7qggRxoNZtS_c-HMvJsocLc3Xo-ukERzcUA6ReSoV8snbWcQtQEONVREc7cVfPNb9wFSrnQDwXYKYaOqtNQAbZD6GL2", "width": 1920, "html_attributions": ["<a href=\"https://maps.google.com/maps/contrib/102800004116710797679\">Tansen Sangeet Mahavidyalaya saket.</a>"], "height": 1079}], "scope": "GOOGLE", "business_status": "CLOSED_TEMPORARILY", "types": ["school", "point_of_interest", "establishment"], "icon": "https://maps.gstatic.com/mapfiles/place_api/icons/v1/png_71/school-71.png"}, {"rating": 4, "user_ratings_total": 4, "name": "Amity InternationalSchool", "reference": "ChIJmRCHMozhDDkRnF68wPKNsGE", "geometry": {"location": {"lat": 28.5236259, "lng": 77.22252189999999}, "viewport": {"northeast": {"lat": 28.5249966802915, "lng": 77.22387118029151}, "southwest": {"lat": 28.5222987197085, "lng": 77.22117321970849}}}, "place_id": "ChIJmRCHMozhDDkRnF68wPKNsGE", "plus_code": {"global_code": "7JWVG6FF+F2", "compound_code": "G6FF+F2 New Delhi, Delhi, India"}, "vicinity": "Sector 1, Pushp Vihar, New Delhi", "photos": [{"photo_reference": "ATtYBwLF79ouidFSlVRPRIYkNXUNW7pzALBNiHZbDUVZBSbV7Bvh9mlbqaGrNN4MzeR_PWv8gpBQpr7JbfSiZPRSd89c7OXHYTVKs1VWABac_WRAsRdmLYHPo77dLMLc7N_DwJkfvhIQBvu8nZkl78GPKPl2iVmbY0D_Ltk8u0RrRHDHeoCO", "width": 1536, "html_attributions": ["<a href=\"https://maps.google.com/maps/contrib/103097183055134004627\">Sham Sainani</a>"], "height": 2048}], "scope": "GOOGLE", "business_status": "OPERATIONAL", "types": ["school", "point_of_interest", "establishment"], "icon": "https://maps.gstatic.com/mapfiles/place_api/icons/v1/png_71/school-71.png"}, {"rating": 4.1, "user_ratings_total": 122, "name": "Amity International School", "reference": "ChIJVVVVlIjhDDkR_nmAr-LNNP0", "geometry": {"location": {"lat": 28.5281934, "lng": 77.22755699999999}, "viewport": {"northeast": {"lat": 28.5293477802915, "lng": 77.2288842802915}, "southwest": {"lat": 28.5266498197085, "lng": 77.22618631970848}}}, "opening_hours": {"open_now": false}, "place_id": "ChIJVVVVlIjhDDkR_nmAr-LNNP0", "plus_code": {"global_code": "7JWVG6HH+72", "compound_code": "G6HH+72 New Delhi, Delhi, India"}, "vicinity": "Birla Vidya Niketan Marg, Sector 7, Pushp Vihar, New Delhi", "photos": [{"photo_reference": "ATtYBwKB4J4t6MG3myO2jMvl2HRjAd1Q8xIExgCKSWGa5PIf0O5YRjQccM4vnlfg7ehfXjem8IzvKFlc-hS2i69PoqY1Fkcv-QwJwpyHJFoBgJnUN3hQRpgDmrR2ZaSej99e5nWZcIMYebImm6iQvdq3n-WJYraEP1g587ldP-IY6nyOffZr", "width": 2048, "html_attributions": ["<a href=\"https://maps.google.com/maps/contrib/103327449980409357093\">Amity International School</a>"], "height": 1346}], "scope": "GOOGLE", "business_status": "OPERATIONAL", "types": ["school", "point_of_interest", "establishment"], "icon": "https://maps.gstatic.com/mapfiles/place_api/icons/v1/png_71/school-71.png"}, {"rating": 4.7, "user_ratings_total": 3, "permanently_closed": true, "name": "Amiown", "reference": "ChIJRymRv4jhDDkRhQmrd9m4Hvc", "geometry": {"location": {"lat": 28.52814, "lng": 77.2276479}, "viewport": {"northeast": {"lat": 28.5293169802915, "lng": 77.22897768029151}, "southwest": {"lat": 28.5266190197085, "lng": 77.2262797197085}}}, "place_id": "ChIJRymRv4jhDDkRhQmrd9m4Hvc", "plus_code": {"global_code": "7JWVG6HH+73", "compound_code": "G6HH+73 New Delhi, Delhi, India"}, "vicinity": "Birla Vidya Niketan Marg, Sector 7, Pushp Vihar, New Delhi", "scope": "GOOGLE", "business_status": "CLOSED_TEMPORARILY", "types": ["school", "point_of_interest", "establishment"], "icon": "https://maps.gstatic.com/mapfiles/place_api/icons/v1/png_71/school-71.png"}, {"rating": 4.8, "user_ratings_total": 21, "permanently_closed": true, "name": "The Learning Tree", "reference": "ChIJE0UYHh_iDDkRJs-dHFkiYks", "geometry": {"location": {"lat": 28.5353226, "lng": 77.2146661}, "viewport": {"northeast": {"lat": 28.5367090802915, "lng": 77.2159661802915}, "southwest": {"lat": 28.5340111197085, "lng": 77.2132682197085}}}, "place_id": "ChIJE0UYHh_iDDkRJs-dHFkiYks", "plus_code": {"global_code": "7JWVG6P7+4V", "compound_code": "G6P7+4V New Delhi, Delhi, India"}, "vicinity": "80/76-B, Ground Floor, Malviya Nagar Road, Malviya Nagar, New Delhi", "photos": [{"photo_reference": "ATtYBwJPikpCNbkzWxsiDYPoWmrg21j2NI-lvggSItAtq5tjcl61Lol_U9-mE4JACf61tfHZ3evvcKHMfe9Q-s2Zein0G68EJGtuXSKyUC4xTsRoxBgpXr_TRYltz3rIYOKWN7xmxVgGZZ1nMMaCn3EN0dsT_WMcC4pifYvSvdgarnIfrlhJ", "width": 3664, "html_attributions": ["<a href=\"https://maps.google.com/maps/contrib/105416574506786745990\">Geetu Anand</a>"], "height": 2752}], "scope": "GOOGLE", "business_status": "CLOSED_TEMPORARILY", "types": ["school", "point_of_interest", "establishment"], "icon": "https://maps.gstatic.com/mapfiles/place_api/icons/v1/png_71/school-71.png"}, {"rating": 4.3, "user_ratings_total": 164, "name": "Amrita Vidyalayam", "reference": "ChIJEdtX9o_hDDkRNkARLgY0vA0", "geometry": {"location": {"lat": 28.5281931, "lng": 77.2284485}, "viewport": {"northeast": {"lat": 28.5293069302915, "lng": 77.22977858029151}, "southwest": {"lat": 28.52660896970849, "lng": 77.2270806197085}}}, "opening_hours": {"open_now": false}, "place_id": "ChIJEdtX9o_hDDkRNkARLgY0vA0", "plus_code": {"global_code": "7JWVG6HH+79", "compound_code": "G6HH+79 New Delhi, Delhi, India"}, "vicinity": "23/42a, Sector 7, Pushp Vihar, New Delhi", "photos": [{"photo_reference": "ATtYBwJqr4NkyxeZePXE9c_GmJCWBA5q5p5j_Rc0Aw5fW7kAQ290D1U27nDqUX0ScPbiGB4Rw3HjJvKhhdLhHH1NRGnj4OlVmuBvdJ43TwacztEkyjm92hl7Xf6VjA5sANrsVS0xe7oCX51V60V0cbJj9AFnta7SCYcKPMkmjV1pqnDkLvHq", "width": 4608, "html_attributions": ["<a href=\"https://maps.google.com/maps/contrib/111024144481870739769\">Pradeep Singh</a>"], "height": 2592}], "scope": "GOOGLE", "business_status": "OPERATIONAL", "types": ["school", "point_of_interest", "establishment"], "icon": "https://maps.gstatic.com/mapfiles/place_api/icons/v1/png_71/school-71.png"}, {"rating": 5, "user_ratings_total": 3, "permanently_closed": true, "name": "Creative Hands", "reference": "ChIJeQBMqvPhDDkRSMoElOOd-6g", "geometry": {"location": {"lat": 28.5229531, "lng": 77.21449059999999}, "viewport": {"northeast": {"lat": 28.5242927302915, "lng": 77.2159028302915}, "southwest": {"lat": 28.5215947697085, "lng": 77.21320486970848}}}, "place_id": "ChIJeQBMqvPhDDkRSMoElOOd-6g", "plus_code": {"global_code": "7JWVG6F7+5Q", "compound_code": "G6F7+5Q New Delhi, Delhi, India"}, "vicinity": "A-12, Basement, Near Post Office Ashok Vihar Phase 1, New Delhi", "photos": [{"photo_reference": "ATtYBwJQlIukG1N1oQb09kfuAH0C4P3emOrTKUFeSngdL0tLhPfRE-nCMQiQbeknjvNn8wlhjCodPyI0q5GlhbXHbebaDPCkSx38dqp0B_1gpp0RPVTTIpZAIsbdaaxsbyPknRAdUTw1XxgAIbNIbW7vrjRfUsqY0AcuNPZkT87RHdroue7X", "width": 5312, "html_attributions": ["<a href=\"https://maps.google.com/maps/contrib/106579160547128257210\">Creative Hands</a>"], "height": 2988}], "scope": "GOOGLE", "business_status": "CLOSED_TEMPORARILY", "types": ["school", "point_of_interest", "establishment"], "icon": "https://maps.gstatic.com/mapfiles/place_api/icons/v1/png_71/school-71.png"}, {"rating": 4.5, "user_ratings_total": 2, "name": "Make my Fitness", "reference": "ChIJ5XZa4x3iDDkR6GfqMGfamxs", "geometry": {"location": {"lat": 28.536215, "lng": 77.21371300000001}, "viewport": {"northeast": {"lat": 28.5375421302915, "lng": 77.2150885802915}, "southwest": {"lat": 28.5348441697085, "lng": 77.2123906197085}}}, "opening_hours": {"open_now": false}, "place_id": "ChIJ5XZa4x3iDDkR6GfqMGfamxs", "plus_code": {"global_code": "7JWVG6P7+FF", "compound_code": "G6P7+FF New Delhi, Delhi, India"}, "vicinity": "near Backgate of Madan Mohan Hospital, 90/77B Basement,, Malviya Nagar, South Delhi, near Backgate of Madan Mohan Hospital, New Delhi", "photos": [{"photo_reference": "ATtYBwLl_9k3GUndf0J8855uvmX_KP93P3OHzSySxBZjiuwrZtKr0l2WdfEqRBPmS3k_Rm3NrYGx7XON9_kL8wy5INZte1eGIiRHJmvZIuqkEpF13GyCnEed93yA4lQp9JUFtrJDl1aygQDBXffn96K_FiYo1f6wCkr_-DqbTLmnZdl5Xt7M", "width": 1502, "html_attributions": ["<a href=\"https://maps.google.com/maps/contrib/111602402115898281146\">Make my Fitness</a>"], "height": 1127}], "scope": "GOOGLE", "business_status": "OPERATIONAL", "types": ["food", "school", "gym", "health", "point_of_interest", "store", "establishment"], "icon": "https://maps.gstatic.com/mapfiles/place_api/icons/v1/png_71/generic_business-71.png"}, {"rating": 4.1, "user_ratings_total": 180, "name": "Amity International School", "reference": "ChIJv4tymYP8DDkRlV2mT90eaIQ", "geometry": {"location": {"lat": 28.523429, "lng": 77.214125}, "viewport": {"northeast": {"lat": 28.52474713029151, "lng": 77.21539718029149}, "southwest": {"lat": 28.5220491697085, "lng": 77.21269921970848}}}, "opening_hours": {"open_now": false}, "place_id": "ChIJv4tymYP8DDkRlV2mT90eaIQ", "plus_code": {"global_code": "7JWVG6F7+9J", "compound_code": "G6F7+9J New Delhi, Delhi, India"}, "vicinity": "Road No:44 Saket M Block, New Delhi", "photos": [{"photo_reference": "ATtYBwIyIRHCsSTTNWKTtek_GwRYZsvHxbfMwGicfnXcsVkNXHqd5G6pyhLHvxZVdx6l2pawAZCGlzShYt39_ef2m2wf-Z3GecIeOqXVsnCvDfktWNNxtBWM-BKIAEa6zc1rrnUlJdtzS6Vd_V9D2TEyZvpTyt6HEDeJDQYaJ3C2k-Ketx4U", "width": 1600, "html_attributions": ["<a href=\"https://maps.google.com/maps/contrib/112276011187589148472\">Amity International School</a>"], "height": 1068}], "scope": "GOOGLE", "business_status": "OPERATIONAL", "types": ["school", "point_of_interest", "establishment"], "icon": "https://maps.gstatic.com/mapfiles/place_api/icons/v1/png_71/school-71.png"}, {"rating": 5, "user_ratings_total": 1, "permanently_closed": true, "name": "Oaase Learning", "reference": "ChIJ31I8APPhDDkR9fRmFOh0Z9c", "geometry": {"location": {"lat": 28.5227869, "lng": 77.2147486}, "viewport": {"northeast": {"lat": 28.5241487802915, "lng": 77.21610068029149}, "southwest": {"lat": 28.52145081970849, "lng": 77.21340271970848}}}, "place_id": "ChIJ31I8APPhDDkR9fRmFOh0Z9c", "plus_code": {"global_code": "7JWVG6F7+4V", "compound_code": "G6F7+4V New Delhi, Delhi, India"}, "vicinity": "E31, First Floor, main market, Hauz Khas, New Delhi", "scope": "GOOGLE", "business_status": "CLOSED_TEMPORARILY", "types": ["school", "point_of_interest", "establishment"], "icon": "https://maps.gstatic.com/mapfiles/place_api/icons/v1/png_71/school-71.png"}, {"rating": 1, "user_ratings_total": 1, "permanently_closed": true, "name": "Bal Bharti Public School", "reference": "ChIJCxSDyh7iDDkRKEpbpU55mDw", "geometry": {"location": {"lat": 28.5367889, "lng": 77.2132263}, "viewport": {"northeast": {"lat": 28.5381292802915, "lng": 77.21456618029151}, "southwest": {"lat": 28.5354313197085, "lng": 77.2118682197085}}}, "place_id": "ChIJCxSDyh7iDDkRKEpbpU55mDw", "plus_code": {"global_code": "7JWVG6P7+P7", "compound_code": "G6P7+P7 New Delhi, Delhi, India"}, "vicinity": "Late Tirath Ram Sharma Marg, Block B, Shivalik Colony, Malviya Nagar, New Delhi", "scope": "GOOGLE", "business_status": "CLOSED_TEMPORARILY", "types": ["school", "point_of_interest", "establishment"], "icon": "https://maps.gstatic.com/mapfiles/place_api/icons/v1/png_71/school-71.png"}, {"rating": 5, "user_ratings_total": 3, "permanently_closed": true, "name": "Kumon Maths & English Classes:Best Kids Learning Centre in Saket", "reference": "ChIJXUviWfLhDDkRmnqsVhOEbIE", "geometry": {"location": {"lat": 28.520802, "lng": 77.21577599999999}, "viewport": {"northeast": {"lat": 28.52215918029151, "lng": 77.21708213029149}, "southwest": {"lat": 28.5194612197085, "lng": 77.21438416970848}}}, "place_id": "ChIJXUviWfLhDDkRmnqsVhOEbIE", "plus_code": {"global_code": "7JWVG6C8+88", "compound_code": "G6C8+88 New Delhi, Delhi, India"}, "vicinity": "J-205, Lower Ground Floor, Saket, New Delhi", "photos": [{"photo_reference": "ATtYBwL25YhoU4b8nAVtFKBIOCub4gqlOaZ1M3DMuzT9wJaEjZ5auPROFOyM9RBqbM2CJcCvRUWE3GQoYAZKelmWR4TwptH3zIW08KIjictrfUr38LwYFpRAwa61Hlkh0-tBjEG78dtX7QoeqcE1TbXJ5VnbDwyG1JaGycRvEfRSWQ7Z4Nep", "width": 1920, "html_attributions": ["<a href=\"https://maps.google.com/maps/contrib/116249276299974827911\">Kumon Maths &amp; English Classes:Best Kids Learning Centre in Saket</a>"], "height": 1280}], "scope": "GOOGLE", "business_status": "CLOSED_TEMPORARILY", "types": ["secondary_school", "university", "school", "point_of_interest", "establishment"], "icon": "https://maps.gstatic.com/mapfiles/place_api/icons/v1/png_71/school-71.png"}, {"rating": 3.3, "user_ratings_total": 16, "permanently_closed": true, "name": "Eguroo", "reference": "ChIJjV1wFxziDDkReGOmaIyncmY", "geometry": {"location": {"lat": 28.53549899999999, "lng": 77.211004}, "viewport": {"northeast": {"lat": 28.5368729802915, "lng": 77.21237918029149}, "southwest": {"lat": 28.5341750197085, "lng": 77.20968121970849}}}, "place_id": "ChIJjV1wFxziDDkReGOmaIyncmY", "plus_code": {"global_code": "7JWVG6P6+5C", "compound_code": "G6P6+5C New Delhi, Delhi, India"}, "vicinity": "in front of Laxmi Narayan Temple, D-89, Above AIRTEL, Near Moti Sweets, in front of Laxmi Narayan Temple, Malviya Nagar", "photos": [{"photo_reference": "ATtYBwK7MYf-7_W17V_b9_N2ZeT-SMJxIkYGYx2g9cymI7EHSI813cgMPGzsOPk0AHIpan98OQJcfUKJGz5cF8Ndd9B_jQS3vbHy12-X1dPOFM6P-Z4ul4JZy0fYXwJ1l4aCGtg3-GF3dFy8Go0XdOlbmGbskel4soFiJVj1IQDXArsH7Geo", "width": 2573, "html_attributions": ["<a href=\"https://maps.google.com/maps/contrib/104883905011676074276\">Eguroo</a>"], "height": 1222}], "scope": "GOOGLE", "business_status": "CLOSED_TEMPORARILY", "types": ["school", "point_of_interest", "establishment"], "icon": "https://maps.gstatic.com/mapfiles/place_api/icons/v1/png_71/school-71.png"}, {"rating": 5, "user_ratings_total": 2, "permanently_closed": true, "name": "Jingle Bell Saket", "reference": "ChIJ-Ym5rfDhDDkRCS-xcVyATxg", "geometry": {"location": {"lat": 28.520767, "lng": 77.21578699999999}, "viewport": {"northeast": {"lat": 28.5224211302915, "lng": 77.2171918302915}, "southwest": {"lat": 28.5197231697085, "lng": 77.21449386970849}}}, "place_id": "ChIJ-Ym5rfDhDDkRCS-xcVyATxg", "plus_code": {"global_code": "7JWVG6C8+88", "compound_code": "G6C8+88 New Delhi, Delhi, India"}, "vicinity": "J-205, Block J, Saket, New Delhi", "photos": [{"photo_reference": "ATtYBwKU63D3d7JrVHWiES2Zcgo2ZzObgayXJR-V_VDlZtIVicnSmUZyGA2W-qG9812pdUsQFXHOgZM5PDE16rQS9EG8go6C1umKfJnV6uFUscyezvKvBI9kV3jPuQHDwvUofprT0iIvH6RVyKP6LqzPjjlPOHRW67mbn9VZ2beYzFi6JJTJ", "width": 2048, "html_attributions": ["<a href=\"https://maps.google.com/maps/contrib/115211860097187653139\">Jingle Bell Saket</a>"], "height": 1536}], "scope": "GOOGLE", "business_status": "CLOSED_TEMPORARILY", "types": ["school", "point_of_interest", "establishment"], "icon": "https://maps.gstatic.com/mapfiles/place_api/icons/v1/png_71/school-71.png"}, {"rating": 3.7, "user_ratings_total": 6, "permanently_closed": true, "name": "MCD Primary School", "reference": "ChIJUQZ8XSjiDDkRLrR-TTm4cn0", "geometry": {"location": {"lat": 28.53529379999999, "lng": 77.2304115}, "viewport": {"northeast": {"lat": 28.5367655802915, "lng": 77.23176458029151}, "southwest": {"lat": 28.5340676197085, "lng": 77.2290666197085}}}, "place_id": "ChIJUQZ8XSjiDDkRLrR-TTm4cn0", "plus_code": {"global_code": "7JWVG6PJ+45", "compound_code": "G6PJ+45 New Delhi, Delhi, India"}, "vicinity": "Pocket L, Phase II, Sheikh Sarai, New Delhi", "photos": [{"photo_reference": "ATtYBwLJYwoCn3oJI8ksohoB8W44vReIMqowDFFTor1KPVSzPWsphcYgAJrYb4aPawtvKEWIkL2d7vVkRf7AL9YQKFirZ3KUZBbjWL9N0XOJ-18nUh3izdHygFL3PDKXAbQtEHaIzlII4tHQOs-F4lrg2noyrD9UE0YEJZJnslqY1tsLMH_8", "width": 4032, "html_attributions": ["<a href=\"https://maps.google.com/maps/contrib/114031118947048869964\">Vikas Kumar Singh</a>"], "height": 3024}], "scope": "GOOGLE", "business_status": "CLOSED_TEMPORARILY", "types": ["primary_school", "school", "point_of_interest", "establishment"], "icon": "https://maps.gstatic.com/mapfiles/place_api/icons/v1/png_71/school-71.png"}, {"rating": 4, "user_ratings_total": 1, "permanently_closed": true, "name": "Indian Academy Of Dramatic Arts ( IADA )", "reference": "ChIJdY0dOB7iDDkRveMqG5dB74Q", "geometry": {"location": {"lat": 28.538731, "lng": 77.214141}, "viewport": {"northeast": {"lat": 28.5400132802915, "lng": 77.21543103029151}, "southwest": {"lat": 28.5373153197085, "lng": 77.21273306970849}}}, "place_id": "ChIJdY0dOB7iDDkRveMqG5dB74Q", "plus_code": {"global_code": "7JWVG6Q7+FM", "compound_code": "G6Q7+FM New Delhi, Delhi, India"}, "vicinity": "33, 2nd Floor, Corner Market, Maharishi Dayanand Marg, Malviya Nagar, New Delhi", "photos": [{"photo_reference": "ATtYBwLfe8cbvKBA4wn2GlPuqqcUd42wlSCENRmyvYd6q3LqDWBly8-qdsNoE6Dk-rXY0CJOSVktT4sWEjLEgzlJ3s4lZsYPmo9Je3RizCS_ROsfwI9YRM2ULdeHFYChJtqFdF0KvMc0CSAvo6Xzmxq8nSpZStwdC1wh8_yVamwfNW63WYxt", "width": 3000, "html_attributions": ["<a href=\"https://maps.google.com/maps/contrib/110377256517502451498\">Ashutosh mishra Ashu</a>"], "height": 3000}], "scope": "GOOGLE", "business_status": "CLOSED_TEMPORARILY", "types": ["school", "point_of_interest", "establishment"], "icon": "https://maps.gstatic.com/mapfiles/place_api/icons/v1/png_71/school-71.png"}, {"rating": 5, "user_ratings_total": 17, "name": "ZOZO GuitarMan - South Delhi (Online Guitar Education)", "reference": "ChIJAQAAVOThDDkRx5hJDqyXxAQ", "geometry": {"location": {"lat": 28.5349882, "lng": 77.2094481}, "viewport": {"northeast": {"lat": 28.5363480302915, "lng": 77.2108054802915}, "southwest": {"lat": 28.5336500697085, "lng": 77.20810751970849}}}, "place_id": "ChIJAQAAVOThDDkRx5hJDqyXxAQ", "plus_code": {"global_code": "7JWVG6M5+XQ", "compound_code": "G6M5+XQ New Delhi, Delhi, India"}, "vicinity": "house) Block, 227-228 (second floor left, near Easyday, 16, Malviya Nagar Road, New Delhi", "photos": [{"photo_reference": "ATtYBwJAYOLbnexj3f_AROd3RGxquEISH2AeBu6fjTgLR4ozO-bU9L_HiIaWjeap8WeQnEMmra4KT6e5h7xljN3BYZnKrtsudR-xyAO0PU30MYYc3TC6weKZnTgSGteSCPMlNpe4lroT_q0FyF3vmWxw5jrk4gEcbpl3_VMj1ZBoQBzh3J0k", "width": 640, "html_attributions": ["<a href=\"https://maps.google.com/maps/contrib/106920149092092646650\">ZOZO GuitarMan - South Delhi (Online Guitar Education)</a>"], "height": 960}], "scope": "GOOGLE", "business_status": "OPERATIONAL", "types": ["school", "point_of_interest", "establishment"], "icon": "https://maps.gstatic.com/mapfiles/place_api/icons/v1/png_71/school-71.png"}, {"rating": 3.7, "user_ratings_total": 29, "name": "International Happy School", "reference": "ChIJOU4-JybiDDkRgQU8obUb8EM", "geometry": {"location": {"lat": 28.5365493, "lng": 77.22891640000002}, "viewport": {"northeast": {"lat": 28.5378756802915, "lng": 77.23025633029151}, "southwest": {"lat": 28.5351777197085, "lng": 77.22755836970849}}}, "opening_hours": {"open_now": false}, "place_id": "ChIJOU4-JybiDDkRgQU8obUb8EM", "plus_code": {"global_code": "7JWVG6PH+JH", "compound_code": "G6PH+JH New Delhi, Delhi, India"}, "vicinity": "369, A, Chirag Dilli, New Delhi", "photos": [{"photo_reference": "ATtYBwIwlJaIy_J1NBsVW7pL8PZeeBUKXiPJYFjCQc3qzMSRFELIFdkVq2i4uRPZacYTbWyF2To8QOF05J9F13_bWRvzBqefKfIC9SaULxRoJov-HVkGP_-v7P8OjdT6BRSytN3yjY9xA0aZru8R-AltJkDoj6ZKCVglPSpAASYS9vHJoc0", "width": 1920, "html_attributions": ["<a href=\"https://maps.google.com/maps/contrib/105610497260516206282\">Rakesh Kumar</a>"], "height": 2560}], "scope": "GOOGLE", "business_status": "OPERATIONAL", "types": ["school", "point_of_interest", "establishment"], "icon": "https://maps.gstatic.com/mapfiles/place_api/icons/v1/png_71/school-71.png"}, {"rating": 4.7, "user_ratings_total": 26, "permanently_closed": true, "name": "Indian School Of Music", "reference": "ChIJj81UFxniDDkRAUOrmjW1RpQ", "geometry": {"location": {"lat": 28.538779, "lng": 77.213944}, "viewport": {"northeast": {"lat": 28.5400825802915, "lng": 77.2152599802915}, "southwest": {"lat": 28.5373846197085, "lng": 77.2125620197085}}}, "place_id": "ChIJj81UFxniDDkRAUOrmjW1RpQ", "plus_code": {"global_code": "7JWVG6Q7+GH", "compound_code": "G6Q7+GH New Delhi, Delhi, India"}, "vicinity": "17-18, 2nd Floor, Above PIZZA HUT,, Malviya Nagar, New Delhi", "photos": [{"photo_reference": "ATtYBwK--gVCl1ScadKYjzHbwNHAdHqcCRlfp7UPPec0VsprD_i_qA8wsjxqIaMyAbZYYv0CtCF4wSPWlF3ZDnc7n1xnZeQTeR56TVjOAECimgZ2rX8CFvekWDfLFSDRAeALNlQZBxlB4CfatsyHFope8R0VPtdhvUIomPN9-Esr12Fct8bO", "width": 1080, "html_attributions": ["<a href=\"https://maps.google.com/maps/contrib/111123723628591732058\">Indian School Of Music</a>"], "height": 608}], "scope": "GOOGLE", "business_status": "CLOSED_TEMPORARILY", "types": ["school", "point_of_interest", "establishment"], "icon": "https://maps.gstatic.com/mapfiles/place_api/icons/v1/png_71/school-71.png"}]}