{"status": "OK", "next_page_token": "ATtYBwJQ14q2wWAY7xOQbK9SGJWUP6piW3bO-HapsKy07QMQsRhsrXDIpFb26enxwcwo-qYjllWG_dV9gvDnUDGwL7BzJAa95mm5LKDm3cJt4QUoKT3R2EQYbzK7PzKhEthSHnQvtUh4uxTwBz9IgPlI0b6cJqpNOzjKtKh16fc_yK4rNxG3bOMEfeioJzk8_JpJMZgBn8wYlByGh2IpXH0uYyREfNdXeFfTu5XravvNqIUHqiBf7MoLrBiOMwZXZXJ5GisVegRvu9_4kbvSThDTjKK1tKM7PxlDzRm6DofLr-vQd2Ldmseb66pH0rJe3_1LEKfQ_6OYanvEddNL5_G3meL1oUgOfeXwWEeGlfBHaRXeEAZX9FLQJGY7wQ0woXFAYL83gbbfxatuy5_rjR54EpudBFjXbtlRzO-vrZXR5ivRPw", "html_attributions": [], "results": [{"rating": 3.9, "user_ratings_total": 31, "name": "Rama Public School", "reference": "ChIJ70bQEmz-DDkRv3MatgmorLE", "geometry": {"location": {"lat": 28.73190379999999, "lng": 77.2218719}, "viewport": {"northeast": {"lat": 28.73329988029149, "lng": 77.22324998029151}, "southwest": {"lat": 28.73060191970849, "lng": 77.22055201970849}}}, "opening_hours": {"open_now": false}, "place_id": "ChIJ70bQEmz-DDkRv3MatgmorLE", "plus_code": {"global_code": "7JWVP6JC+QP", "compound_code": "P6JC+QP Delhi, India"}, "vicinity": "Khasra No. 118, Main Jagatpur Road Near Near Yamuna Biodiversity Road, New Delhi", "photos": [{"photo_reference": "ATtYBwI_V2XQwsbFlkYSSgKVeo3ZmgJbHGw-bbCH5BWYBM60t8utH8tph3_CZJTYilL9Uv_VhCn8hEfyXZzJajSgqmq6az4NhT4W_1XBoq1k5iXAlSe895wo3ra8-0cP2oOqVUwGoa3HcAh3H7dorNGlEn2W8Zs-Jx-xSRB_bYshzfgHw_zo", "width": 940, "html_attributions": ["<a href=\"https://maps.google.com/maps/contrib/101721222505558206268\">Rama Public School</a>"], "height": 340}], "scope": "GOOGLE", "business_status": "OPERATIONAL", "types": ["school", "point_of_interest", "establishment"], "icon": "https://maps.gstatic.com/mapfiles/place_api/icons/v1/png_71/school-71.png"}, {"rating": 4, "user_ratings_total": 7, "name": "Tagore International Public School", "reference": "ChIJ014hrBP-DDkRPBsLzeWSrtU", "geometry": {"location": {"lat": 28.72849799999999, "lng": 77.2167346}, "viewport": {"northeast": {"lat": 28.7298269802915, "lng": 77.2180800302915}, "southwest": {"lat": 28.7271290197085, "lng": 77.21538206970848}}}, "opening_hours": {"open_now": false}, "place_id": "ChIJ014hrBP-DDkRPBsLzeWSrtU", "plus_code": {"global_code": "7JWVP6H8+9M", "compound_code": "P6H8+9M Delhi, India"}, "vicinity": "84, Gali Number 6, Sangam Vihar, Wazirabad, Delhi", "photos": [{"photo_reference": "ATtYBwIwKZWXFFMHAm-atcbK3ebLLvTIZ39hxZKov8RDhDlX8cPXzVsewjt2_VvV6DzvQ3fGXjw3Qefb5ZEWEQbe_24Z4l_7qDRb3gCv63WGndODSZ0APpL2UnNm6xZMGF9fQNovOFeH_xru_TRvlqvawct0E0Hg95uYOgeq0kyQy1smVoIA", "width": 780, "html_attributions": ["<a href=\"https://maps.google.com/maps/contrib/111728240941830030233\">Tagore International Public School</a>"], "height": 1040}], "scope": "GOOGLE", "business_status": "OPERATIONAL", "types": ["school", "point_of_interest", "establishment"], "icon": "https://maps.gstatic.com/mapfiles/place_api/icons/v1/png_71/school-71.png"}, {"rating": 4.6, "user_ratings_total": 14, "name": "Navjyoti Model School", "reference": "ChIJg_s6FWv-DDkRzpIHi-z0UZQ", "geometry": {"location": {"lat": 28.733918, "lng": 77.21907999999999}, "viewport": {"northeast": {"lat": 28.7352584802915, "lng": 77.2204145802915}, "southwest": {"lat": 28.7325605197085, "lng": 77.2177166197085}}}, "opening_hours": {"open_now": false}, "place_id": "ChIJg_s6FWv-DDkRzpIHi-z0UZQ", "plus_code": {"global_code": "7JWVP6M9+HJ", "compound_code": "P6M9+HJ Delhi, India"}, "vicinity": "opposite Yamuna Bio-Diversity Park, Navjyoti Chowk, Main Jagatpur Rd, opposite Yamuna Bio-Diversity Park, Delhi", "photos": [{"photo_reference": "ATtYBwJKfuZgfqPuHal-KW1jpc6FwtoEM7AJoJwu1gxfZIeFS6rnGGxxge0xIWggS4sQWXr4kDzZ-vD9Q9ayhlJ9Gzi_NZxTmuDgMSQarugy-m9EAWCFnLPRsUUpkrxWc9jlk93vfkICszV7zFoNpNWukA8nooVoDcVuwMlKxfC8WULhNBYx", "width": 1078, "html_attributions": ["<a href=\"https://maps.google.com/maps/contrib/110184932984039525226\">Navjyoti Model School</a>"], "height": 418}], "scope": "GOOGLE", "business_status": "OPERATIONAL", "types": ["school", "point_of_interest", "establishment"], "icon": "https://maps.gstatic.com/mapfiles/place_api/icons/v1/png_71/school-71.png"}, {"rating": 5, "user_ratings_total": 2, "name": "Arqam", "reference": "ChIJeRANTG7-DDkRVzYavE5qfr8", "geometry": {"location": {"lat": 28.7292059, "lng": 77.2258705}, "viewport": {"northeast": {"lat": 28.7305721802915, "lng": 77.22717738029151}, "southwest": {"lat": 28.7278742197085, "lng": 77.2244794197085}}}, "place_id": "ChIJeRANTG7-DDkRVzYavE5qfr8", "plus_code": {"global_code": "7JWVP6HG+M8", "compound_code": "P6HG+M8 Delhi, India"}, "vicinity": "1127, Gali Number 9, Wazirabad, Delhi", "photos": [{"photo_reference": "ATtYBwIXxeOwOnrmO7wkidDpzXPttN2w2gk8Dm_ZKD59ErBfcSjbY7IFp5qlcIRP37XZI9lMAy6tQ_ovblR1KGR84Ojy81-f3mqLSmmcWmvm3VBgnIcA3g3x0z_HVqA5V-omWjlUJeVl2rNvgDsuNAzJBW0nx07khH7rbv3Xd5ysFL71-UE0", "width": 4208, "html_attributions": ["<a href=\"https://maps.google.com/maps/contrib/115929801992653454983\">shahrukh khan</a>"], "height": 1942}], "scope": "GOOGLE", "business_status": "OPERATIONAL", "types": ["school", "point_of_interest", "establishment"], "icon": "https://maps.gstatic.com/mapfiles/place_api/icons/v1/png_71/school-71.png"}, {"permanently_closed": true, "name": "Jacxware Technologies 2", "reference": "ChIJJTQuKnL-DDkRXDejXR2Q6oI", "geometry": {"location": {"lat": 28.724556, "lng": 77.2231237}, "viewport": {"northeast": {"lat": 28.7259366802915, "lng": 77.2244823302915}, "southwest": {"lat": 28.7232387197085, "lng": 77.22178436970849}}}, "place_id": "ChIJJTQuKnL-DDkRXDejXR2Q6oI", "plus_code": {"global_code": "7JWVP6FF+R6", "compound_code": "P6FF+R6 Delhi, India"}, "vicinity": "sachdeva convent school, Street Number 8, Wazirabad, Delhi", "scope": "GOOGLE", "business_status": "CLOSED_TEMPORARILY", "types": ["school", "point_of_interest", "establishment"], "icon": "https://maps.gstatic.com/mapfiles/place_api/icons/v1/png_71/school-71.png"}, {"permanently_closed": true, "name": "Excel Educational & Training Institute", "reference": "ChIJWVboUBb-DDkRMvJW95jY184", "geometry": {"location": {"lat": 28.734854, "lng": 77.209492}, "viewport": {"northeast": {"lat": 28.7362025802915, "lng": 77.2108410802915}, "southwest": {"lat": 28.7335046197085, "lng": 77.20814311970848}}}, "place_id": "ChIJWVboUBb-DDkRMvJW95jY184", "plus_code": {"global_code": "7JWVP6M5+WQ", "compound_code": "P6M5+WQ Delhi, India"}, "vicinity": "KH No:-15/11, Deepanshu Colony (FAT COLONY), Jharoda Mazra, Burari, Delhi-110084, Jharoda Burari Marg, Dipasu Colony, Jharoda Majra Burari, Delhi", "scope": "GOOGLE", "business_status": "CLOSED_TEMPORARILY", "types": ["school", "point_of_interest", "establishment"], "icon": "https://maps.gstatic.com/mapfiles/place_api/icons/v1/png_71/school-71.png"}, {"rating": 3, "user_ratings_total": 7, "permanently_closed": true, "name": "M.C.D. School", "reference": "ChIJDzIfxxD-DDkRUR4Md1UUStQ", "geometry": {"location": {"lat": 28.7303747, "lng": 77.2076198}, "viewport": {"northeast": {"lat": 28.7317683802915, "lng": 77.2088375802915}, "southwest": {"lat": 28.7290704197085, "lng": 77.2061396197085}}}, "place_id": "ChIJDzIfxxD-DDkRUR4Md1UUStQ", "plus_code": {"global_code": "7JWVP6J5+42", "compound_code": "P6J5+42 Delhi, India"}, "vicinity": "Jharoda, Jharoda Majra Burari, Delhi", "photos": [{"photo_reference": "ATtYBwJyaSznZsn1rasO6bHYF68lsIO9YIhHwv-d0iY8u9-QVqtxOMfY255XeF3ycCy1qOwNkPWDWatmM5F-LUmXY0P-ObMwQd4g6yl5NBkQzNp8_pTl0EvOxf9RX3q2hNBHz4lrciybHE_FKMmPJhtoUgT-jQ_j2FwlIk4r6Mb1XPnUgKPT", "width": 2610, "html_attributions": ["<a href=\"https://maps.google.com/maps/contrib/103000310249103286869\">Bhajan Singh Rai</a>"], "height": 4640}], "scope": "GOOGLE", "business_status": "CLOSED_TEMPORARILY", "types": ["school", "point_of_interest", "establishment"], "icon": "https://maps.gstatic.com/mapfiles/place_api/icons/v1/png_71/school-71.png"}, {"rating": 3.7, "user_ratings_total": 3, "permanently_closed": true, "name": "St. Andrews Scots School", "reference": "ChIJN61RVkD-DDkRjzbP0M1PdK4", "geometry": {"location": {"lat": 28.7416654, "lng": 77.219869}, "viewport": {"northeast": {"lat": 28.74301393029149, "lng": 77.2212038302915}, "southwest": {"lat": 28.74031596970849, "lng": 77.2185058697085}}}, "place_id": "ChIJN61RVkD-DDkRjzbP0M1PdK4", "vicinity": "G-26, Gali No 17, Jagat Puri, Delhi", "photos": [{"photo_reference": "ATtYBwKhO3WEMtSw2z3h38RIcWcG8ALsz1TyIxiQUIoek1ycHu54iX2BMy1WMy2osaBbyZnsxt77XtfMfMWlmaZm0w5WD-64o1L9ZFgt3mvcn70x_LoA8W0wJGBKNWhTwmRxCNU5LoGgLrPsX-Ot8hPcBwn6LExSxnZi88Wh2qcpypXZCgZ4", "width": 600, "html_attributions": ["<a href=\"https://maps.google.com/maps/contrib/115858540779274812784\">Shivam Kapoor</a>"], "height": 337}], "scope": "GOOGLE", "business_status": "CLOSED_TEMPORARILY", "types": ["school", "point_of_interest", "establishment"], "icon": "https://maps.gstatic.com/mapfiles/place_api/icons/v1/png_71/school-71.png"}, {"permanently_closed": true, "name": "School", "reference": "ChIJX-iKhRD-DDkRd8gO13i0V7k", "geometry": {"location": {"lat": 28.7288553, "lng": 77.2067347}, "viewport": {"northeast": {"lat": 28.7301408302915, "lng": 77.2080539302915}, "southwest": {"lat": 28.7274428697085, "lng": 77.20535596970849}}}, "place_id": "ChIJX-iKhRD-DDkRd8gO13i0V7k", "plus_code": {"global_code": "7JWVP6H4+GM", "compound_code": "P6H4+GM Delhi, India"}, "vicinity": "Jharoda, Jharoda Majra Burari, Delhi", "scope": "GOOGLE", "business_status": "CLOSED_TEMPORARILY", "types": ["school", "point_of_interest", "establishment"], "icon": "https://maps.gstatic.com/mapfiles/place_api/icons/v1/png_71/school-71.png"}, {"rating": 5, "user_ratings_total": 5, "permanently_closed": true, "name": "Holy Child Play School", "reference": "ChIJo01e_3H-DDkRcz-WBYUuuqQ", "geometry": {"location": {"lat": 28.726842, "lng": 77.223283}, "viewport": {"northeast": {"lat": 28.7281914302915, "lng": 77.2246154802915}, "southwest": {"lat": 28.7254934697085, "lng": 77.22191751970848}}}, "place_id": "ChIJo01e_3H-DDkRcz-WBYUuuqQ", "plus_code": {"global_code": "7JWVP6GF+P8", "compound_code": "P6GF+P8 Delhi, India"}, "vicinity": "Main Road, Gali No.-14, Wazirabad, New Delhi", "photos": [{"photo_reference": "ATtYBwJfMeP25uxnfrfrguzcCScyIjgqCDGa0m6qImKKEeqj9ofWk-mqFuBslGpP3QKcFaa68rEF5SDnitqFT3o4ulzNOltpUaXR3SHhd8ZDz2a1FC461hMusH66K4KdiBPP8Lmilno93jkk7ouZSXg7yflemaJ7C5mkEsYUeu6DFZ5icorw", "width": 1022, "html_attributions": ["<a href=\"https://maps.google.com/maps/contrib/116312797865467614204\">Holy Child Play School</a>"], "height": 730}], "scope": "GOOGLE", "business_status": "CLOSED_TEMPORARILY", "types": ["school", "point_of_interest", "establishment"], "icon": "https://maps.gstatic.com/mapfiles/place_api/icons/v1/png_71/school-71.png"}, {"permanently_closed": true, "name": "JEET STATIONERY", "reference": "ChIJo7rOvpr_DDkRsgQjvoGbTG8", "geometry": {"location": {"lat": 28.7286343, "lng": 77.2182497}, "viewport": {"northeast": {"lat": 28.7300145302915, "lng": 77.21960228029151}, "southwest": {"lat": 28.7273165697085, "lng": 77.21690431970849}}}, "place_id": "ChIJo7rOvpr_DDkRsgQjvoGbTG8", "plus_code": {"global_code": "7JWVP6H9+F7", "compound_code": "P6H9+F7 Delhi, India"}, "vicinity": "Gali Number 8, Wazirabad, Delhi", "photos": [{"photo_reference": "ATtYBwKmIZOeUQDwpBFVncXLZPLDw_AcOYJ0utmyoROTC5Ad1T5TZN_jU6v8Sl3blSYAWPoGoNokSQjw7uFn-X4S8xcRbBexF1qPWTjOnAGahhcHcwmpP4-0U6wKVWHlpRKu4R1JG176dBW1fmn7CBQEVZiu78X4ARHs4f0rtvyK33jheJmj", "width": 4160, "html_attributions": ["<a href=\"https://maps.google.com/maps/contrib/118416885184666085742\">subjeet mourya</a>"], "height": 3120}], "scope": "GOOGLE", "business_status": "CLOSED_TEMPORARILY", "types": ["school", "point_of_interest", "establishment"], "icon": "https://maps.gstatic.com/mapfiles/place_api/icons/v1/png_71/school-71.png"}, {"rating": 5, "user_ratings_total": 2, "name": "Global tuition centre", "reference": "ChIJiQCMMG3-DDkR_q_eWpoLZ0c", "geometry": {"location": {"lat": 28.7285775, "lng": 77.2181727}, "viewport": {"northeast": {"lat": 28.7299579302915, "lng": 77.2195252802915}, "southwest": {"lat": 28.7272599697085, "lng": 77.2168273197085}}}, "place_id": "ChIJiQCMMG3-DDkR_q_eWpoLZ0c", "plus_code": {"global_code": "7JWVP6H9+C7", "compound_code": "P6H9+C7 Delhi, India"}, "vicinity": "Gali Number 8, Sangam Vihar, Wazirabad, Delhi", "photos": [{"photo_reference": "ATtYBwJf75MgxuoTW-psAqM24bmc5WfH0m3aQHXsnJCisxVt2Inozvt4PN9upUHtQOTtjY8Ti-g2cNUDZqrGMeCFpm4uDjdfI-aJ3OKjIrqhhuS-RVbFX8pvsbd1P5kKkQMFdaqNHu8obFBdVr4jDoZPWClg9Inv9fU0eIyrhK8ge4HFixiT", "width": 788, "html_attributions": ["<a href=\"https://maps.google.com/maps/contrib/105977407771488580257\">Smart School Junior Sangam Vihar</a>"], "height": 622}], "scope": "GOOGLE", "business_status": "OPERATIONAL", "types": ["school", "point_of_interest", "establishment"], "icon": "https://maps.gstatic.com/mapfiles/place_api/icons/v1/png_71/school-71.png"}, {"rating": 5, "user_ratings_total": 1, "permanently_closed": true, "name": "Jacxware Technologies 2", "reference": "ChIJXQIXbG3-DDkRDupvQjVwLos", "geometry": {"location": {"lat": 28.7278757, "lng": 77.2193992}, "viewport": {"northeast": {"lat": 28.7291957302915, "lng": 77.2207301302915}, "southwest": {"lat": 28.72649776970851, "lng": 77.2180321697085}}}, "place_id": "ChIJXQIXbG3-DDkRDupvQjVwLos", "plus_code": {"global_code": "7JWVP6H9+5Q", "compound_code": "P6H9+5Q Delhi, India"}, "vicinity": "Gali Number 6, Sangam Vihar, Wazirabad, Delhi", "scope": "GOOGLE", "business_status": "CLOSED_TEMPORARILY", "types": ["school", "point_of_interest", "establishment"], "icon": "https://maps.gstatic.com/mapfiles/place_api/icons/v1/png_71/school-71.png"}, {"permanently_closed": true, "name": "Shweta", "reference": "ChIJyS7oLq7_DDkRrA6wsNTJKnQ", "geometry": {"location": {"lat": 28.7277551, "lng": 77.2205857}, "viewport": {"northeast": {"lat": 28.7291207802915, "lng": 77.2218923302915}, "southwest": {"lat": 28.7264228197085, "lng": 77.21919436970849}}}, "place_id": "ChIJyS7oLq7_DDkRrA6wsNTJKnQ", "plus_code": {"global_code": "7JWVP6HC+46", "compound_code": "P6HC+46 Delhi, India"}, "vicinity": "Unnamed Road, Wazirabad, Delhi", "photos": [{"photo_reference": "ATtYBwJKv5aP3eSZPKgv1KjQbDuUl1OkrXGr79Fue5UfQOiP27lJy7Y6bbwlRi6XvTxAVJw7vD88fGyCo5FYWDGWNDkjfYTRG-4P-cm8bvPcD463ZaKpasxxZLOmIAuPdpn3UXZ2qof5HumG8MjTisY1vPun39R1rNsaR665oYZXBB2_1ltv", "width": 3120, "html_attributions": ["<a href=\"https://maps.google.com/maps/contrib/114290993633745575529\">Krishna Kumar</a>"], "height": 4160}], "scope": "GOOGLE", "business_status": "CLOSED_TEMPORARILY", "types": ["school", "point_of_interest", "establishment"], "icon": "https://maps.gstatic.com/mapfiles/place_api/icons/v1/png_71/school-71.png"}, {"rating": 3.4, "user_ratings_total": 5, "permanently_closed": true, "name": "A.P.J. Convent School", "reference": "ChIJrSMaE2z-DDkR60ijg52cxvQ", "geometry": {"location": {"lat": 28.731788, "lng": 77.221948}, "viewport": {"northeast": {"lat": 28.7332088802915, "lng": 77.22334928029152}, "southwest": {"lat": 28.7305109197085, "lng": 77.2206513197085}}}, "place_id": "ChIJrSMaE2z-DDkR60ijg52cxvQ", "plus_code": {"global_code": "7JWVP6JC+PQ", "compound_code": "P6JC+PQ Delhi, India"}, "vicinity": "Main Jagatpur Road, Bagiabad, Wazirabad, Delhi", "scope": "GOOGLE", "business_status": "CLOSED_TEMPORARILY", "types": ["school", "point_of_interest", "establishment"], "icon": "https://maps.gstatic.com/mapfiles/place_api/icons/v1/png_71/school-71.png"}, {"permanently_closed": true, "name": "India's study point", "reference": "ChIJi7mzurL_DDkRDq2XWuMgF6Q", "geometry": {"location": {"lat": 28.7278766, "lng": 77.2216627}, "viewport": {"northeast": {"lat": 28.72924793029149, "lng": 77.2230279302915}, "southwest": {"lat": 28.7265499697085, "lng": 77.22032996970849}}}, "place_id": "ChIJi7mzurL_DDkRDq2XWuMgF6Q", "plus_code": {"global_code": "7JWVP6HC+5M", "compound_code": "P6HC+5M Delhi, India"}, "vicinity": "12, Gali Number 12, Wazirabad, Delhi", "scope": "GOOGLE", "business_status": "CLOSED_TEMPORARILY", "types": ["school", "point_of_interest", "establishment"], "icon": "https://maps.gstatic.com/mapfiles/place_api/icons/v1/png_71/school-71.png"}, {"rating": 5, "user_ratings_total": 4, "permanently_closed": true, "name": "JP school", "reference": "ChIJqe2Loi3_DDkRcjN1KqmYR14", "geometry": {"location": {"lat": 28.7322144, "lng": 77.22162039999999}, "viewport": {"northeast": {"lat": 28.7335412802915, "lng": 77.22295633029151}, "southwest": {"lat": 28.7308433197085, "lng": 77.2202583697085}}}, "place_id": "ChIJqe2Loi3_DDkRcjN1KqmYR14", "plus_code": {"global_code": "7JWVP6JC+VJ", "compound_code": "P6JC+VJ Delhi, India"}, "vicinity": "Main Jagatpur Road, Delhi", "photos": [{"photo_reference": "ATtYBwLi8Hw3sVrgPZJPiOkbyzEUj6iK7ogrBeBQ9rdclSZnbHYpJXFO2bff4FizJ1UWXLCI_BAeLe-ipDYiXKXcu7h8SNg2KmmZi4E3KYS6FKKGsXTMCC3s66QlmyJOwokG3ZtRXwyXvgZ-19_NXx6AwSNQrrueuvPUIo3Zkw58b73KLt1f", "width": 1440, "html_attributions": ["<a href=\"https://maps.google.com/maps/contrib/113624902468527291978\">LaSt LeTtEr</a>"], "height": 2560}], "scope": "GOOGLE", "business_status": "CLOSED_TEMPORARILY", "types": ["school", "point_of_interest", "establishment"], "icon": "https://maps.gstatic.com/mapfiles/place_api/icons/v1/png_71/school-71.png"}, {"rating": 5, "user_ratings_total": 3, "permanently_closed": true, "name": "Smart Pre School", "reference": "ChIJ5Soscef_DDkRpoPvTLkaVJQ", "geometry": {"location": {"lat": 28.7285942, "lng": 77.2173838}, "viewport": {"northeast": {"lat": 28.7300147302915, "lng": 77.21874468029151}, "southwest": {"lat": 28.7273167697085, "lng": 77.2160467197085}}}, "place_id": "ChIJ5Soscef_DDkRpoPvTLkaVJQ", "plus_code": {"global_code": "7JWVP6H8+CX", "compound_code": "P6H8+CX Delhi, India"}, "vicinity": "Sangam Vihar, Wazirabad, Delhi", "photos": [{"photo_reference": "ATtYBwLlvegu3J8ZEwKlPxgE_t6hQUFqHcfKz6XrmhcAJm_0ngr7pc4UT95n4v0tT5mP35k6O6Y7FdAfeuV22AE9HCYjW_rrJoylMMrhJUzztIF2uAwE6VoyO2IVt_342iBuvDUCoIq9RznKN_d6MBwY3Yz555wCsSZj7c6nJIt5cfTvvfx2", "width": 4160, "html_attributions": ["<a href=\"https://maps.google.com/maps/contrib/105977407771488580257\">Smart School Junior Sangam Vihar</a>"], "height": 3120}], "scope": "GOOGLE", "business_status": "CLOSED_TEMPORARILY", "types": ["school", "point_of_interest", "establishment"], "icon": "https://maps.gstatic.com/mapfiles/place_api/icons/v1/png_71/school-71.png"}, {"rating": 2.4, "user_ratings_total": 5, "permanently_closed": true, "name": "Best coaching center", "reference": "ChIJ-cAvjG3-DDkRcKMTWytkdgk", "geometry": {"location": {"lat": 28.7274485, "lng": 77.22151439999999}, "viewport": {"northeast": {"lat": 28.7289804802915, "lng": 77.2229897802915}, "southwest": {"lat": 28.7262825197085, "lng": 77.22029181970849}}}, "place_id": "ChIJ-cAvjG3-DDkRcKMTWytkdgk", "plus_code": {"global_code": "7JWVP6GC+XJ", "compound_code": "P6GC+XJ Delhi, India"}, "vicinity": "12, Gali Number 12, Wazirabad, Delhi", "scope": "GOOGLE", "business_status": "CLOSED_TEMPORARILY", "types": ["school", "point_of_interest", "establishment"], "icon": "https://maps.gstatic.com/mapfiles/place_api/icons/v1/png_71/school-71.png"}, {"rating": 3, "user_ratings_total": 1, "permanently_closed": true, "name": "Phelwan Gym", "reference": "ChIJuz-8gm7-DDkREtvr8dj7eDM", "geometry": {"location": {"lat": 28.730632, "lng": 77.2233332}, "viewport": {"northeast": {"lat": 28.7319807302915, "lng": 77.22469068029149}, "southwest": {"lat": 28.7292827697085, "lng": 77.22199271970848}}}, "place_id": "ChIJuz-8gm7-DDkREtvr8dj7eDM", "plus_code": {"global_code": "7JWVP6JF+78", "compound_code": "P6JF+78 Wazirabad, New Delhi, Delhi, India"}, "vicinity": "Wazirabad, New Delhi", "photos": [{"photo_reference": "ATtYBwL5C4Qs__sWLLX09NuMNXea1Ho3M-eF5VyDR3SFPHsjXIBMD-rKKkDn5Wxz_seRDYBDvU8XDUB3tVO_6FViw_G5kvsLylmh1yONa7MfkG_qLOIpgbTHCxhdWyU_LBiNNlxfOwwh4ChC5eFfeDUk-kGqr9Y0YN9tLNq_d22OXDkyWUHu", "width": 1836, "html_attributions": ["<a href=\"https://maps.google.com/maps/contrib/113029522244705306190\">Vipin Kumar</a>"], "height": 2448}], "scope": "GOOGLE", "business_status": "CLOSED_TEMPORARILY", "types": ["school", "point_of_interest", "establishment"], "icon": "https://maps.gstatic.com/mapfiles/place_api/icons/v1/png_71/school-71.png"}]}