{"status": "OK", "html_attributions": [], "results": [{"rating": 4.7, "user_ratings_total": 9, "permanently_closed": true, "name": "Shri Ram School", "reference": "ChIJM7msbV4NDTkR36HhqKq1O0I", "geometry": {"location": {"lat": 28.59227659999999, "lng": 76.84733589999999}, "viewport": {"northeast": {"lat": 28.5934562302915, "lng": 76.8486359302915}, "southwest": {"lat": 28.59075826970849, "lng": 76.84593796970849}}}, "place_id": "ChIJM7msbV4NDTkR36HhqKq1O0I", "plus_code": {"global_code": "7JWRHRRW+WW", "compound_code": "HRRW+WW Majri, Haryana, India"}, "vicinity": "Isapur road, Village Majri Post office Gubhana", "photos": [{"photo_reference": "ATtYBwKLFQPI_u2ZQZV2l0o6Hm0wdbywa3EOK_dPhWPIH7eaA_7pyfiPZ7fNvDRNZYrgCDvr3atmFGE2pAfcKGJm9mcrYffC8g7Qq90RUeVC2BoP_674W3ulOumz5-iB3XhbiEswWlnxbhHto8T3mJognppb6ZWMgGgljiEj8rRYi2Qxki9e", "width": 1040, "html_attributions": ["<a href=\"https://maps.google.com/maps/contrib/111380793613387166978\">Shri Ram School</a>"], "height": 780}], "scope": "GOOGLE", "business_status": "CLOSED_TEMPORARILY", "types": ["school", "point_of_interest", "establishment"], "icon": "https://maps.gstatic.com/mapfiles/place_api/icons/v1/png_71/school-71.png"}, {"permanently_closed": true, "name": "Old Primary School", "reference": "ChIJxV0VV8wNDTkR1Pc5Wop5a3k", "geometry": {"location": {"lat": 28.5938311, "lng": 76.83846319999999}, "viewport": {"northeast": {"lat": 28.5951241802915, "lng": 76.83980158029149}, "southwest": {"lat": 28.5924262197085, "lng": 76.83710361970849}}}, "place_id": "ChIJxV0VV8wNDTkR1Pc5Wop5a3k", "plus_code": {"global_code": "7JWRHRVQ+G9", "compound_code": "HRVQ+G9 Majri, Haryana, India"}, "vicinity": "Majri", "scope": "GOOGLE", "business_status": "CLOSED_TEMPORARILY", "types": ["school", "point_of_interest", "establishment"], "icon": "https://maps.gstatic.com/mapfiles/place_api/icons/v1/png_71/school-71.png"}, {"rating": 4.6, "user_ratings_total": 5, "permanently_closed": true, "name": "Govt. Girls Sr. Sec. School, Majri", "reference": "ChIJUfTxW1ANDTkRYJBYK1tgU50", "geometry": {"location": {"lat": 28.5960264, "lng": 76.84614959999999}, "viewport": {"northeast": {"lat": 28.5970793, "lng": 76.84689538029151}, "southwest": {"lat": 28.5928677, "lng": 76.8441974197085}}}, "place_id": "ChIJUfTxW1ANDTkRYJBYK1tgU50", "plus_code": {"global_code": "7JWRHRWW+CF", "compound_code": "HRWW+CF Majri, Haryana, India"}, "vicinity": "Majri", "photos": [{"photo_reference": "ATtYBwIbZqMFdi28Oc3h3TPn9qKplkYPgWb9TDrspFckjLUHUv0WyS-LSNkW_wZQJqqL17pVY4_-PfMy-pmwSF6dhmCVED2cjaqErvTqmPdLgz0NuDAvwcDMRin3xuhJm0PkMwhJK3gT6Zq_zEjW7a8mpRif1XweSJ0BdAFQaA2XkkOxXWvF", "width": 4000, "html_attributions": ["<a href=\"https://maps.google.com/maps/contrib/117993529301090927252\">Raj Kumar</a>"], "height": 2000}], "scope": "GOOGLE", "business_status": "CLOSED_TEMPORARILY", "types": ["school", "point_of_interest", "establishment"], "icon": "https://maps.gstatic.com/mapfiles/place_api/icons/v1/png_71/school-71.png"}, {"rating": 4.3, "user_ratings_total": 21, "name": "D.R.A. Senior Secondary School", "reference": "ChIJjfcnTVsNDTkR6aJe1IwlHl4", "geometry": {"location": {"lat": 28.598471, "lng": 76.8423932}, "viewport": {"northeast": {"lat": 28.5998212802915, "lng": 76.84367408029152}, "southwest": {"lat": 28.5971233197085, "lng": 76.8409761197085}}}, "place_id": "ChIJjfcnTVsNDTkR6aJe1IwlHl4", "plus_code": {"global_code": "7JWRHRXR+9X", "compound_code": "HRXR+9X Majri, Haryana, India"}, "vicinity": "Gubhana, Majri", "photos": [{"photo_reference": "ATtYBwLjVTnIlp6q68J08zh42I94wC1OyQ5Yxaci10GDYs_SCqRYmlofEyp3n4UzI1WwAnzif4zSopLnE5lcmjMxHaDkZwiOXDI_Z4yjA0jWBtkS9Vszf5twWciFyUeUZHm5Nb43Gr7XPaQ0QgwCJFyem9Oo67f-SBLtiAeNHp5bD7hoRHbn", "width": 1362, "html_attributions": ["<a href=\"https://maps.google.com/maps/contrib/117636732710385536074\">DRA Sr Sec School Majri</a>"], "height": 2048}], "scope": "GOOGLE", "business_status": "OPERATIONAL", "types": ["school", "point_of_interest", "establishment"], "icon": "https://maps.gstatic.com/mapfiles/place_api/icons/v1/png_71/school-71.png"}, {"rating": 4, "user_ratings_total": 31, "permanently_closed": true, "name": "rishikul arya sr.sec.school", "reference": "ChIJGduqSEMNDTkRqYbVE0f_SMs", "geometry": {"location": {"lat": 28.5994219, "lng": 76.84435119999999}, "viewport": {"northeast": {"lat": 28.6008000802915, "lng": 76.8456799802915}, "southwest": {"lat": 28.5981021197085, "lng": 76.84298201970849}}}, "place_id": "ChIJGduqSEMNDTkRqYbVE0f_SMs", "plus_code": {"global_code": "7JWRHRXV+QP", "compound_code": "HRXV+QP Majri, Haryana, India"}, "vicinity": "Major District Road 136, Gubhana, Majri", "photos": [{"photo_reference": "ATtYBwJqblDmkI2o6irzUy7roD4B3bhf7U1wiJ59oCNFIS_IAGyqkPav4vukCWv4yOC-pEi-tpUKQQ-DIyWDKet1B3hDiumW3SNjeJEF2PtNB1035A5A5F-d8sD7IuMYNto5hB-kr-tJu3PY0PwqvNmCyh6LlWxQ1roZ9A4PI3upamNO6M7s", "width": 1920, "html_attributions": ["<a href=\"https://maps.google.com/maps/contrib/106401292004510757064\">Rahul Gulia</a>"], "height": 1080}], "scope": "GOOGLE", "business_status": "CLOSED_TEMPORARILY", "types": ["school", "point_of_interest", "establishment"], "icon": "https://maps.gstatic.com/mapfiles/place_api/icons/v1/png_71/school-71.png"}, {"permanently_closed": true, "name": "Shiv mandir", "reference": "ChIJ2V6dJUINDTkReZbe-sWnz8c", "geometry": {"location": {"lat": 28.6015508, "lng": 76.83450309999999}, "viewport": {"northeast": {"lat": 28.6033675802915, "lng": 76.8360061802915}, "southwest": {"lat": 28.6006696197085, "lng": 76.8333082197085}}}, "place_id": "ChIJ2V6dJUINDTkReZbe-sWnz8c", "plus_code": {"global_code": "7JWRJR2M+JR", "compound_code": "JR2M+JR Majri, Haryana, India"}, "vicinity": "Majri", "scope": "GOOGLE", "business_status": "CLOSED_TEMPORARILY", "types": ["school", "point_of_interest", "establishment"], "icon": "https://maps.gstatic.com/mapfiles/place_api/icons/v1/png_71/school-71.png"}]}