{"status": "OK", "next_page_token": "ATtYBwIXV69tpTwY6TY7GJyqbeYXRVHDhuD96E4PrfRfPEAPqaly8k_vT-PFbXXqSFdvvQiCWxZIRh6pDBHWRCRc-uULy2bUz8UpOcP-B7qYMvMKowKTHJeuj9X1Z8FCVghkzyRZw3zM7i_o9w6s1n4W2IKuZ2En0_rxOixJdBLHRwClQK-Qo-97QVecOyzENTEKJdfbCvt4jDX8NX0rmUVUg4j04bEUOBN_Ay0RHJGGqkaFGOLVaxp2rtMJtncLAqQPN8a7kkoN62hrN8KCSVl6o8eT4c1KqdVjGl4N5YXWLjqnWOx952QW0bJD_cCsC7MUCkAdJ_YnkAn3Y1EyXMawJErRLVdHraticgx8dqvpHidofpnEGHkBPJghNB-yiCkwZn7DSayAKjtLfxI2n_cCLkrBoQeCMw_5zY2lcltzQ85pPQ", "html_attributions": [], "results": [{"rating": 4.1, "user_ratings_total": 176, "name": "St. George's School", "reference": "ChIJXZ2yT3vhDDkR3PjEnTbMYKQ", "geometry": {"location": {"lat": 28.5283551, "lng": 77.25079780000002}, "viewport": {"northeast": {"lat": 28.5295291302915, "lng": 77.25210973029151}, "southwest": {"lat": 28.5268311697085, "lng": 77.2494117697085}}}, "opening_hours": {"open_now": false}, "place_id": "ChIJXZ2yT3vhDDkR3PjEnTbMYKQ", "plus_code": {"global_code": "7JWVG7H2+88", "compound_code": "G7H2+88 New Delhi, Delhi, India"}, "vicinity": "Opp. Niligiri Apartment, Plot No. 70, Alaknanda Don Bosco Road, Alaknanda, New Delhi", "photos": [{"photo_reference": "ATtYBwKxvagAer4YFXsy6mla6Gdzd6qTTDS16Q-aSC0DuUSRYnoPsmYDjg7JYUcLwKklPSOJSygecwU_POgCCl3gM8l1W662JQDq1nXmQxcWwK1mVy5rpr-1QAh0MXQk2jbUOWxS4Q24oFeG3sbOhURlsv3Z4PN18_ddQOfoInEbEqEZwdDb", "width": 2048, "html_attributions": ["<a href=\"https://maps.google.com/maps/contrib/117314468875288075015\">Sumithra Krishnan</a>"], "height": 1536}], "scope": "GOOGLE", "business_status": "OPERATIONAL", "types": ["school", "point_of_interest", "establishment"], "icon": "https://maps.gstatic.com/mapfiles/place_api/icons/v1/png_71/school-71.png"}, {"rating": 3.8, "user_ratings_total": 334, "name": "Kalka Public School", "reference": "ChIJJZNaWHvhDDkRRDgC6OGr6LE", "geometry": {"location": {"lat": 28.5290772, "lng": 77.250726}, "viewport": {"northeast": {"lat": 28.53066203029151, "lng": 77.2520731302915}, "southwest": {"lat": 28.5279640697085, "lng": 77.2493751697085}}}, "opening_hours": {"open_now": true}, "place_id": "ChIJJZNaWHvhDDkRRDgC6OGr6LE", "plus_code": {"global_code": "7JWVG7H2+J7", "compound_code": "G7H2+J7 New Delhi, Delhi, India"}, "vicinity": "Alaknanda, Kalka Public School Road, Kalkaji, New Delhi", "photos": [{"photo_reference": "ATtYBwKcUL0R5-OOeQ1jQmoKXeV41WassqSf6_ZMuQKkIxZX_obU2PPKhe1uXniHBmM9xeS3smWcJ3A7zd9qj6Iy9xq_XriAmgAU-e4rmjVqkMs224qcYfy1uV9-xML5OmGvb1ak60ck7zbsKUTbZGp4WBiEC_WPQtpWB29eBNYijEp-FhNC", "width": 3264, "html_attributions": ["<a href=\"https://maps.google.com/maps/contrib/107583148161816985524\">Himlesh Bisht</a>"], "height": 2448}], "scope": "GOOGLE", "business_status": "OPERATIONAL", "types": ["school", "point_of_interest", "establishment"], "icon": "https://maps.gstatic.com/mapfiles/place_api/icons/v1/png_71/school-71.png"}, {"rating": 5, "user_ratings_total": 3, "permanently_closed": true, "name": "The Project", "reference": "ChIJGzFbMmbhDDkRfkdcbt6fhsY", "geometry": {"location": {"lat": 28.5250352, "lng": 77.26040309999999}, "viewport": {"northeast": {"lat": 28.5263123802915, "lng": 77.2618147802915}, "southwest": {"lat": 28.5236144197085, "lng": 77.25911681970848}}}, "place_id": "ChIJGzFbMmbhDDkRfkdcbt6fhsY", "plus_code": {"global_code": "7JWVG7G6+25", "compound_code": "G7G6+25 New Delhi, Delhi, India"}, "vicinity": "Rz-406, street no. 13, Tughlaka Bad extn., New Delhi", "scope": "GOOGLE", "business_status": "CLOSED_TEMPORARILY", "types": ["school", "point_of_interest", "establishment"], "icon": "https://maps.gstatic.com/mapfiles/place_api/icons/v1/png_71/school-71.png"}, {"rating": 3.5, "user_ratings_total": 47, "name": "Sant Nirankari Public School, Govindpuri", "reference": "ChIJgYq7_2DhDDkRFlPSZqlkM4o", "geometry": {"location": {"lat": 28.5324919, "lng": 77.26100269999999}, "viewport": {"northeast": {"lat": 28.5340129302915, "lng": 77.2620843802915}, "southwest": {"lat": 28.5313149697085, "lng": 77.25938641970848}}}, "opening_hours": {"open_now": false}, "place_id": "ChIJgYq7_2DhDDkRFlPSZqlkM4o", "plus_code": {"global_code": "7JWVG7J6+XC", "compound_code": "G7J6+XC New Delhi, Delhi, India"}, "vicinity": "M-57, Baba Fatehsingh Marg, Govindpuri, New Delhi", "scope": "GOOGLE", "business_status": "OPERATIONAL", "types": ["school", "point_of_interest", "establishment"], "icon": "https://maps.gstatic.com/mapfiles/place_api/icons/v1/png_71/school-71.png"}, {"permanently_closed": true, "name": "Hole-in-the-Wall Education Project Mind Champion Learning Systems Limited", "reference": "ChIJSxHL4d3jDDkRkNSGQS0Tbog", "geometry": {"location": {"lat": 28.533227, "lng": 77.25945109999999}, "viewport": {"northeast": {"lat": 28.5345543802915, "lng": 77.2607918802915}, "southwest": {"lat": 28.5318564197085, "lng": 77.2580939197085}}}, "place_id": "ChIJSxHL4d3jDDkRkNSGQS0Tbog", "plus_code": {"global_code": "7JWVG7M5+7Q", "compound_code": "G7M5+7Q New Delhi, Delhi, India"}, "vicinity": "8, Balaji Estate, Guru Ravi Das Marg Kalkaji, New Delhi", "scope": "GOOGLE", "business_status": "CLOSED_TEMPORARILY", "types": ["school", "point_of_interest", "establishment"], "icon": "https://maps.gstatic.com/mapfiles/place_api/icons/v1/png_71/school-71.png"}, {"rating": 1, "user_ratings_total": 1, "permanently_closed": true, "name": "Sant Nirankari Satsang Bhawan", "reference": "ChIJh1RS-WDhDDkR0F5g1kbnzHc", "geometry": {"location": {"lat": 28.5325299, "lng": 77.2610041}, "viewport": {"northeast": {"lat": 28.5339686302915, "lng": 77.2623753302915}, "southwest": {"lat": 28.5312706697085, "lng": 77.25967736970848}}}, "place_id": "ChIJh1RS-WDhDDkR0F5g1kbnzHc", "plus_code": {"global_code": "7JWVG7M6+2C", "compound_code": "G7M6+2C New Delhi, Delhi, India"}, "vicinity": "M-57, Baba Fatehsingh Marg, DDA Flats Kalkaji, Govindpuri Extension, Govindpuri, New Delhi", "photos": [{"photo_reference": "ATtYBwIHCq_kYyyNttk5ICwtsyH0tEkloVGATIHyvgIX47Mzp1XhS95PnfJ_G6tZqz5b2ziGPDxdewFx1XKv-3BK4A8PxP4BHrJTvOcCQa5CesNJvds-yn9j0Q2eZTx2_SgEn1MY1xjZfTpovkE4JjlAehYQjzX_VMmjqLl6AhhPbenVPlN_", "width": 4032, "html_attributions": ["<a href=\"https://maps.google.com/maps/contrib/100498548221160329698\">amit kumar</a>"], "height": 2268}], "scope": "GOOGLE", "business_status": "CLOSED_TEMPORARILY", "types": ["school", "point_of_interest", "establishment"], "icon": "https://maps.gstatic.com/mapfiles/place_api/icons/v1/png_71/school-71.png"}, {"rating": 5, "user_ratings_total": 1, "name": "Lakshmi Sangeet Academy", "reference": "ChIJed9pm2HhDDkRK-hTntei_qg", "geometry": {"location": {"lat": 28.532966, "lng": 77.258225}, "viewport": {"northeast": {"lat": 28.5344048302915, "lng": 77.25961273029151}, "southwest": {"lat": 28.5317068697085, "lng": 77.2569147697085}}}, "opening_hours": {"open_now": false}, "place_id": "ChIJed9pm2HhDDkRK-hTntei_qg", "plus_code": {"global_code": "7JWVG7M5+57", "compound_code": "G7M5+57 New Delhi, Delhi, India"}, "vicinity": "1813, Gali Number 9, Govindpuri Extension, New Delhi", "photos": [{"photo_reference": "ATtYBwL1Fp-uHFjvmk77yWKomcNClki32DWLCN1kIc3ODb_CyVElVVibFw5AlnJqoZSSc1IUYNuGzmEvgElBUo74JA8RKdJRe23U1S59wYjsMOGr7TycEPFuKO0f-fK7MlIrTqt0VPz0eOmaNnLlh0YgAkgmOwAuBzFc2T5OBKyUViGATekF", "width": 1200, "html_attributions": ["<a href=\"https://maps.google.com/maps/contrib/110534051568407781325\">Lakshmi Sangeet Academy</a>"], "height": 672}], "scope": "GOOGLE", "business_status": "OPERATIONAL", "types": ["school", "point_of_interest", "establishment"], "icon": "https://maps.gstatic.com/mapfiles/place_api/icons/v1/png_71/school-71.png"}, {"permanently_closed": true, "name": "ICFAI MBA DISTANCE", "reference": "ChIJM6_EuGHhDDkRh9kyRQI2kPA", "geometry": {"location": {"lat": 28.5340363, "lng": 77.25961889999999}, "viewport": {"northeast": {"lat": 28.5353365302915, "lng": 77.26109503029151}, "southwest": {"lat": 28.53263856970849, "lng": 77.2583970697085}}}, "place_id": "ChIJM6_EuGHhDDkRh9kyRQI2kPA", "plus_code": {"global_code": "7JWVG7M5+JR", "compound_code": "G7M5+JR New Delhi, Delhi, India"}, "vicinity": "173, Guru Ravidas Marg, Govindpuri Extension, Govindpuri, New Delhi", "scope": "GOOGLE", "business_status": "CLOSED_TEMPORARILY", "types": ["school", "point_of_interest", "establishment"], "icon": "https://maps.gstatic.com/mapfiles/place_api/icons/v1/png_71/school-71.png"}, {"rating": 4, "user_ratings_total": 4, "permanently_closed": true, "name": "Project Why", "reference": "ChIJJ5UFDKbmDDkRbtcScvht5pc", "geometry": {"location": {"lat": 28.5334925, "lng": 77.2633883}, "viewport": {"northeast": {"lat": 28.5348708802915, "lng": 77.2647498302915}, "southwest": {"lat": 28.5321729197085, "lng": 77.2620518697085}}}, "place_id": "ChIJJ5UFDKbmDDkRbtcScvht5pc", "plus_code": {"global_code": "7JWVG7M7+99", "compound_code": "G7M7+99 New Delhi, Delhi, India"}, "vicinity": "Street Number 13, Kalkaji, New Delhi", "photos": [{"photo_reference": "ATtYBwIlQXCYTzg7E_Iqwk1URW7gpUtzjL10QUte99vToE4sK-YPNZiJQ3ReH6DbVEifogqNvJb3zfuwe7bDAGxJtU4BH8cS062UsrtG-X8VXn7y6TQ0OgfnlQP7Ag_s2KPg15LTvbtFdUi5DEXjeca7KDP_FQeuln8FNeD6iVzaX28so6-w", "width": 2048, "html_attributions": ["<a href=\"https://maps.google.com/maps/contrib/110589337199589198556\">M Nambiar</a>"], "height": 1536}], "scope": "GOOGLE", "business_status": "CLOSED_TEMPORARILY", "types": ["school", "point_of_interest", "establishment"], "icon": "https://maps.gstatic.com/mapfiles/place_api/icons/v1/png_71/school-71.png"}, {"rating": 4.5, "user_ratings_total": 101, "name": "Sri Satya Sai Vidya Vihar School", "reference": "ChIJmxq3pF3hDDkRErdvOH7ojws", "geometry": {"location": {"lat": 28.5254659, "lng": 77.26139479999999}, "viewport": {"northeast": {"lat": 28.5268501802915, "lng": 77.2627512302915}, "southwest": {"lat": 28.5241522197085, "lng": 77.2600532697085}}}, "place_id": "ChIJmxq3pF3hDDkRErdvOH7ojws", "plus_code": {"global_code": "7JWVG7G6+5H", "compound_code": "G7G6+5H New Delhi, Delhi, India"}, "vicinity": "A8, Block-A, Govindpuri Extension, Kalkaji, New Delhi", "photos": [{"photo_reference": "ATtYBwKx0Bd6PN5t9aeSeRiPNmJQZjjoJ0jiKvhz8iAeUCp3woscJyKscMXvPWrabSXxuA6-C-dPAME15h-z6XpWNZ8BoVf9QTqdjkZiXRGVpHn6ey-yhn3aDPGSqth2qrlb8p37YoUBxWn3CY8mSzkCXPSq4mLfhtoHuv8IQj_SCphPYw7d", "width": 3096, "html_attributions": ["<a href=\"https://maps.google.com/maps/contrib/103206724556207604636\">Rohit Kohar</a>"], "height": 4128}], "scope": "GOOGLE", "business_status": "OPERATIONAL", "types": ["school", "point_of_interest", "establishment"], "icon": "https://maps.gstatic.com/mapfiles/place_api/icons/v1/png_71/school-71.png"}, {"rating": 4.8, "user_ratings_total": 10, "permanently_closed": true, "name": "SEO Training Institute", "reference": "ChIJu_H-bmDhDDkRl7Vp3hFIVCI", "geometry": {"location": {"lat": 28.5348801, "lng": 77.26021709999999}, "viewport": {"northeast": {"lat": 28.5362198802915, "lng": 77.2615989302915}, "southwest": {"lat": 28.5335219197085, "lng": 77.25890096970848}}}, "place_id": "ChIJu_H-bmDhDDkRl7Vp3hFIVCI", "plus_code": {"global_code": "7JWVG7M6+X3", "compound_code": "G7M6+X3 New Delhi, Delhi, India"}, "vicinity": "1608 Street No 13 Upper Ground Floor, New Delhi", "photos": [{"photo_reference": "ATtYBwLQlUTUPZrysnq2-o-YAUP3WHrBRb7njGo43Pg0rgZaKYTKWf2FaOKVPtAapfxDt_dxf3W1YThHamsn1lqHlf1e6C-sjVxSzs5TNranp5hh1FoTbmaUKBb8BzPnnB5JI1c7KiXQl7cHBW5Y0LWLMANGgu1Y6lhXuTGBw75h-ChSAjzU", "width": 960, "html_attributions": ["<a href=\"https://maps.google.com/maps/contrib/107612496175532894577\">SEO Training Institute</a>"], "height": 544}], "scope": "GOOGLE", "business_status": "CLOSED_TEMPORARILY", "types": ["school", "point_of_interest", "establishment"], "icon": "https://maps.gstatic.com/mapfiles/place_api/icons/v1/png_71/school-71.png"}, {"rating": 5, "user_ratings_total": 1, "permanently_closed": true, "name": "Study Circle", "reference": "ChIJI870yGXhDDkR7cUOqbCGWio", "geometry": {"location": {"lat": 28.5260751, "lng": 77.2565142}, "viewport": {"northeast": {"lat": 28.5274580802915, "lng": 77.2578743302915}, "southwest": {"lat": 28.5247601197085, "lng": 77.2551763697085}}}, "place_id": "ChIJI870yGXhDDkR7cUOqbCGWio", "plus_code": {"global_code": "7JWVG7G4+CJ", "compound_code": "G7G4+CJ New Delhi, Delhi, India"}, "vicinity": "j2 65a, opp green fields school backgate, DDA Flats Kalkaji, Harijan Colony, Block B, Kalkaji, New Delhi", "photos": [{"photo_reference": "ATtYBwIo_3tvm4NkgXHkK8sC05nciuKjLnsgzVlegbK6HOqXawHnch4gsmhQ5NWg90hRgTAfMd-USCVqr1suigoeAI2G5IYwr0gCffWCePu-GTo22TSSsXF72ZyJBxz8LipDaVrv6F6l1qdh3Nv-QpU-jMh6kiFzkfQphbRk4puma59BHwhq", "width": 1440, "html_attributions": ["<a href=\"https://maps.google.com/maps/contrib/105949072466997081449\">Mathews K Thomas</a>"], "height": 1309}], "scope": "GOOGLE", "business_status": "CLOSED_TEMPORARILY", "types": ["school", "point_of_interest", "establishment"], "icon": "https://maps.gstatic.com/mapfiles/place_api/icons/v1/png_71/school-71.png"}, {"permanently_closed": true, "name": "DIS CLASSES", "reference": "ChIJ4XxOrGXhDDkR1ucCz8SBhZQ", "geometry": {"location": {"lat": 28.5263603, "lng": 77.2553975}, "viewport": {"northeast": {"lat": 28.5277050302915, "lng": 77.25676058029151}, "southwest": {"lat": 28.5250070697085, "lng": 77.25406261970849}}}, "place_id": "ChIJ4XxOrGXhDDkR1ucCz8SBhZQ", "plus_code": {"global_code": "7JWVG7G4+G5", "compound_code": "G7G4+G5 New Delhi, Delhi, India"}, "vicinity": "j-3/b21 janta market,opp.bses office,, Kalkaji, Alaknanda, New Delhi", "scope": "GOOGLE", "business_status": "CLOSED_TEMPORARILY", "types": ["school", "point_of_interest", "establishment"], "icon": "https://maps.gstatic.com/mapfiles/place_api/icons/v1/png_71/school-71.png"}, {"rating": 4.1, "user_ratings_total": 51, "name": "Government Boys' Senior Secondary Schools No.3", "reference": "ChIJu2_o0WfhDDkR5vXMqVZ8GoE", "geometry": {"location": {"lat": 28.5246429, "lng": 77.26227519999999}, "viewport": {"northeast": {"lat": 28.5258288302915, "lng": 77.2631347802915}, "southwest": {"lat": 28.5231308697085, "lng": 77.26043681970847}}}, "opening_hours": {"open_now": false}, "place_id": "ChIJu2_o0WfhDDkR5vXMqVZ8GoE", "plus_code": {"global_code": "7JWVG7F6+VW", "compound_code": "G7F6+VW New Delhi, Delhi, India"}, "vicinity": "Shiv Mandir Marg, Tughlakabad Extension, Tughlakabad, New Delhi", "photos": [{"photo_reference": "ATtYBwIhD24_pbBlsZMYapXzr08-PIs8pBQNyf-3Y24FxIQ9NMG0j5PuketOxDz-l6abKoEqVtk2zZjP-sIxHlF7FuVLb9ZIjLqgjpLBd9Lrz6fKp2b5M8EalT18j7hoYc9bAtFE8b4cZzt7QJyL8zG2rsnWJHgag5ynUQXbvEpP_s8q04v3", "width": 3264, "html_attributions": ["<a href=\"https://maps.google.com/maps/contrib/107583148161816985524\">Himlesh Bisht</a>"], "height": 2448}], "scope": "GOOGLE", "business_status": "OPERATIONAL", "types": ["school", "point_of_interest", "establishment"], "icon": "https://maps.gstatic.com/mapfiles/place_api/icons/v1/png_71/school-71.png"}, {"permanently_closed": true, "name": "Guru Amar Dass Public School", "reference": "ChIJq59PpGjhDDkR8Gv3H9IloAM", "geometry": {"location": {"lat": 28.523556, "lng": 77.258695}, "viewport": {"northeast": {"lat": 28.5248920802915, "lng": 77.2600251302915}, "southwest": {"lat": 28.52219411970849, "lng": 77.25732716970849}}}, "place_id": "ChIJq59PpGjhDDkR8Gv3H9IloAM", "plus_code": {"global_code": "7JWVG7F5+CF", "compound_code": "G7F5+CF New Delhi, Delhi, India"}, "vicinity": "B-1218, Gali Number 18, Tughlakabad Extension, Tughlakabad, New Delhi", "scope": "GOOGLE", "business_status": "CLOSED_TEMPORARILY", "types": ["school", "point_of_interest", "establishment"], "icon": "https://maps.gstatic.com/mapfiles/place_api/icons/v1/png_71/school-71.png"}, {"rating": 5, "user_ratings_total": 1, "permanently_closed": true, "name": "Nigam Pratibha Kanya Vidyalaya No-1", "reference": "ChIJbRVRbWjhDDkRumWNFCBZPK8", "geometry": {"location": {"lat": 28.5236101, "lng": 77.2620386}, "viewport": {"northeast": {"lat": 28.5248906802915, "lng": 77.2632335302915}, "southwest": {"lat": 28.5221927197085, "lng": 77.2605355697085}}}, "place_id": "ChIJbRVRbWjhDDkRumWNFCBZPK8", "plus_code": {"global_code": "7JWVG7F6+CR", "compound_code": "G7F6+CR New Delhi, Delhi, India"}, "vicinity": "Tughlakabad Extension, Tughlakabad, New Delhi", "photos": [{"photo_reference": "ATtYBwI9v_6Adt_bU2AMHdtn7o1sRj8c6gV1zgma_yZXSiMl_IZxlwfVtMgbU-1JkE-JF_zLE7b-HLeRFqbrBkSnHJN_YWBW54RK1NwkX-mxxYXo1gLfVDL0r6EAIiLSuPEyntd7N49_dhr1norl6xHUzIU0g6mdVjoq-aeXaA6n-aoe-9gi", "width": 4608, "html_attributions": ["<a href=\"https://maps.google.com/maps/contrib/117437701449469133353\">Sharik khan</a>"], "height": 3456}], "scope": "GOOGLE", "business_status": "CLOSED_TEMPORARILY", "types": ["school", "point_of_interest", "establishment"], "icon": "https://maps.gstatic.com/mapfiles/place_api/icons/v1/png_71/school-71.png"}, {"rating": 4.2, "user_ratings_total": 103, "name": "Deepalaya School (DSKE)", "reference": "ChIJ____v13hDDkRV8BuQ_Zo0mE", "geometry": {"location": {"lat": 28.530499, "lng": 77.26774209999999}, "viewport": {"northeast": {"lat": 28.5319040802915, "lng": 77.2691674302915}, "southwest": {"lat": 28.5292061197085, "lng": 77.26646946970848}}}, "opening_hours": {"open_now": false}, "place_id": "ChIJ____v13hDDkRV8BuQ_Zo0mE", "plus_code": {"global_code": "7JWVG7J9+53", "compound_code": "G7J9+53 New Delhi, Delhi, India"}, "vicinity": "Kalkaji Extension, Block A 14, Govindpuri, New Delhi", "photos": [{"photo_reference": "ATtYBwLg_zUpmWstsvgitpIg_9A6RzJk5nX-A5vlsMoayQM3M6W4NHnerJqs2tHqdKAeCDnajeNdDBDeQhWvldfMFxykUjdZUBgYL4mbXTrfKhAy9e4z6K5PUBP_3eNTCWzX14DNugelU-pVM5MXhBAziq-cwdIeBaQCkeouyXSte2RdvF4e", "width": 2592, "html_attributions": ["<a href=\"https://maps.google.com/maps/contrib/115656885852822868049\">Deepalaya School (DSKE)</a>"], "height": 1944}], "scope": "GOOGLE", "business_status": "OPERATIONAL", "types": ["school", "point_of_interest", "establishment"], "icon": "https://maps.gstatic.com/mapfiles/place_api/icons/v1/png_71/school-71.png"}, {"rating": 4.9, "user_ratings_total": 16, "name": "Rise & Shine Play School", "reference": "ChIJJ-xH8l_hDDkRwSBcWicg-j0", "geometry": {"location": {"lat": 28.53543299999999, "lng": 77.2648318}, "viewport": {"northeast": {"lat": 28.5367474302915, "lng": 77.26623083029149}, "southwest": {"lat": 28.53404946970849, "lng": 77.26353286970848}}}, "opening_hours": {"open_now": false}, "place_id": "ChIJJ-xH8l_hDDkRwSBcWicg-j0", "plus_code": {"global_code": "7JWVG7P7+5W", "compound_code": "G7P7+5W New Delhi, Delhi, India"}, "vicinity": "801/7 near Gurudwara Govind Puri, Kalkaji, New Delhi", "photos": [{"photo_reference": "ATtYBwL2HnWB6YJpgPpDUdu5YohaXU1_ok6TDdYriOWNl4stYl3PkEnMsJUuml8K7ZptXtQBZWwkqEddWy4bsTApT-UbqoRa0mxck7qx5qSDYmvPX0brAyKWLpiWduC2xBgTY_DTPJqaSfdhjdFSqtm4ZXUXzuzWQhtTDjHHyjqjrRzpY_wn", "width": 804, "html_attributions": ["<a href=\"https://maps.google.com/maps/contrib/104906539077117152513\">Rise &amp; Shine Play School</a>"], "height": 768}], "scope": "GOOGLE", "business_status": "OPERATIONAL", "types": ["school", "point_of_interest", "establishment"], "icon": "https://maps.gstatic.com/mapfiles/place_api/icons/v1/png_71/school-71.png"}, {"permanently_closed": true, "name": "Shelvin Foundation", "reference": "ChIJ2afXtdjjDDkRaz6_MeKZAc8", "geometry": {"location": {"lat": 28.536685, "lng": 77.25740870000001}, "viewport": {"northeast": {"lat": 28.5379882302915, "lng": 77.2587865302915}, "southwest": {"lat": 28.5352902697085, "lng": 77.2560885697085}}}, "place_id": "ChIJ2afXtdjjDDkRaz6_MeKZAc8", "plus_code": {"global_code": "7JWVG7P4+MX", "compound_code": "G7P4+MX New Delhi, Delhi, India"}, "vicinity": "1914/19 extention, india, Govindpuri, New Delhi", "scope": "GOOGLE", "business_status": "CLOSED_TEMPORARILY", "types": ["school", "point_of_interest", "establishment"], "icon": "https://maps.gstatic.com/mapfiles/place_api/icons/v1/png_71/school-71.png"}, {"permanently_closed": true, "name": "Guru Amar Das Public School", "reference": "ChIJz3iqDd_jDDkRnOrYEvrCiSk", "geometry": {"location": {"lat": 28.537261, "lng": 77.260079}, "viewport": {"northeast": {"lat": 28.5386208302915, "lng": 77.26143213029151}, "southwest": {"lat": 28.5359228697085, "lng": 77.2587341697085}}}, "place_id": "ChIJz3iqDd_jDDkRnOrYEvrCiSk", "vicinity": "RZ-B218/18 Tugalkabad Ext Kalkaji New Delhi - 110019, Kalkaji", "scope": "GOOGLE", "business_status": "CLOSED_TEMPORARILY", "types": ["school", "point_of_interest", "establishment"], "icon": "https://maps.gstatic.com/mapfiles/place_api/icons/v1/png_71/school-71.png"}]}