{"status": "OK", "html_attributions": [], "results": [{"rating": 5, "user_ratings_total": 3, "permanently_closed": true, "name": "Madarsa Badrul Uloom", "reference": "ChIJtc3Nxer-DDkRTqs97FWl_mo", "geometry": {"location": {"lat": 28.7431352, "lng": 77.2616683}, "viewport": {"northeast": {"lat": 28.7444848302915, "lng": 77.2630157302915}, "southwest": {"lat": 28.7417868697085, "lng": 77.2603177697085}}}, "place_id": "ChIJtc3Nxer-DDkRTqs97FWl_mo", "plus_code": {"global_code": "7JWVP7V6+7M", "compound_code": "P7V6+7M Ghaziabad, Uttar Pradesh, India"}, "vicinity": "Baghpat Road, New Sarla Vihar, Vijay Vihar, Ghaziabad", "photos": [{"photo_reference": "ATtYBwKPLoOdwBifruwKEKHIh_nMClCGKVR-ybvkxqXreOZyAUOHupe5UCJQxgNHyyfJAE6wtAMuQfRcfHuQ9bhCMoVtwQQsSGqug1qTw6o48eJeDsOP3FZbq_yL3NJiTXSQJA0exikPwA7OcZNFhJ1OCWXTS1LnbuDgp-S2zbxga89CSIF6", "width": 3120, "html_attributions": ["<a href=\"https://maps.google.com/maps/contrib/110518286148027013123\">Madarsa Badrul Uloom</a>"], "height": 4160}], "scope": "GOOGLE", "business_status": "CLOSED_TEMPORARILY", "types": ["school", "point_of_interest", "establishment"], "icon": "https://maps.gstatic.com/mapfiles/place_api/icons/v1/png_71/school-71.png"}, {"rating": 5, "user_ratings_total": 1, "permanently_closed": true, "name": "R S Education Center", "reference": "ChIJ_dZpl8P-DDkRmLTeTkJbEh8", "geometry": {"location": {"lat": 28.7506776, "lng": 77.2680822}, "viewport": {"northeast": {"lat": 28.75204838029149, "lng": 77.26938828029151}, "southwest": {"lat": 28.7493504197085, "lng": 77.2666903197085}}}, "place_id": "ChIJ_dZpl8P-DDkRmLTeTkJbEh8", "plus_code": {"global_code": "7JWVQ729+76", "compound_code": "Q729+76 Ghaziabad, Uttar Pradesh, India"}, "vicinity": "Sarad city, Pink City, Ghaziabad", "scope": "GOOGLE", "business_status": "CLOSED_TEMPORARILY", "types": ["school", "point_of_interest", "establishment"], "icon": "https://maps.gstatic.com/mapfiles/place_api/icons/v1/png_71/school-71.png"}, {"rating": 4, "user_ratings_total": 4, "permanently_closed": true, "name": "oxford international joyful school", "reference": "ChIJfxMi5MP-DDkRIONLGCiHuus", "geometry": {"location": {"lat": 28.7487493, "lng": 77.26821620000001}, "viewport": {"northeast": {"lat": 28.7500515302915, "lng": 77.26967338029151}, "southwest": {"lat": 28.7473535697085, "lng": 77.26697541970849}}}, "place_id": "ChIJfxMi5MP-DDkRIONLGCiHuus", "plus_code": {"global_code": "7JWVP7X9+F7", "compound_code": "P7X9+F7 Ghaziabad, Uttar Pradesh, India"}, "vicinity": "Sarad city, Pink City, Ghaziabad", "photos": [{"photo_reference": "ATtYBwJaponjKX23lzSu2hWJOH5_eZ_RWdTNvmtY1zSjaw4fNHhBsvzjfLErOPn11JmVkSYmU4aE1vwDYHqjIsfeUiM4i19WbqQMiDOGuLRX4WdJUdM4A6nRMLyOVXXZfc2MiL801eGtaR4wIkfWXU4voJOumtQ-g5xcX8Ugoff0Sf-YEfD1", "width": 4160, "html_attributions": ["<a href=\"https://maps.google.com/maps/contrib/106589385862316251767\">oxford international joyful school</a>"], "height": 3120}], "scope": "GOOGLE", "business_status": "CLOSED_TEMPORARILY", "types": ["school", "point_of_interest", "establishment"], "icon": "https://maps.gstatic.com/mapfiles/place_api/icons/v1/png_71/school-71.png"}, {"permanently_closed": true, "name": "K D International Public School", "reference": "ChIJ9ZBZger_DDkRPAVeuZkqYos", "geometry": {"location": {"lat": 28.7500281, "lng": 77.2515507}, "viewport": {"northeast": {"lat": 28.7513450802915, "lng": 77.25291313029149}, "southwest": {"lat": 28.7486471197085, "lng": 77.25021516970848}}}, "place_id": "ChIJ9ZBZger_DDkRPAVeuZkqYos", "plus_code": {"global_code": "7JWVQ722+2J", "compound_code": "Q722+2J Sabhapur Extension, Sabhapur, Sonia Vihar, Delhi, India"}, "vicinity": "Rati Ram Marg, Sabhapur Extension", "scope": "GOOGLE", "business_status": "CLOSED_TEMPORARILY", "types": ["school", "point_of_interest", "establishment"], "icon": "https://maps.gstatic.com/mapfiles/place_api/icons/v1/png_71/school-71.png"}, {"rating": 4.7, "user_ratings_total": 32, "name": "Dinesh Raj Cricket Academy", "reference": "ChIJryafrov_DDkRYJCuBhcDnJ0", "geometry": {"location": {"lat": 28.7435213, "lng": 77.2554997}, "viewport": {"northeast": {"lat": 28.74464488029149, "lng": 77.25681333029151}, "southwest": {"lat": 28.7419469197085, "lng": 77.25411536970849}}}, "opening_hours": {"open_now": false}, "place_id": "ChIJryafrov_DDkRYJCuBhcDnJ0", "plus_code": {"global_code": "7JWVP7V4+C5", "compound_code": "P7V4+C5 Delhi, India"}, "vicinity": "Chaman Vihar, Vijay Vihar, Delhi", "photos": [{"photo_reference": "ATtYBwJ6pdKCEAnRjgOlGb3FdF2YgQ2EL7HODq364NIis6SjKOE6GR2Q6FQ5XDW9sC0AaZ9IrkBZ7qIKgXppIPvSKcSKTG3tCp4ZqzHxVvqthzjlCV7O9CrGTUsjpzBpcnAcpsLc4ChjyOUviGUcUqNilYzGmw6_RuFNMI74hSZoHfz5icxT", "width": 960, "html_attributions": ["<a href=\"https://maps.google.com/maps/contrib/108491740000584764103\">Dinesh Choudhury</a>"], "height": 720}], "scope": "GOOGLE", "business_status": "OPERATIONAL", "types": ["school", "point_of_interest", "establishment"], "icon": "https://maps.gstatic.com/mapfiles/place_api/icons/v1/png_71/generic_business-71.png"}, {"rating": 5, "user_ratings_total": 1, "permanently_closed": true, "name": "Bharti Kavita Public School", "reference": "ChIJCf3a1JT-DDkRIpjpyWuSVNM", "geometry": {"location": {"lat": 28.7420571, "lng": 77.2604317}, "viewport": {"northeast": {"lat": 28.74338393029151, "lng": 77.2618129802915}, "southwest": {"lat": 28.74068596970851, "lng": 77.25911501970849}}}, "place_id": "ChIJCf3a1JT-DDkRIpjpyWuSVNM", "plus_code": {"global_code": "7JWVP7R6+R5", "compound_code": "P7R6+R5 Vijay Vihar, New Delhi, Delhi, India"}, "vicinity": "Vijay Vihar, New Delhi", "scope": "GOOGLE", "business_status": "CLOSED_TEMPORARILY", "types": ["school", "point_of_interest", "establishment"], "icon": "https://maps.gstatic.com/mapfiles/place_api/icons/v1/png_71/school-71.png"}, {"rating": 1, "user_ratings_total": 1, "permanently_closed": true, "name": "Bala ji Property and Builders", "reference": "ChIJ8VUSZcP-DDkRBhw5oHNrVYw", "geometry": {"location": {"lat": 28.7523451, "lng": 77.2686331}, "viewport": {"northeast": {"lat": 28.7537541802915, "lng": 77.2698578302915}, "southwest": {"lat": 28.7510562197085, "lng": 77.2671598697085}}}, "place_id": "ChIJ8VUSZcP-DDkRBhw5oHNrVYw", "plus_code": {"global_code": "7JWVQ729+WF", "compound_code": "Q729+WF Ghaziabad, Uttar Pradesh, India"}, "vicinity": "Shared City, Ghaziabad", "scope": "GOOGLE", "business_status": "CLOSED_TEMPORARILY", "types": ["school", "point_of_interest", "establishment"], "icon": "https://maps.gstatic.com/mapfiles/place_api/icons/v1/png_71/school-71.png"}, {"rating": 4.4, "user_ratings_total": 12, "permanently_closed": true, "name": "Nity Public School", "reference": "ChIJVVVV5fH-DDkRNbh_NbhyNes", "geometry": {"location": {"lat": 28.7477021, "lng": 77.25129179999999}, "viewport": {"northeast": {"lat": 28.7487825302915, "lng": 77.2526669802915}, "southwest": {"lat": 28.7460845697085, "lng": 77.24996901970849}}}, "place_id": "ChIJVVVV5fH-DDkRNbh_NbhyNes", "plus_code": {"global_code": "7JWVP7X2+3G", "compound_code": "P7X2+3G Sabhapur, Delhi, India"}, "vicinity": "Sabhapur", "scope": "GOOGLE", "business_status": "CLOSED_TEMPORARILY", "types": ["school", "point_of_interest", "establishment"], "icon": "https://maps.gstatic.com/mapfiles/place_api/icons/v1/png_71/school-71.png"}, {"permanently_closed": true, "name": "Karim Khan Moter Repeiring", "reference": "ChIJW08UNcP-DDkRAcI04VFHRBc", "geometry": {"location": {"lat": 28.7541784, "lng": 77.2677087}, "viewport": {"northeast": {"lat": 28.7555567302915, "lng": 77.2690740802915}, "southwest": {"lat": 28.7528587697085, "lng": 77.2663761197085}}}, "place_id": "ChIJW08UNcP-DDkRAcI04VFHRBc", "plus_code": {"global_code": "7JWVQ739+M3", "compound_code": "Q739+M3 Ghaziabad, Uttar Pradesh, India"}, "vicinity": "Sarad city, Pink City, Ghaziabad", "scope": "GOOGLE", "business_status": "CLOSED_TEMPORARILY", "types": ["school", "point_of_interest", "establishment"], "icon": "https://maps.gstatic.com/mapfiles/place_api/icons/v1/png_71/school-71.png"}, {"rating": 4, "user_ratings_total": 12, "permanently_closed": true, "name": "St Marry's School", "reference": "ChIJUxklWLn_DDkR8XV6N10gO5s", "geometry": {"location": {"lat": 28.7440566, "lng": 77.2662003}, "viewport": {"northeast": {"lat": 28.7453845802915, "lng": 77.26741508029151}, "southwest": {"lat": 28.7426866197085, "lng": 77.2647171197085}}}, "place_id": "ChIJUxklWLn_DDkR8XV6N10gO5s", "plus_code": {"global_code": "7JWVP7V8+JF", "compound_code": "P7V8+JF Ghaziabad, Uttar Pradesh, India"}, "vicinity": "F 87, SLF Ved Vihar, Saidullabad, Loni, Ghaziabad", "photos": [{"photo_reference": "ATtYBwJKZU4Ng5yI8oImFqXWKZHp7FsapTHHv95M3ElTPK7QP466laQw5LqBoulkcuKMYCgCwQzBQaa-WxY18XLI0-GZPPbcD9_twOUEvND3uqbbW7_iMTWHMbILG-jqFAixfL7k_zh--QXsxX4Xi1iHX8FnFIc-0ZHvNKINAF7A_bLe1dek", "width": 2906, "html_attributions": ["<a href=\"https://maps.google.com/maps/contrib/115687371563266106154\">Anjali Rathore</a>"], "height": 2032}], "scope": "GOOGLE", "business_status": "CLOSED_TEMPORARILY", "types": ["school", "point_of_interest", "establishment"], "icon": "https://maps.gstatic.com/mapfiles/place_api/icons/v1/png_71/school-71.png"}, {"rating": 2, "user_ratings_total": 1, "permanently_closed": true, "name": "S m inter national school gate no 1", "reference": "ChIJQxj87A3_DDkRWPydiIoymRk", "geometry": {"location": {"lat": 28.75190029999999, "lng": 77.2509926}, "viewport": {"northeast": {"lat": 28.7532623302915, "lng": 77.25227393029151}, "southwest": {"lat": 28.7505643697085, "lng": 77.24957596970849}}}, "place_id": "ChIJQxj87A3_DDkRWPydiIoymRk", "plus_code": {"global_code": "7JWVQ722+Q9", "compound_code": "Q722+Q9 Delhi, India"}, "vicinity": "Majlis Park Main Road, Kaushal Puri, Chauhan Patti, Azadpur, Delhi", "photos": [{"photo_reference": "ATtYBwJnO4V-uyF4FGVdLyOhQBeyYKYDw-ujyYtzi2L8xBNAY-UTwz0uW2FgJ9vN3v8uUP931VERy4BVukfJgIkzELfDaIoEMbOzO1ePM2NVP05rZxzSoadJhmHHFMKvZU2uxf4u6BrpA1ZK1tnWia65AgLMUnHu16oFTcrUkeigy9eD5cjq", "width": 1280, "html_attributions": ["<a href=\"https://maps.google.com/maps/contrib/116003685435818488410\">S m inter national school gate no 1</a>"], "height": 720}], "scope": "GOOGLE", "business_status": "CLOSED_TEMPORARILY", "types": ["school", "point_of_interest", "establishment"], "icon": "https://maps.gstatic.com/mapfiles/place_api/icons/v1/png_71/school-71.png"}, {"rating": 4.2, "user_ratings_total": 5, "name": "Green Icon School", "reference": "ChIJqZRwsmj_DDkRBf5RfWkmkMA", "geometry": {"location": {"lat": 28.7523263, "lng": 77.2688689}, "viewport": {"northeast": {"lat": 28.7536554802915, "lng": 77.27026138029152}, "southwest": {"lat": 28.7509575197085, "lng": 77.2675634197085}}}, "place_id": "ChIJqZRwsmj_DDkRBf5RfWkmkMA", "plus_code": {"global_code": "7JWVQ729+WG", "compound_code": "Q729+WG Ghaziabad, Uttar Pradesh, India"}, "vicinity": "Unnamed Road, Sarad city, Pink City, Ghaziabad", "photos": [{"photo_reference": "ATtYBwLn44R7gXbho8Vb5yyTC999D2Z8C78lOQHjJL9V28Vef4EgueDb8rq1QoCYGkjmkgvo46C9vLdIsx9jrcRGQP-gWbH8eyKSKcBonid9p_4x-9Mm0tAr8n6x05RlUcOTNs1eIdGiuMz6u6UsaF4GgwTRUpiU08Y4DJ36bcNQ1UWTjy13", "width": 2000, "html_attributions": ["<a href=\"https://maps.google.com/maps/contrib/111977585276196104120\">Suresh Pal singh</a>"], "height": 4000}], "scope": "GOOGLE", "business_status": "OPERATIONAL", "types": ["school", "point_of_interest", "establishment"], "icon": "https://maps.gstatic.com/mapfiles/place_api/icons/v1/png_71/school-71.png"}, {"rating": 4.8, "user_ratings_total": 12, "permanently_closed": true, "name": "S. M. INTERNATIONAL SCHOOL", "reference": "ChIJ7b-WEfD-DDkR6xPOKsU9Gfg", "geometry": {"location": {"lat": 28.7518674, "lng": 77.250934}, "viewport": {"northeast": {"lat": 28.75320913029149, "lng": 77.25223713029152}, "southwest": {"lat": 28.7505111697085, "lng": 77.24953916970851}}}, "place_id": "ChIJ7b-WEfD-DDkR6xPOKsU9Gfg", "plus_code": {"global_code": "7JWVQ722+P9", "compound_code": "Q722+P9 Chauhan Patti, India"}, "vicinity": "A 133 main road Kaushal puri, Chauhan Patti", "photos": [{"photo_reference": "ATtYBwIqkMRkvqA9d26VtNbqLAdQwSdITS33uFDWqLFhjizHDxqrNHnm_NBqTYdjj0KHeU8EJS4_zsuJRT9k-cDGygT5-27f-mb4zC-dUKePzu8FCnAlaC551Te6JFwOvkbmOjM9p1ewhzmlo5ce7bxXkHDjO2Bd_u7NGbm9Yz-oPf7QMP3E", "width": 1280, "html_attributions": ["<a href=\"https://maps.google.com/maps/contrib/105984668819360350627\">S. M. INTERNATIONAL SCHOOL</a>"], "height": 720}], "scope": "GOOGLE", "business_status": "CLOSED_TEMPORARILY", "types": ["school", "point_of_interest", "establishment"], "icon": "https://maps.gstatic.com/mapfiles/place_api/icons/v1/png_71/school-71.png"}, {"permanently_closed": true, "name": "Real Topper's Academy", "reference": "ChIJRTbfrJT-DDkRcpiVB6rB0yo", "geometry": {"location": {"lat": 28.7418523, "lng": 77.2582905}, "viewport": {"northeast": {"lat": 28.7431858802915, "lng": 77.2596075802915}, "southwest": {"lat": 28.7404879197085, "lng": 77.2569096197085}}}, "place_id": "ChIJRTbfrJT-DDkRcpiVB6rB0yo", "plus_code": {"global_code": "7JWVP7R5+P8", "compound_code": "P7R5+P8 Delhi, India"}, "vicinity": "Chaman Vihar, Loni, Delhi", "scope": "GOOGLE", "business_status": "CLOSED_TEMPORARILY", "types": ["school", "point_of_interest", "establishment"], "icon": "https://maps.gstatic.com/mapfiles/place_api/icons/v1/png_71/school-71.png"}, {"rating": 3, "user_ratings_total": 2, "name": "St. Mary's School", "reference": "ChIJJ2xag0D_DDkRpMgUMUr9yCU", "geometry": {"location": {"lat": 28.742684, "lng": 77.2644017}, "viewport": {"northeast": {"lat": 28.7440070802915, "lng": 77.26583773029152}, "southwest": {"lat": 28.7413091197085, "lng": 77.2631397697085}}}, "place_id": "ChIJJ2xag0D_DDkRpMgUMUr9yCU", "plus_code": {"global_code": "7JWVP7V7+3Q", "compound_code": "P7V7+3Q Loni, Ghaziabad, Uttar Pradesh, India"}, "vicinity": "SLF Ved Vihar, Sadullbad P.O, Loni, Loni", "photos": [{"photo_reference": "ATtYBwISxmPDF3uODln_ZkEn__mxUNvbTXcRGRdVk57nvXGvBwamgVgri8WwFguzzIUv4tZuqHE6WJSgwkOQmBGgifW-LtypzYoGAYvM1R3dtdUS_XEG2bnJ9gnzvG-He6kTEpEm7wB3nKWP1uuc05xkDv35I2rsherVmP_VNVPFbYa3kPcu", "width": 1034, "html_attributions": ["<a href=\"https://maps.google.com/maps/contrib/113153717263083777141\">St. Mary&#39;s School</a>"], "height": 686}], "scope": "GOOGLE", "business_status": "OPERATIONAL", "types": ["school", "point_of_interest", "establishment"], "icon": "https://maps.gstatic.com/mapfiles/place_api/icons/v1/png_71/school-71.png"}, {"permanently_closed": true, "name": "MOTHERHOOD PUBLIC SCHOOL", "reference": "ChIJmdzNElb_DDkRmHA8aikoztY", "geometry": {"location": {"lat": 28.7482568, "lng": 77.2506787}, "viewport": {"northeast": {"lat": 28.7494711302915, "lng": 77.2515998302915}, "southwest": {"lat": 28.7467731697085, "lng": 77.24890186970849}}}, "place_id": "ChIJmdzNElb_DDkRmHA8aikoztY", "plus_code": {"global_code": "7JWVP7X2+87", "compound_code": "P7X2+87 Delhi, India"}, "vicinity": "E-4/446, 4th Pusta, Sonia Vihar, Delhi", "scope": "GOOGLE", "business_status": "CLOSED_TEMPORARILY", "types": ["school", "point_of_interest", "establishment"], "icon": "https://maps.gstatic.com/mapfiles/place_api/icons/v1/png_71/school-71.png"}, {"rating": 4.3, "user_ratings_total": 7, "name": "Holy Child Public School", "reference": "ChIJ4XQaHg7_DDkRVFD7eOrgDpA", "geometry": {"location": {"lat": 28.7582901, "lng": 77.2578561}, "viewport": {"northeast": {"lat": 28.7596499302915, "lng": 77.2591586302915}, "southwest": {"lat": 28.7569519697085, "lng": 77.25646066970849}}}, "opening_hours": {"open_now": false}, "place_id": "ChIJ4XQaHg7_DDkRVFD7eOrgDpA", "plus_code": {"global_code": "7JWVQ755+84", "compound_code": "Q755+84 Ghaziabad, Uttar Pradesh, India"}, "vicinity": "Khanpur More, Rampark Extension, Ghaziabad", "photos": [{"photo_reference": "ATtYBwKIX1Z9aVgboKKc0AkbeHjuT_oC5AZDTW7EG9NykAvurmk6grhV2hDVFV_RjFmib_bcCKh_taOzcIkUNnz9R-G9lp4hjE4cOhOdYtA7ZCHOoza-j0XzGVxe309fTSf9TRNsjLHOzdlJL_BiEKfcrLaxs3pKb8rWVmtU309xQjlvPXPl", "width": 4608, "html_attributions": ["<a href=\"https://maps.google.com/maps/contrib/111226658382811153710\">Holy Child Public School</a>"], "height": 3456}], "scope": "GOOGLE", "business_status": "OPERATIONAL", "types": ["school", "point_of_interest", "establishment"], "icon": "https://maps.gstatic.com/mapfiles/place_api/icons/v1/png_71/school-71.png"}, {"rating": 3.8, "user_ratings_total": 4, "name": "Vidhya Convent Public School", "reference": "ChIJQYxR2ur_DDkRUCdCa-CC2-8", "geometry": {"location": {"lat": 28.7538333, "lng": 77.268697}, "viewport": {"northeast": {"lat": 28.7551959302915, "lng": 77.2700538302915}, "southwest": {"lat": 28.7524979697085, "lng": 77.2673558697085}}}, "opening_hours": {"open_now": true}, "place_id": "ChIJQYxR2ur_DDkRUCdCa-CC2-8", "plus_code": {"global_code": "7JWVQ739+GF", "compound_code": "Q739+GF Ghaziabad, Uttar Pradesh, India"}, "vicinity": "Near Khajuri pusta road Amit enclave kasim vihar, Loni, Ghaziabad", "photos": [{"photo_reference": "ATtYBwKeQp2TIGQ8R4-VyvV7xHQauPqLa8UziF1gWdsM30ogYSgnDgIVC2gsstnavxxM98pZ5R48qmP92lbV5AwF8_Yg8G-BD2h_eZad3mBmZYChvPMQRN6lIaE_huQUq9x-upVbWpX39J8ThmssZF8lPCaC_xQFmoNqIAA7G6ofBO4lV221", "width": 3456, "html_attributions": ["<a href=\"https://maps.google.com/maps/contrib/104993239467969745613\">Vidhya Convent Public School</a>"], "height": 4608}], "scope": "GOOGLE", "business_status": "OPERATIONAL", "types": ["school", "point_of_interest", "establishment"], "icon": "https://maps.gstatic.com/mapfiles/place_api/icons/v1/png_71/school-71.png"}, {"permanently_closed": true, "name": "Dad's Ashram", "reference": "ChIJ5xt-gNn_DDkRVAHvDHZLADI", "geometry": {"location": {"lat": 28.7501498, "lng": 77.269973}, "viewport": {"northeast": {"lat": 28.7514796302915, "lng": 77.2713627302915}, "southwest": {"lat": 28.7487816697085, "lng": 77.2686647697085}}}, "place_id": "ChIJ5xt-gNn_DDkRVAHvDHZLADI", "plus_code": {"global_code": "7JWVQ729+3X", "compound_code": "Q729+3X Ghaziabad, Uttar Pradesh, India"}, "vicinity": "Pink City, Ghaziabad", "scope": "GOOGLE", "business_status": "CLOSED_TEMPORARILY", "types": ["school", "point_of_interest", "establishment"], "icon": "https://maps.gstatic.com/mapfiles/place_api/icons/v1/png_71/school-71.png"}, {"permanently_closed": true, "name": "Delfin Public Scool", "reference": "ChIJ_ZiAbED_DDkRE1-F3xF8kgQ", "geometry": {"location": {"lat": 28.7543468, "lng": 77.2512131}, "viewport": {"northeast": {"lat": 28.7556905802915, "lng": 77.2525615802915}, "southwest": {"lat": 28.7529926197085, "lng": 77.24986361970848}}}, "place_id": "ChIJ_ZiAbED_DDkRE1-F3xF8kgQ", "plus_code": {"global_code": "7JWVQ732+PF", "compound_code": "Q732+PF Delhi, India"}, "vicinity": "Unnamed Road, Pur VIllage, Delhi", "scope": "GOOGLE", "business_status": "CLOSED_TEMPORARILY", "types": ["school", "point_of_interest", "establishment"], "icon": "https://maps.gstatic.com/mapfiles/place_api/icons/v1/png_71/school-71.png"}]}