{"status": "OK", "html_attributions": [], "results": [{"rating": 4, "user_ratings_total": 40, "name": "Urban Kirana Supermarket", "reference": "ChIJP55Zhno9rjsRP2hpAMfrSss", "geometry": {"location": {"lat": 13.019011, "lng": 77.55103299999999}, "viewport": {"northeast": {"lat": 13.0203953302915, "lng": 77.5523651802915}, "southwest": {"lat": 13.0176973697085, "lng": 77.54966721970848}}}, "opening_hours": {"open_now": true}, "place_id": "ChIJP55Zhno9rjsRP2hpAMfrSss", "plus_code": {"global_code": "7J5V2H92+JC", "compound_code": "2H92+JC Bengaluru, Karnataka, India"}, "vicinity": "13/15, Ground Floor, Marappan, Palya, Yeshwanthpur Industrial Suburb, Bengaluru", "photos": [{"photo_reference": "ATtYBwIXUzjdyuWwzcVFagr8F1AGBnSq3AZL-FpU7-utzebjY-uK-DIit_9dnlCTYQ6HKW8GqUuD6SsgRe2i0TtYMejTgprXwvtJHa4aeIucNhDUhJxWH5dIew1FQnmrBN30yKOvMnt7Ou5QZXYenARIeh_OIkXqf5aayUDIIcz_-TEkrhU5", "width": 4640, "html_attributions": ["<a href=\"https://maps.google.com/maps/contrib/109336625252895523476\">Urban Kirana Supermarket</a>"], "height": 3480}], "scope": "GOOGLE", "business_status": "OPERATIONAL", "types": ["supermarket", "grocery_or_supermarket", "food", "point_of_interest", "store", "establishment"], "icon": "https://maps.gstatic.com/mapfiles/place_api/icons/v1/png_71/shopping-71.png"}, {"rating": 5, "user_ratings_total": 1, "name": "Prince Enterprises", "reference": "ChIJu3uAu3E9rjsRrr6jfLlekNs", "geometry": {"location": {"lat": 13.0194538, "lng": 77.5465387}, "viewport": {"northeast": {"lat": 13.0208256302915, "lng": 77.54787573029151}, "southwest": {"lat": 13.0181276697085, "lng": 77.54517776970849}}}, "place_id": "ChIJu3uAu3E9rjsRrr6jfLlekNs", "plus_code": {"global_code": "7J5V2G9W+QJ", "compound_code": "2G9W+QJ Bengaluru, Karnataka, India"}, "vicinity": "432, 560022, APMC Yard, Yesvantpur Industrial Suburb, Yeswanthpur, Bengaluru", "scope": "GOOGLE", "business_status": "OPERATIONAL", "types": ["supermarket", "grocery_or_supermarket", "food", "point_of_interest", "store", "establishment"], "icon": "https://maps.gstatic.com/mapfiles/place_api/icons/v1/png_71/shopping-71.png"}, {"rating": 3.9, "user_ratings_total": 2843, "name": "Reliance Fresh", "reference": "ChIJYfIQ52E9rjsR86GR4CupHKw", "geometry": {"location": {"lat": 13.0290887, "lng": 77.5615256}, "viewport": {"northeast": {"lat": 13.0303988302915, "lng": 77.56280808029149}, "southwest": {"lat": 13.0277008697085, "lng": 77.56011011970848}}}, "opening_hours": {"open_now": true}, "place_id": "ChIJYfIQ52E9rjsR86GR4CupHKw", "plus_code": {"global_code": "7J5V2HH6+JJ", "compound_code": "2HH6+JJ Bengaluru, Karnataka, India"}, "vicinity": "Municipal No. 39 & 40, Hmt Main Road, Behind Ramaiah College Bus Stop, Gokula 1st Stage, 2Nd Phase, Bengaluru", "photos": [{"photo_reference": "ATtYBwLCS_wkpYkqS4ziS37IC06nmf71BM8cVBCq8Vwip6ja7nix950A77t_-RfmJslnk2aWSqvQswRFv9yozs4cDaS-yNhTOilh-_S7jSbitgXCOCpS-uCwx7uHmOIrY5Dc5VDWlo852Ekf6YkdSXBBYKzHgas6fSqxhHnSj_tZP0PNuYeU", "width": 621, "html_attributions": ["<a href=\"https://maps.google.com/maps/contrib/114600888214390490213\">Santosh kumar</a>"], "height": 414}], "scope": "GOOGLE", "business_status": "OPERATIONAL", "types": ["supermarket", "grocery_or_supermarket", "food", "point_of_interest", "store", "establishment"], "icon": "https://maps.gstatic.com/mapfiles/place_api/icons/v1/png_71/shopping-71.png"}, {"rating": 2.9, "user_ratings_total": 10, "name": "9 To 9 Super Market", "reference": "ChIJ7Uqm8QARrjsRNTmMoJu2pjA", "geometry": {"location": {"lat": 13.0287065, "lng": 77.5613955}, "viewport": {"northeast": {"lat": 13.0300863802915, "lng": 77.56278913029152}, "southwest": {"lat": 13.0273884197085, "lng": 77.56009116970851}}}, "opening_hours": {"open_now": true}, "place_id": "ChIJ7Uqm8QARrjsRNTmMoJu2pjA", "plus_code": {"global_code": "7J5V2HH6+FH", "compound_code": "2HH6+FH Bengaluru, Karnataka, India"}, "vicinity": "Shop No. 1069/70, Opp. M. S. Ramaiah College Bus Stop, H. M. T. Main Road, HMT Layout, Mathikere, Bengaluru", "photos": [{"photo_reference": "ATtYBwKVPclO69G2Q1Qc7ky868TB8dGqzMDTCD7af6cb6x9tIxLkgunYzEvVEv9KghS0-50yFYN7B97BJKSDpXLcGG7jN9W8koluzCD-cLercT3Ksf3HHz8ADHoLoNjrEIvcsL2GSs9Fj3ZY_pBgs7BEgFkH9B6xkj2HJSDB_eHy0OY-9eZZ", "width": 1080, "html_attributions": ["<a href=\"https://maps.google.com/maps/contrib/109771363389406556107\">Satish Kumar Sethi</a>"], "height": 1920}], "scope": "GOOGLE", "business_status": "OPERATIONAL", "types": ["supermarket", "grocery_or_supermarket", "food", "point_of_interest", "store", "establishment"], "icon": "https://maps.gstatic.com/mapfiles/place_api/icons/v1/png_71/shopping-71.png"}, {"rating": 5, "user_ratings_total": 3, "name": "AMRUTH TRADERS", "reference": "ChIJTfZHxTw9rjsRO9zrnmqwgwQ", "geometry": {"location": {"lat": 13.0227305, "lng": 77.5588942}, "viewport": {"northeast": {"lat": 13.0240634802915, "lng": 77.56028818029151}, "southwest": {"lat": 13.0213655197085, "lng": 77.55759021970849}}}, "opening_hours": {"open_now": true}, "place_id": "ChIJTfZHxTw9rjsRO9zrnmqwgwQ", "plus_code": {"global_code": "7J5V2HF5+3H", "compound_code": "2HF5+3H Bengaluru, Karnataka, India"}, "vicinity": "NO 1082, Triveni Main Road, Yeswanthpur, Bengaluru", "photos": [{"photo_reference": "ATtYBwKhxDQ7qn70SZM-w6ipnZywyoQuAMeN1NZtkzW03L_rgkGTsHHZyU0TpMKc5-v3jU4a1hw7wE5CGbJo2XyuAHfwjDA8mvLPEnFyQwLb3wPsoGxdzsv1EJkwLJVOHS7xNMm4jUppubnnNGwlIvL93XgaiCE83c6nf5-FiRnGzr-jnb5-", "width": 1500, "html_attributions": ["<a href=\"https://maps.google.com/maps/contrib/107158719855171998056\">MOHAMMED AMEEN</a>"], "height": 1962}], "scope": "GOOGLE", "business_status": "OPERATIONAL", "types": ["supermarket", "grocery_or_supermarket", "food", "point_of_interest", "store", "establishment"], "icon": "https://maps.gstatic.com/mapfiles/place_api/icons/v1/png_71/shopping-71.png"}, {"rating": 3.6, "user_ratings_total": 31, "name": "A-one Super Market", "reference": "ChIJF0m0aHs9rjsRVSebdUbjJD0", "geometry": {"location": {"lat": 13.020064, "lng": 77.5555396}, "viewport": {"northeast": {"lat": 13.0213853802915, "lng": 77.5568710302915}, "southwest": {"lat": 13.0186874197085, "lng": 77.5541730697085}}}, "opening_hours": {"open_now": true}, "place_id": "ChIJF0m0aHs9rjsRVSebdUbjJD0", "plus_code": {"global_code": "7J5V2HC4+26", "compound_code": "2HC4+26 Bengaluru, Karnataka, India"}, "vicinity": "47, Gopal Complex, Below-Sydicate Bank, Bazaar Street, Dr.Ambedkar Nagar, Yeswanthpur, Bengaluru", "photos": [{"photo_reference": "ATtYBwJF07yFeQ2-5JAEmETQ63A39a7MM_D7NIWkrpaKjbLA-OvibPZ2aIwDnRXSRbo2QbvmsvWjws_8sbgKew7j2umQSGn4po8Tynb9DGl0HqnvTjI9NVmk6idH74fF9euV_UKZOmTKwSltdQI1jeuRxWthZzcfyaV-sG4DKpvYCmwWUXGW", "width": 4032, "html_attributions": ["<a href=\"https://maps.google.com/maps/contrib/105496953015808945327\">jaseer vv</a>"], "height": 3024}], "scope": "GOOGLE", "business_status": "OPERATIONAL", "types": ["supermarket", "grocery_or_supermarket", "food", "point_of_interest", "store", "establishment"], "icon": "https://maps.gstatic.com/mapfiles/place_api/icons/v1/png_71/shopping-71.png"}, {"rating": 3.9, "user_ratings_total": 36, "name": "Food Zone Super Market", "reference": "ChIJUZ5cbGs9rjsRJAcERJf3QT4", "geometry": {"location": {"lat": 13.0197579, "lng": 77.55521750000001}, "viewport": {"northeast": {"lat": 13.0211068302915, "lng": 77.55656738029151}, "southwest": {"lat": 13.0184088697085, "lng": 77.5538694197085}}}, "opening_hours": {"open_now": true}, "place_id": "ChIJUZ5cbGs9rjsRJAcERJf3QT4", "plus_code": {"global_code": "7J5V2H94+W3", "compound_code": "2H94+W3 Bengaluru, Karnataka, India"}, "vicinity": "29/1, S.C. Road, Yeshwanthpur, Bengaluru", "photos": [{"photo_reference": "ATtYBwI_kT1W0csjzpntHVwgMg7GklTTSnMh6BjFCLEQUaSu3Ls4eAw2x4CDo9g7GrLD9eFZBs9F60eDfIJ7zCG0Hv3t4m5NDkZg--aEXxy5jbep2TTl31IFwvImp9ENC23DIa9o46iQdPmBifPXxdYzf2K4cORFvCErdN2FDHlwxchuZ2n9", "width": 4608, "html_attributions": ["<a href=\"https://maps.google.com/maps/contrib/101125561799379393659\">BABICHAN KURUVILA</a>"], "height": 3456}], "scope": "GOOGLE", "business_status": "OPERATIONAL", "types": ["supermarket", "grocery_or_supermarket", "food", "point_of_interest", "store", "establishment"], "icon": "https://maps.gstatic.com/mapfiles/place_api/icons/v1/png_71/shopping-71.png"}, {"rating": 3, "user_ratings_total": 1, "name": "Sri Nanjundeshwara Rice Traders", "reference": "ChIJ_etwUGA9rjsRTDvnU_TAPcE", "geometry": {"location": {"lat": 13.026667, "lng": 77.56136599999999}, "viewport": {"northeast": {"lat": 13.0280179802915, "lng": 77.5626847302915}, "southwest": {"lat": 13.0253200197085, "lng": 77.55998676970849}}}, "opening_hours": {"open_now": true}, "place_id": "ChIJ_etwUGA9rjsRTDvnU_TAPcE", "plus_code": {"global_code": "7J5V2HG6+MG", "compound_code": "2HG6+MG Bengaluru, Karnataka, India"}, "vicinity": "1, 88, HMT Main Road, 1st Stage, Phase 1, Mathikere, Bengaluru", "scope": "GOOGLE", "business_status": "OPERATIONAL", "types": ["supermarket", "grocery_or_supermarket", "food", "point_of_interest", "store", "establishment"], "icon": "https://maps.gstatic.com/mapfiles/place_api/icons/v1/png_71/shopping-71.png"}, {"rating": 3.2, "user_ratings_total": 9, "name": "DRINKING WATER", "reference": "ChIJKxzaHkU9rjsRUFmj2hOdpsQ", "geometry": {"location": {"lat": 13.0415897, "lng": 77.54884249999999}, "viewport": {"northeast": {"lat": 13.0429358302915, "lng": 77.5501770302915}, "southwest": {"lat": 13.0402378697085, "lng": 77.54747906970849}}}, "opening_hours": {"open_now": true}, "place_id": "ChIJKxzaHkU9rjsRUFmj2hOdpsQ", "plus_code": {"global_code": "7J5V2GRX+JG", "compound_code": "2GRX+JG Bengaluru, Karnataka, India"}, "vicinity": "Muthyalamma Temple Road, Muthyala Nagar, Gokula Extension, Mathikere, Bengaluru", "photos": [{"photo_reference": "ATtYBwLGFhx0UagQ5_3RWvm9FG0xt-BYY-ImnYYH8CJLkPAuRgQPytrgzS5YbcwhsgRZcxEzIpoFsXIXH4EenChOdgZdM5A5OJVFETBeKAnqx5CIrZDoUdo6f5tLroOGhdWHC5UoKLc2KCobjKOJDs5lBoaoDxb0yjHZisHLrQZEs4uucwPi", "width": 2448, "html_attributions": ["<a href=\"https://maps.google.com/maps/contrib/111851627821830855512\">INDO AFRI EXPORTS</a>"], "height": 3264}], "scope": "GOOGLE", "business_status": "OPERATIONAL", "types": ["supermarket", "grocery_or_supermarket", "food", "point_of_interest", "store", "establishment"], "icon": "https://maps.gstatic.com/mapfiles/place_api/icons/v1/png_71/shopping-71.png"}, {"rating": 3.7, "user_ratings_total": 24, "name": "Thavakkal Bazar", "reference": "ChIJ2SKbRlk9rjsRUuq2n4twmhM", "geometry": {"location": {"lat": 13.0397024, "lng": 77.5574121}, "viewport": {"northeast": {"lat": 13.0410503302915, "lng": 77.5587039302915}, "southwest": {"lat": 13.0383523697085, "lng": 77.5560059697085}}}, "opening_hours": {"open_now": true}, "place_id": "ChIJ2SKbRlk9rjsRUuq2n4twmhM", "plus_code": {"global_code": "7J5V2HQ4+VX", "compound_code": "2HQ4+VX Bengaluru, Karnataka, India"}, "vicinity": "#26,MSR main road,gokula,poornappa garden,mathikere, Bengaluru", "scope": "GOOGLE", "business_status": "OPERATIONAL", "types": ["supermarket", "grocery_or_supermarket", "food", "point_of_interest", "store", "establishment"], "icon": "https://maps.gstatic.com/mapfiles/place_api/icons/v1/png_71/shopping-71.png"}, {"name": "M N R Golden Fisheries", "reference": "ChIJ38p6AZ09rjsRNswlNZZvakc", "geometry": {"location": {"lat": 13.0179734, "lng": 77.54808}, "viewport": {"northeast": {"lat": 13.0192512802915, "lng": 77.5494611302915}, "southwest": {"lat": 13.0165533197085, "lng": 77.5467631697085}}}, "place_id": "ChIJ38p6AZ09rjsRNswlNZZvakc", "plus_code": {"global_code": "7J5V2G9X+56", "compound_code": "2G9X+56 Bengaluru, Karnataka, India"}, "vicinity": "Rahman Khan Road, Yeswanthpur, Bengaluru", "scope": "GOOGLE", "business_status": "OPERATIONAL", "types": ["supermarket", "grocery_or_supermarket", "food", "point_of_interest", "store", "establishment"], "icon": "https://maps.gstatic.com/mapfiles/place_api/icons/v1/png_71/shopping-71.png"}, {"rating": 4.3, "user_ratings_total": 11, "name": "VELLI MALAR VEGETABLES & FRUITS", "reference": "ChIJL-lw6qw9rjsRCL3CwEsMzcU", "geometry": {"location": {"lat": 13.0342278, "lng": 77.5619205}, "viewport": {"northeast": {"lat": 13.0355347802915, "lng": 77.5632766302915}, "southwest": {"lat": 13.0328368197085, "lng": 77.56057866970849}}}, "place_id": "ChIJL-lw6qw9rjsRCL3CwEsMzcU", "plus_code": {"global_code": "7J5V2HM6+MQ", "compound_code": "2HM6+MQ Bengaluru, Karnataka, India"}, "vicinity": "Mathikere Extension, Mathikere, Bengaluru", "photos": [{"photo_reference": "ATtYBwKdol_TjQEl908PovRv_TjiI_rky-0eLvO4QBXrGtc3IRYaacd6AK-ka_MvCBh_2gw-xIeLOyMsLtKDNfRPncuIXGwUzk-N6d9tK3jxMH-DaI57NyWVo0j6DtGjDUZS0TxW9ZSTLV8RdHTuug0yUQGyUEk0cYrWUbp3y7EIWLLz9niI", "width": 2976, "html_attributions": ["<a href=\"https://maps.google.com/maps/contrib/114491115860486274992\">nishant c</a>"], "height": 3968}], "scope": "GOOGLE", "business_status": "OPERATIONAL", "types": ["supermarket", "grocery_or_supermarket", "food", "point_of_interest", "store", "establishment"], "icon": "https://maps.gstatic.com/mapfiles/place_api/icons/v1/png_71/shopping-71.png"}, {"rating": 4, "user_ratings_total": 3, "name": "Suresh General Stores", "reference": "ChIJnTNomBQ9rjsR69EX-ww82iQ", "geometry": {"location": {"lat": 13.0271858, "lng": 77.5374938}, "viewport": {"northeast": {"lat": 13.0285234302915, "lng": 77.5388408302915}, "southwest": {"lat": 13.0258254697085, "lng": 77.53614286970848}}}, "opening_hours": {"open_now": true}, "place_id": "ChIJnTNomBQ9rjsR69EX-ww82iQ", "plus_code": {"global_code": "7J5V2GGP+VX", "compound_code": "2GGP+VX Bengaluru, Karnataka, India"}, "vicinity": "2nd Block, Goraguntepalya, Yeswanthpur, Bengaluru", "photos": [{"photo_reference": "ATtYBwIz1wrSJJ0pKCXqhswi4UOU1sXVFj_zpLMDQIj1eeT-vAxYHWDDXpZngctCN-XYVwSIjdP03I5w19wVKBI7bxVhDDM876nDHsa5kPy6ECCmoZ5N9rkYl95XybeoiyhlFEJag-q2J555vQl-l0gZYGvUWLiIiwMk1bup5iS270eW4gRb", "width": 4160, "html_attributions": ["<a href=\"https://maps.google.com/maps/contrib/107004488470902872539\">Banuprakash N</a>"], "height": 3120}], "scope": "GOOGLE", "business_status": "OPERATIONAL", "types": ["supermarket", "grocery_or_supermarket", "food", "point_of_interest", "store", "establishment"], "icon": "https://maps.gstatic.com/mapfiles/place_api/icons/v1/png_71/shopping-71.png"}, {"rating": 4.5, "user_ratings_total": 2, "name": "Behtar Enabled Jalahalli", "reference": "ChIJ003dl009rjsRYVXqqf05iAs", "geometry": {"location": {"lat": 13.0426176, "lng": 77.5506111}, "viewport": {"northeast": {"lat": 13.0439669302915, "lng": 77.5519673802915}, "southwest": {"lat": 13.0412689697085, "lng": 77.54926941970848}}}, "place_id": "ChIJ003dl009rjsRYVXqqf05iAs", "plus_code": {"global_code": "7J5V2HV2+26", "compound_code": "2HV2+26 Bengaluru, Karnataka, India"}, "vicinity": "643-650, 4th Main Road, Muthyala Nagar, Gokula Extension, Jalahalli, Bengaluru", "photos": [{"photo_reference": "ATtYBwJIQSSs-rCN27kNDwkW5FSc0_fvIQejU-N6pqCS2UNtkytnHznreqCaMWyJhqjJibSrM4E2fW9GqqKRsutSQRzy0OAkNLWmB7uATTXgWtS1eXgo-RKE7SyzIpAwZ7xMzqmzm5TQvZTJSj8WcLmxE3w8YlzC8qDI-daeGafeo7-smQRw", "width": 1920, "html_attributions": ["<a href=\"https://maps.google.com/maps/contrib/114872176019606300268\">Jalahalli Behtar</a>"], "height": 1080}], "scope": "GOOGLE", "business_status": "OPERATIONAL", "types": ["supermarket", "grocery_or_supermarket", "food", "point_of_interest", "store", "establishment"], "icon": "https://maps.gstatic.com/mapfiles/place_api/icons/v1/png_71/shopping-71.png"}]}