{"status": "OK", "html_attributions": [], "results": [{"rating": 4.1, "user_ratings_total": 1474, "name": "Benison Supermarket", "reference": "ChIJO_Vl4DEVrjsRRXlQ_VGkDv0", "geometry": {"location": {"lat": 12.8836321, "lng": 77.5958971}, "viewport": {"northeast": {"lat": 12.8849429302915, "lng": 77.5974347302915}, "southwest": {"lat": 12.8822449697085, "lng": 77.59473676970849}}}, "opening_hours": {"open_now": true}, "place_id": "ChIJO_Vl4DEVrjsRRXlQ_VGkDv0", "plus_code": {"global_code": "7J4VVHMW+F9", "compound_code": "VHMW+F9 Bengaluru, Karnataka, India"}, "vicinity": "Bannerghatta Main Road, Syndicate Bank Colony, Omkar Nagar, Hulimavu, Bengaluru", "photos": [{"photo_reference": "ATtYBwLM062nPQG8EErMt3CO4NpUQ21IyGeKqTxjJ_DscCGMQ8K7Ce9TBpLaG_ty_I6cjxdvMrPWxB7AGRbRYAIxaSqQQs-OFuP_AyLGOfyhVkOFLeuvLevaKs-HhWw2SNA1VyR3D2Zvhlc-7CWFeV8oRgzeh9Bxjb7hDowXJ5iWAslTj1DJ", "width": 512, "html_attributions": ["<a href=\"https://maps.google.com/maps/contrib/101250922248604202899\">Shreya Karthi</a>"], "height": 384}], "scope": "GOOGLE", "business_status": "OPERATIONAL", "types": ["supermarket", "grocery_or_supermarket", "food", "point_of_interest", "store", "establishment"], "icon": "https://maps.gstatic.com/mapfiles/place_api/icons/v1/png_71/shopping-71.png"}, {"rating": 4.2, "user_ratings_total": 84, "name": "Sana Super Mart", "reference": "ChIJKQPLze0VrjsRb9rDxGGcQ_s", "geometry": {"location": {"lat": 12.8976051, "lng": 77.5857887}, "viewport": {"northeast": {"lat": 12.8989907302915, "lng": 77.58713713029151}, "southwest": {"lat": 12.8962927697085, "lng": 77.5844391697085}}}, "opening_hours": {"open_now": true}, "place_id": "ChIJKQPLze0VrjsRb9rDxGGcQ_s", "plus_code": {"global_code": "7J4VVHXP+28", "compound_code": "VHXP+28 Bengaluru, Karnataka, India"}, "vicinity": "#44/45 24th Main Road next to Shobha Tulip Apartments, Ramaiah Garden, JP Nagar 7th Phase, J. P. Nagar, Bengaluru", "photos": [{"photo_reference": "ATtYBwJq_TvsHxcZkSpX59hcHBUVbpEut14FY2YwEHXc-ByPmWBXNvpIrg35Y4mwQY_PoCE0Uaw-IElRPxNtrR606lBBF0wXlt59HXC0hAfTeS6UE6lCEpTIu7Vpi-bYzn50180WAKRJql5N89uMhoRzyUfp4L5OD9-Ld5xNdL1QUcW5-1Y0", "width": 3073, "html_attributions": ["<a href=\"https://maps.google.com/maps/contrib/107305215049374579786\">Sana Super Mart</a>"], "height": 1729}], "scope": "GOOGLE", "business_status": "OPERATIONAL", "types": ["supermarket", "grocery_or_supermarket", "food", "point_of_interest", "store", "establishment"], "icon": "https://maps.gstatic.com/mapfiles/place_api/icons/v1/png_71/shopping-71.png"}, {"rating": 4.8, "user_ratings_total": 4, "name": "laxmi provision store", "reference": "ChIJEaE5UkgVrjsRwxKAVYwwBY8", "geometry": {"location": {"lat": 12.8849927, "lng": 77.5825935}, "viewport": {"northeast": {"lat": 12.8863508302915, "lng": 77.5839384302915}, "southwest": {"lat": 12.8836528697085, "lng": 77.58124046970849}}}, "opening_hours": {"open_now": true}, "place_id": "ChIJEaE5UkgVrjsRwxKAVYwwBY8", "plus_code": {"global_code": "7J4VVHMM+X2", "compound_code": "VHMM+X2 Bengaluru, Karnataka, India"}, "vicinity": "4th Main Road, Santrupthi Nagar, Sankranthi Layout, Bengaluru", "scope": "GOOGLE", "business_status": "OPERATIONAL", "types": ["supermarket", "grocery_or_supermarket", "food", "point_of_interest", "store", "establishment"], "icon": "https://maps.gstatic.com/mapfiles/place_api/icons/v1/png_71/shopping-71.png"}, {"name": "Grey brick", "reference": "ChIJTaou-cUVrjsRh2iWtrhGcHs", "geometry": {"location": {"lat": 12.8950878, "lng": 77.5818505}, "viewport": {"northeast": {"lat": 12.8964085802915, "lng": 77.58319923029151}, "southwest": {"lat": 12.8937106197085, "lng": 77.58050126970849}}}, "place_id": "ChIJTaou-cUVrjsRh2iWtrhGcHs", "plus_code": {"global_code": "7J4VVHWJ+2P", "compound_code": "VHWJ+2P Bengaluru, Karnataka, India"}, "vicinity": "12, 12th Main Road, Jagruthi Colony, Puttenahalli, Phase 7, J. P. Nagar, Bengaluru", "scope": "GOOGLE", "business_status": "OPERATIONAL", "types": ["supermarket", "grocery_or_supermarket", "food", "point_of_interest", "store", "establishment"], "icon": "https://maps.gstatic.com/mapfiles/place_api/icons/v1/png_71/shopping-71.png"}, {"rating": 4, "user_ratings_total": 308, "name": "Fresh & More Supermarket", "reference": "ChIJkzlr0yIVrjsRkVsBuRnURHs", "geometry": {"location": {"lat": 12.8971316, "lng": 77.5963635}, "viewport": {"northeast": {"lat": 12.8984738802915, "lng": 77.5977360802915}, "southwest": {"lat": 12.8957759197085, "lng": 77.59503811970849}}}, "opening_hours": {"open_now": true}, "place_id": "ChIJkzlr0yIVrjsRkVsBuRnURHs", "plus_code": {"global_code": "7J4VVHWW+VG", "compound_code": "VHWW+VG Bengaluru, Karnataka, India"}, "vicinity": "57-58, Vinayaka Arcade, Apollo Hospital Road, 3rd Cross Road, Venkatadri Layout, Sahyadri Layout, Panduranga Nagar, Bengaluru", "photos": [{"photo_reference": "ATtYBwKeHRq9hdkXp17zhRAljDsXHjLALtk7L2PFsrk9ja_X0pFQFgvtzD7e2vpw6l3HGEbX8d6XQwxIhsjU5F8Akfb3Dwewrc9YZDo1SyXaHh_Q5n_hBp4uh_8CzwXozewjoW-Y4GolSByDn7nDGl9nwhs-110NqSBfvNYvalVNmCSLXzE0", "width": 2592, "html_attributions": ["<a href=\"https://maps.google.com/maps/contrib/105311324275952178350\">Eldho George</a>"], "height": 4608}], "scope": "GOOGLE", "business_status": "OPERATIONAL", "types": ["supermarket", "grocery_or_supermarket", "food", "point_of_interest", "store", "establishment"], "icon": "https://maps.gstatic.com/mapfiles/place_api/icons/v1/png_71/shopping-71.png"}, {"name": "Bhaskar property", "reference": "ChIJsxRkrmYVrjsRSdV1cxGVImc", "geometry": {"location": {"lat": 12.8919894, "lng": 77.5804931}, "viewport": {"northeast": {"lat": 12.8933857802915, "lng": 77.5818366802915}, "southwest": {"lat": 12.8906878197085, "lng": 77.5791387197085}}}, "place_id": "ChIJsxRkrmYVrjsRSdV1cxGVImc", "plus_code": {"global_code": "7J4VVHRJ+Q5", "compound_code": "VHRJ+Q5 Bengaluru, Karnataka, India"}, "vicinity": "651, RBI Layout, Phase 7, J. P. Nagar, Bengaluru", "scope": "GOOGLE", "business_status": "OPERATIONAL", "types": ["supermarket", "grocery_or_supermarket", "food", "point_of_interest", "store", "establishment"], "icon": "https://maps.gstatic.com/mapfiles/place_api/icons/v1/png_71/shopping-71.png"}, {"rating": 3.3, "user_ratings_total": 3, "name": "KB's Fair Price", "reference": "ChIJLTPDvCUVrjsR3Ge6mmg8C8c", "geometry": {"location": {"lat": 12.89, "lng": 77.599983}, "viewport": {"northeast": {"lat": 12.8913555802915, "lng": 77.6013344302915}, "southwest": {"lat": 12.8886576197085, "lng": 77.5986364697085}}}, "opening_hours": {"open_now": true}, "place_id": "ChIJLTPDvCUVrjsR3Ge6mmg8C8c", "plus_code": {"global_code": "7J4VVHRX+2X", "compound_code": "VHRX+2X Bengaluru, Karnataka, India"}, "vicinity": "57th Cross, 12th Main, N S Palya, Near-Airtel Office, Btm Layout 2nd Stage, Bengaluru", "scope": "GOOGLE", "business_status": "OPERATIONAL", "types": ["supermarket", "grocery_or_supermarket", "food", "point_of_interest", "store", "establishment"], "icon": "https://maps.gstatic.com/mapfiles/place_api/icons/v1/png_71/shopping-71.png"}, {"rating": 4.6, "user_ratings_total": 23, "name": "Everfine supermarket", "reference": "ChIJAzByt5IVrjsRqYhyf2s-hJE", "geometry": {"location": {"lat": 12.8919375, "lng": 77.5800524}, "viewport": {"northeast": {"lat": 12.8933255302915, "lng": 77.5813941302915}, "southwest": {"lat": 12.8906275697085, "lng": 77.5786961697085}}}, "opening_hours": {"open_now": true}, "place_id": "ChIJAzByt5IVrjsRqYhyf2s-hJE", "plus_code": {"global_code": "7J4VVHRJ+Q2", "compound_code": "VHRJ+Q2 Bengaluru, Karnataka, India"}, "vicinity": "RBI Layout, Phase 7, J. P. Nagar, Bengaluru", "photos": [{"photo_reference": "ATtYBwIMlMNJPd7sEFABhdgeEbHGr_JsoCg9bhIIjyDsIkHOTvcXjLLZ13ByCC928EwAJfTwZOQmu7axnm6_KES5sw_wk9I__cGbyv8G9qbo7GTsqDh_r-psxmzilagKkkBXPtMQPQIENV2bRJypjxqz4f9Tf2y-lrtdEJVG62RKe4NnWJqb", "width": 1920, "html_attributions": ["<a href=\"https://maps.google.com/maps/contrib/113812637086119197278\">Jabir Ps</a>"], "height": 1080}], "scope": "GOOGLE", "business_status": "OPERATIONAL", "types": ["supermarket", "grocery_or_supermarket", "food", "point_of_interest", "store", "establishment"], "icon": "https://maps.gstatic.com/mapfiles/place_api/icons/v1/png_71/shopping-71.png"}, {"name": "Behtar Enabled Puttenahalli", "reference": "ChIJadNsHrgVrjsRPJvC3ZDozao", "geometry": {"location": {"lat": 12.8973955, "lng": 77.5832547}, "viewport": {"northeast": {"lat": 12.8987463802915, "lng": 77.5845718302915}, "southwest": {"lat": 12.8960484197085, "lng": 77.58187386970849}}}, "place_id": "ChIJadNsHrgVrjsRPJvC3ZDozao", "plus_code": {"global_code": "7J4VVHWM+X8", "compound_code": "VHWM+X8 Bengaluru, Karnataka, India"}, "vicinity": "12, 2nd Main Road, BOB Colony, Phase 7, Arekere, Bengaluru", "scope": "GOOGLE", "business_status": "OPERATIONAL", "types": ["supermarket", "grocery_or_supermarket", "food", "point_of_interest", "store", "establishment"], "icon": "https://maps.gstatic.com/mapfiles/place_api/icons/v1/png_71/shopping-71.png"}, {"rating": 4.3, "user_ratings_total": 102, "name": "Hulimavu Arch", "reference": "ChIJtfdREVoVrjsRjoOacRoK-fM", "geometry": {"location": {"lat": 12.8815519, "lng": 77.5961112}, "viewport": {"northeast": {"lat": 12.8828960302915, "lng": 77.5974431302915}, "southwest": {"lat": 12.8801980697085, "lng": 77.59474516970849}}}, "place_id": "ChIJtfdREVoVrjsRjoOacRoK-fM", "plus_code": {"global_code": "7J4VVHJW+JC", "compound_code": "VHJW+JC Bengaluru, Karnataka, India"}, "vicinity": "Pai Layout, Hulimavu, Bengaluru", "photos": [{"photo_reference": "ATtYBwJHf_OAu2OQCLDK0_EIlKWAY8EnEGE1y3OhAC0vgSmXgE6dqZSfOU2sW8iPJ86cwMzKdhfTv3EtGznlEkjSF_PQIC3xudfYexmYMtrzKc2njE5gxd6mOtVx_uFcuATkxMlrsLk_WMjKHJPKZaVvqO-PNZcIHvJHVSRJfMfwdLA1bwyR", "width": 3000, "html_attributions": ["<a href=\"https://maps.google.com/maps/contrib/114854111944585543082\">Raghuveer E</a>"], "height": 4000}], "scope": "GOOGLE", "business_status": "OPERATIONAL", "types": ["supermarket", "grocery_or_supermarket", "food", "point_of_interest", "store", "establishment"], "icon": "https://maps.gstatic.com/mapfiles/place_api/icons/v1/png_71/shopping-71.png"}, {"name": "A.1 Margin Less Super Market", "reference": "ChIJpQbuEEoVrjsRF9hLsMH48n0", "geometry": {"location": {"lat": 12.881143, "lng": 77.5839511}, "viewport": {"northeast": {"lat": 12.8824739802915, "lng": 77.5852367302915}, "southwest": {"lat": 12.8797760197085, "lng": 77.58253876970849}}}, "opening_hours": {"open_now": true}, "place_id": "ChIJpQbuEEoVrjsRF9hLsMH48n0", "plus_code": {"global_code": "7J4VVHJM+FH", "compound_code": "VHJM+FH J. P. Nagar, Bengaluru, Karnataka, India"}, "vicinity": "opp. Laxmi Super Blocks, No.6 , Gowtham Layout, opp. Laxmi Super Blocks, Kothanuru Dinne Main Road, 8th Phase, J. P. Nagar", "photos": [{"photo_reference": "ATtYBwJeuSLUPIT6ENAuzVutw_GbcG929WOIOAuJ76mhkqSpEdndx-W0BR_gFisa_yl5MkswDYdwsv1xIYZm9DEe4IeJIFYCKFf0d97vwU4Y9pb2vaXBs6T2rRaja4W6ZxEYwl1f5wxaOrRcYVw2hxJuOndhovFTGNWk1sc_H4roW-QlpP6z", "width": 1296, "html_attributions": ["<a href=\"https://maps.google.com/maps/contrib/117620730358679778159\">Sonu Kapasia</a>"], "height": 728}], "scope": "GOOGLE", "business_status": "OPERATIONAL", "types": ["supermarket", "grocery_or_supermarket", "food", "point_of_interest", "store", "establishment"], "icon": "https://maps.gstatic.com/mapfiles/place_api/icons/v1/png_71/shopping-71.png"}, {"rating": 4, "user_ratings_total": 8, "name": "Anashwara Dept Store", "reference": "ChIJoUqqPxYVrjsRW5ajq_JKs2o", "geometry": {"location": {"lat": 12.9005413, "lng": 77.5920414}, "viewport": {"northeast": {"lat": 12.9018884802915, "lng": 77.5933675802915}, "southwest": {"lat": 12.8991905197085, "lng": 77.59066961970849}}}, "opening_hours": {"open_now": true}, "place_id": "ChIJoUqqPxYVrjsRW5ajq_JKs2o", "plus_code": {"global_code": "7J4VWH2R+6R", "compound_code": "WH2R+6R Bengaluru, Karnataka, India"}, "vicinity": "17th Cross Road, 15th Main Road, 5th Phase, Nanjundeswara Layout, J P Nagar Phase 5, J. P. Nagar, Bengaluru", "photos": [{"photo_reference": "ATtYBwLke66fRgAZPQH3osVp7sl2RtTFKJOPvhl35zhLiEtznFl6sAUquifJbb4PGExbHhfDrFDruvMvbiBtL3FNab_vxZtUKr6t4ixV9kZlSNVct1-zeX62Wvk6-mhFdKWdSB3Im-8hyqcEW6GxvYwEfUBnlvtrqhXJCHf_hH-vJCzrnrAI", "width": 1920, "html_attributions": ["<a href=\"https://maps.google.com/maps/contrib/117129999578886115761\">Vinod V</a>"], "height": 1080}], "scope": "GOOGLE", "business_status": "OPERATIONAL", "types": ["supermarket", "grocery_or_supermarket", "food", "point_of_interest", "store", "establishment"], "icon": "https://maps.gstatic.com/mapfiles/place_api/icons/v1/png_71/shopping-71.png"}, {"rating": 4, "user_ratings_total": 1, "name": "Nethra Super Retail Pvt Ltd", "reference": "ChIJG-Zu8i0VrjsRBzFAiP7u-bU", "geometry": {"location": {"lat": 12.8814, "lng": 77.596983}, "viewport": {"northeast": {"lat": 12.8827444802915, "lng": 77.5983488302915}, "southwest": {"lat": 12.8800465197085, "lng": 77.59565086970849}}}, "place_id": "ChIJG-Zu8i0VrjsRBzFAiP7u-bU", "plus_code": {"global_code": "7J4VVHJW+HQ", "compound_code": "VHJW+HQ Bengaluru, Karnataka, India"}, "vicinity": "889, Hulimavu Main Road, Near-Ambedkar Bhavan, Bannerghatta Main Road, Bengaluru", "scope": "GOOGLE", "business_status": "OPERATIONAL", "types": ["supermarket", "grocery_or_supermarket", "food", "point_of_interest", "store", "establishment"], "icon": "https://maps.gstatic.com/mapfiles/place_api/icons/v1/png_71/shopping-71.png"}, {"rating": 3.9, "user_ratings_total": 21, "name": "Mamata Market", "reference": "ChIJuc82uRYVrjsR7mXRVX_i-BQ", "geometry": {"location": {"lat": 12.901129, "lng": 77.5908943}, "viewport": {"northeast": {"lat": 12.9025130802915, "lng": 77.59222638029149}, "southwest": {"lat": 12.8998151197085, "lng": 77.58952841970849}}}, "opening_hours": {"open_now": true}, "place_id": "ChIJuc82uRYVrjsR7mXRVX_i-BQ", "plus_code": {"global_code": "7J4VWH2R+F9", "compound_code": "WH2R+F9 Bengaluru, Karnataka, India"}, "vicinity": "No.38,, 15th Main,, 17th Cross,, J P Nagar 5th Phase,, Bengaluru", "photos": [{"photo_reference": "ATtYBwLWvSL41591jvndgV6nF-vNbdpDnmWb8dFEFeUdpBywFhvFcervS0H6WjO8tibyO8ndDQBgBFeOiYt0bzKeZMzio0PN006_64C-QQkeIIHVHRM5BXdhf4G5fV2SKx6se2RWapE8YUM_VuBFgyOJvjAwM6gDvKqJRHLFgrK2mFYF5z1z", "width": 720, "html_attributions": ["<a href=\"https://maps.google.com/maps/contrib/115548761449758480572\">Mahendra Patel</a>"], "height": 1280}], "scope": "GOOGLE", "business_status": "OPERATIONAL", "types": ["supermarket", "grocery_or_supermarket", "food", "point_of_interest", "store", "establishment"], "icon": "https://maps.gstatic.com/mapfiles/place_api/icons/v1/png_71/shopping-71.png"}, {"rating": 4.6, "user_ratings_total": 5, "name": "Om Shakthi Provision Store", "reference": "ChIJQyN48S4VrjsRqrlDHOJ8xCs", "geometry": {"location": {"lat": 12.9006031, "lng": 77.58475179999999}, "viewport": {"northeast": {"lat": 12.9019539802915, "lng": 77.5861489302915}, "southwest": {"lat": 12.8992560197085, "lng": 77.5834509697085}}}, "opening_hours": {"open_now": true}, "place_id": "ChIJQyN48S4VrjsRqrlDHOJ8xCs", "plus_code": {"global_code": "7J4VWH2M+6W", "compound_code": "WH2M+6W Bengaluru, Karnataka, India"}, "vicinity": "#20 a/4 annaiah reddy layout 18th cross, 26th Main Road, 6th Phase, J. P. Nagar, Bengaluru", "photos": [{"photo_reference": "ATtYBwII7vy5d3gygS--dCbqRCa1viB-lQjRdIte6Dx9RYuikbgOdcwCr9dOgGUs57ffIJWukXOKJlWRyCcAViprJWhzI4YATZzN8nBHSsTBZzGNKShF0uLM1TqHbE5GkZDKT4ljyRmLYKq6E2kCsu5D4eMeNpSe4NBz6kJYrSw24vrJUzI8", "width": 3456, "html_attributions": ["<a href=\"https://maps.google.com/maps/contrib/103387154675344705060\">chethan reddy</a>"], "height": 4608}], "scope": "GOOGLE", "business_status": "OPERATIONAL", "types": ["supermarket", "grocery_or_supermarket", "food", "point_of_interest", "store", "establishment"], "icon": "https://maps.gstatic.com/mapfiles/place_api/icons/v1/png_71/shopping-71.png"}, {"rating": 4, "user_ratings_total": 1598, "name": "E K Retail J.P Nagar", "reference": "ChIJg5rVFEQVrjsRYrW9W3IJGmw", "geometry": {"location": {"lat": 12.89174, "lng": 77.577679}, "viewport": {"northeast": {"lat": 12.8930482302915, "lng": 77.5790333802915}, "southwest": {"lat": 12.8903502697085, "lng": 77.5763354197085}}}, "opening_hours": {"open_now": true}, "place_id": "ChIJg5rVFEQVrjsRYrW9W3IJGmw", "plus_code": {"global_code": "7J4VVHRH+M3", "compound_code": "VHRH+M3 Bengaluru, Karnataka, India"}, "vicinity": "Shop No: 5, Eshwari Capital, 1st main road, 7th Phase, Puttenahalli, JP Nagar, RBI Layout, Bengaluru", "photos": [{"photo_reference": "ATtYBwKw7SjAwMF1MtnvNlqKD1Asb13KPSWMf6NdznKJHszR3TQBFGEEmeZ5mEG0gaoP4Vc0JNhVAJmC77O-O4YzSfSLOnTSLVS4mY4l-wJUNGEBGiJJoj8f1KVSQV3qJjqg0e9uh7fo7qe40R2ZBRv_MFxaQmxu11NIaHqzLr0BeYXtLyno", "width": 2340, "html_attributions": ["<a href=\"https://maps.google.com/maps/contrib/109428708140243529625\">Rudappa Mirekar</a>"], "height": 4160}], "scope": "GOOGLE", "business_status": "OPERATIONAL", "types": ["supermarket", "grocery_or_supermarket", "food", "point_of_interest", "store", "establishment"], "icon": "https://maps.gstatic.com/mapfiles/place_api/icons/v1/png_71/shopping-71.png"}, {"rating": 4.1, "user_ratings_total": 528, "name": "Vishal Mega Mart", "reference": "ChIJKWNIEzAVrjsRYN6Z7ZSJSdw", "geometry": {"location": {"lat": 12.8975231, "lng": 77.5999214}, "viewport": {"northeast": {"lat": 12.8988515302915, "lng": 77.6013275302915}, "southwest": {"lat": 12.8961535697085, "lng": 77.59862956970849}}}, "opening_hours": {"open_now": true}, "place_id": "ChIJKWNIEzAVrjsRYN6Z7ZSJSdw", "plus_code": {"global_code": "7J4VVHXX+2X", "compound_code": "VHXX+2X Bengaluru, Karnataka, India"}, "vicinity": "opposite IIM, Bannerghatta Main Road, Bengaluru", "photos": [{"photo_reference": "ATtYBwI20d_h7Tex8c6aPeSMpJEpAht2QbXR3BCtcvu5CpzB8Ppnwm2xOWGL5oRCv14Iqzj0xjOWhPKmVFEPFdW_6LLNftDfni2_wttjAVN2kcXlIjp0oIfbwBztV-kDZH39MFFKJU2yuNu03ltH12iYR8sBr8qTJYyV9neN_tXibuN-KppT", "width": 1519, "html_attributions": ["<a href=\"https://maps.google.com/maps/contrib/108733996623557775755\">Vishal Mega Mart</a>"], "height": 815}], "scope": "GOOGLE", "business_status": "OPERATIONAL", "types": ["supermarket", "grocery_or_supermarket", "food", "point_of_interest", "store", "establishment"], "icon": "https://maps.gstatic.com/mapfiles/place_api/icons/v1/png_71/shopping-71.png"}]}