{"status": "OK", "html_attributions": [], "results": [{"rating": 5, "user_ratings_total": 3, "name": "Deepti Interiors", "reference": "ChIJAYLGoDprrjsRhQqklXH0zl8", "geometry": {"location": {"lat": 12.8666442, "lng": 77.62037629999999}, "viewport": {"northeast": {"lat": 12.8680250302915, "lng": 77.6216733802915}, "southwest": {"lat": 12.8653270697085, "lng": 77.61897541970849}}}, "place_id": "ChIJAYLGoDprrjsRhQqklXH0zl8", "plus_code": {"global_code": "7J4VVJ8C+M5", "compound_code": "VJ8C+M5 Bengaluru, Karnataka, India"}, "vicinity": "Koppa Road, Suraksha nagar, Yelenahalli, Begur, Bengaluru", "photos": [{"photo_reference": "ATtYBwKrZAgtAtFd7J2zK_a0xddtr9SdgKZutWLwv3DKat48k9HAvaysmkXm5qZigzFmB767AYGJiLbkW_iixvReFGfsTejeylvwbKvaXEc9sHoBv65nj5apVXpU2W5WBt82ka845JzoZwfgnv3jX8sPA7SWrteqxiXw1tKv6P_yK0aK7A-L", "width": 480, "html_attributions": ["<a href=\"https://maps.google.com/maps/contrib/107101605011885271125\">Madhu Madhu</a>"], "height": 480}], "scope": "GOOGLE", "business_status": "OPERATIONAL", "types": ["supermarket", "grocery_or_supermarket", "food", "point_of_interest", "store", "establishment"], "icon": "https://maps.gstatic.com/mapfiles/place_api/icons/v1/png_71/shopping-71.png"}, {"rating": 4.3, "user_ratings_total": 4, "name": "neeladri fresh", "reference": "ChIJbcjlQCFrrjsRHRGvB4u2Uu8", "geometry": {"location": {"lat": 12.8595461, "lng": 77.6122264}, "viewport": {"northeast": {"lat": 12.8608757302915, "lng": 77.6136109302915}, "southwest": {"lat": 12.8581777697085, "lng": 77.6109129697085}}}, "opening_hours": {"open_now": true}, "place_id": "ChIJbcjlQCFrrjsRHRGvB4u2Uu8", "plus_code": {"global_code": "7J4VVJ56+RV", "compound_code": "VJ56+RV Bengaluru, Karnataka, India"}, "vicinity": "560068, Akshaya Vana, Akshayanagar, Bengaluru", "scope": "GOOGLE", "business_status": "OPERATIONAL", "types": ["supermarket", "grocery_or_supermarket", "food", "point_of_interest", "store", "establishment"], "icon": "https://maps.gstatic.com/mapfiles/place_api/icons/v1/png_71/shopping-71.png"}, {"rating": 4.5, "user_ratings_total": 19, "name": "A-M Super Mart", "reference": "ChIJJRdhbBNrrjsRac4R5NcLRsI", "geometry": {"location": {"lat": 12.8613824, "lng": 77.60248539999999}, "viewport": {"northeast": {"lat": 12.8627292802915, "lng": 77.6038341802915}, "southwest": {"lat": 12.8600313197085, "lng": 77.6011362197085}}}, "opening_hours": {"open_now": true}, "place_id": "ChIJJRdhbBNrrjsRac4R5NcLRsI", "plus_code": {"global_code": "7J4VVJ62+HX", "compound_code": "VJ62+HX Bengaluru, Karnataka, India"}, "vicinity": "Tejaswini Nagar, Bengaluru", "photos": [{"photo_reference": "ATtYBwIDraivEGza-S8Cv06hpDB_BpvV22l4glEGPQ8rdDw1_mlGvSBvBSApOOLsfYqYoCorxuJsacbl_LgbxrAsMeth-28L-nbCwf2hGd8fJOB-Eogr5QH9QSX_2PTpropB_utWMquy_w4sAgXOf505oI7D60LfqX_HHymBWP7QAZp7SA8", "width": 1920, "html_attributions": ["<a href=\"https://maps.google.com/maps/contrib/117422636114556576169\">Ramshad Ramshu</a>"], "height": 1080}], "scope": "GOOGLE", "business_status": "OPERATIONAL", "types": ["grocery_or_supermarket", "supermarket", "food", "point_of_interest", "store", "establishment"], "icon": "https://maps.gstatic.com/mapfiles/place_api/icons/v1/png_71/shopping-71.png"}]}