{"status": "OK", "html_attributions": [], "results": [{"rating": 4, "user_ratings_total": 2, "name": "KSKS SUPERMARKET", "reference": "ChIJQ0QmPRgVrjsRPXDjEDasN8g", "geometry": {"location": {"lat": 12.8920319, "lng": 77.6359733}, "viewport": {"northeast": {"lat": 12.8934324302915, "lng": 77.6373252802915}, "southwest": {"lat": 12.8907344697085, "lng": 77.6346273197085}}}, "opening_hours": {"open_now": true}, "place_id": "ChIJQ0QmPRgVrjsRPXDjEDasN8g", "plus_code": {"global_code": "7J4VVJRP+R9", "compound_code": "VJRP+R9 Bengaluru, Karnataka, India"}, "vicinity": "flat no:301 3rd floor,6 th cross, Munireddy Layout, Garebhavipalya, Garvebhavi Palya, Bengaluru", "scope": "GOOGLE", "business_status": "OPERATIONAL", "types": ["supermarket", "grocery_or_supermarket", "food", "point_of_interest", "store", "establishment"], "icon": "https://maps.gstatic.com/mapfiles/place_api/icons/v1/png_71/shopping-71.png"}, {"rating": 3.3, "user_ratings_total": 3, "name": "chiru pravison store", "reference": "ChIJU8Hb5pQVrjsRf6xBjTTb8Hg", "geometry": {"location": {"lat": 12.8963607, "lng": 77.6295343}, "viewport": {"northeast": {"lat": 12.8977160802915, "lng": 77.6308918802915}, "southwest": {"lat": 12.8950181197085, "lng": 77.6281939197085}}}, "opening_hours": {"open_now": true}, "place_id": "ChIJU8Hb5pQVrjsRf6xBjTTb8Hg", "plus_code": {"global_code": "7J4VVJWH+GR", "compound_code": "VJWH+GR Bengaluru, Karnataka, India"}, "vicinity": "90, 3rd Cross Road, Hongasandra, Bengaluru", "photos": [{"photo_reference": "ATtYBwJGZxCFZyIXfLvtgZdvueLeAJQecdHRhW9auBopHywBEtoIP_EwycOfzuWcK5iyR7YBmDCpN0RRXCd0or4G4OBJWO-8TC2_1Zm4dctCaWAsDOq-oUJ1OLbPExvHicObL6h5qPoA7lmJ6NQNW-oEpAphl_htUcumqvGDG2OdARbpkdFY", "width": 1080, "html_attributions": ["<a href=\"https://maps.google.com/maps/contrib/116497863401557065876\">KUMAR KN Kumar</a>"], "height": 1920}], "scope": "GOOGLE", "business_status": "OPERATIONAL", "types": ["supermarket", "grocery_or_supermarket", "food", "point_of_interest", "store", "establishment"], "icon": "https://maps.gstatic.com/mapfiles/place_api/icons/v1/png_71/shopping-71.png"}, {"rating": 4.3, "user_ratings_total": 6, "name": "Sri Lakshmi Venkateshwara Rice Traders(Wholesale)", "reference": "ChIJn1UGOLkUrjsROu1OmU2LaeA", "geometry": {"location": {"lat": 12.894947, "lng": 77.634986}, "viewport": {"northeast": {"lat": 12.8962895302915, "lng": 77.6363370802915}, "southwest": {"lat": 12.8935915697085, "lng": 77.63363911970849}}}, "opening_hours": {"open_now": true}, "place_id": "ChIJn1UGOLkUrjsROu1OmU2LaeA", "plus_code": {"global_code": "7J4VVJVM+XX", "compound_code": "VJVM+XX Bengaluru, Karnataka, India"}, "vicinity": "410, 7th Main 6th Cross, Microlayout, Papannareddy Layout, Garebhavipalya, Garvebhavi Palya, Bengaluru", "photos": [{"photo_reference": "ATtYBwJhpjM8xnhS0AyhXCPA7PK6-1Oss0JVH3r0GN4rZ-q816phOtlKZDzkyUx01H1DRqm-dAf0M8joY1C6QjScYE4UovN9DYHBNDEBGnq9fpQJeZu-3O73DKmic8D0MQAd3ZtKiKzVwvmWLoaVTfbcHfX1S0A9DKpZAlsKJLa6WlZmn_Rx", "width": 4160, "html_attributions": ["<a href=\"https://maps.google.com/maps/contrib/112010452337639748442\">Prathap Reddy</a>"], "height": 2340}], "scope": "GOOGLE", "business_status": "OPERATIONAL", "types": ["supermarket", "grocery_or_supermarket", "food", "point_of_interest", "store", "establishment"], "icon": "https://maps.gstatic.com/mapfiles/place_api/icons/v1/png_71/shopping-71.png"}, {"rating": 4, "user_ratings_total": 1, "name": "Sindhu Kirana", "reference": "ChIJO2CYLHQVrjsRsWPOUj9sq2Q", "geometry": {"location": {"lat": 12.8946808, "lng": 77.6243326}, "viewport": {"northeast": {"lat": 12.8960312302915, "lng": 77.6256728802915}, "southwest": {"lat": 12.8933332697085, "lng": 77.62297491970848}}}, "place_id": "ChIJO2CYLHQVrjsRsWPOUj9sq2Q", "plus_code": {"global_code": "7J4VVJVF+VP", "compound_code": "VJVF+VP Bengaluru, Karnataka, India"}, "vicinity": "328, 8th B Cross Rd, SR Naidu Layout, Hongasandra, Bengaluru", "photos": [{"photo_reference": "ATtYBwKWQV0WHW_kwovCTa2nSvDSNCkRZ4AjMSQuHogIy3bSJHdhvQO2T7ObiShNRmnRsWWxe48vRPUzYm3i6psNtRiSHBj-leSp1_jXXpzWERoy4AL8SiVtWn6joxkrOG8c5RaJ5I0rDl_ZSnt_bjWEAA5KEjGRbGM1gNsbEpdUwcUlOdtG", "width": 4032, "html_attributions": ["<a href=\"https://maps.google.com/maps/contrib/101213381934842125336\">Nakul Jaju</a>"], "height": 2268}], "scope": "GOOGLE", "business_status": "OPERATIONAL", "types": ["supermarket", "grocery_or_supermarket", "food", "point_of_interest", "store", "establishment"], "icon": "https://maps.gstatic.com/mapfiles/place_api/icons/v1/png_71/shopping-71.png"}, {"rating": 3, "user_ratings_total": 1, "name": "Mechanic Shed", "reference": "ChIJNf81hMAUrjsRHoDIQyIMKzc", "geometry": {"location": {"lat": 12.8978405, "lng": 77.63018579999999}, "viewport": {"northeast": {"lat": 12.8992031802915, "lng": 77.6315687302915}, "southwest": {"lat": 12.8965052197085, "lng": 77.6288707697085}}}, "place_id": "ChIJNf81hMAUrjsRHoDIQyIMKzc", "plus_code": {"global_code": "7J4VVJXJ+43", "compound_code": "VJXJ+43 Bengaluru, Karnataka, India"}, "vicinity": "11, 7th Main 6th Cross, Hongasandra, Bengaluru", "scope": "GOOGLE", "business_status": "OPERATIONAL", "types": ["supermarket", "grocery_or_supermarket", "food", "point_of_interest", "store", "establishment"], "icon": "https://maps.gstatic.com/mapfiles/place_api/icons/v1/png_71/shopping-71.png"}, {"rating": 3.5, "user_ratings_total": 2, "name": "Behtar Enabled Hongasandra", "reference": "ChIJD3OIe3UVrjsRzgMmlXTbi80", "geometry": {"location": {"lat": 12.8984082, "lng": 77.63003119999999}, "viewport": {"northeast": {"lat": 12.8997536802915, "lng": 77.63136833029151}, "southwest": {"lat": 12.8970557197085, "lng": 77.62867036970849}}}, "place_id": "ChIJD3OIe3UVrjsRzgMmlXTbi80", "plus_code": {"global_code": "7J4VVJXJ+92", "compound_code": "VJXJ+92 Bengaluru, Karnataka, India"}, "vicinity": "Hongasandra, Bengaluru", "scope": "GOOGLE", "business_status": "OPERATIONAL", "types": ["supermarket", "grocery_or_supermarket", "food", "point_of_interest", "store", "establishment"], "icon": "https://maps.gstatic.com/mapfiles/place_api/icons/v1/png_71/shopping-71.png"}, {"rating": 3.7, "user_ratings_total": 1217, "name": "Reliance Fresh", "reference": "ChIJ5WijPscUrjsR50BEpDgUeLg", "geometry": {"location": {"lat": 12.8986206, "lng": 77.6266648}, "viewport": {"northeast": {"lat": 12.8999863302915, "lng": 77.62794773029151}, "southwest": {"lat": 12.8972883697085, "lng": 77.6252497697085}}}, "opening_hours": {"open_now": true}, "place_id": "ChIJ5WijPscUrjsR50BEpDgUeLg", "plus_code": {"global_code": "7J4VVJXG+CM", "compound_code": "VJXG+CM Bengaluru, Karnataka, India"}, "vicinity": "Bommanahalli Cmc Khata No.3/3 Hongasandra Village Begur, Uttarahalli Hobli, Bengaluru", "photos": [{"photo_reference": "ATtYBwIn8FuEDtturj6t626Uf2FWw6TiFor7VBvweNLJ7HOJgnUb8ljYbtKunkDbblwdJH4IO6H7dYz4iiy_DJm6DFmM1hG6yo5mKGVOISVCDputlktBt1iVYLgR6WgQOysBpHtoagmU-iCG7_LzXkpFYc5FBOi3ZrH8KJDdYEb3DtNLupS6", "width": 4608, "html_attributions": ["<a href=\"https://maps.google.com/maps/contrib/111789318542356437286\">Sai Manoj Kadiyala</a>"], "height": 3456}], "scope": "GOOGLE", "business_status": "OPERATIONAL", "types": ["supermarket", "grocery_or_supermarket", "food", "point_of_interest", "store", "establishment"], "icon": "https://maps.gstatic.com/mapfiles/place_api/icons/v1/png_71/shopping-71.png"}, {"rating": 3.9, "user_ratings_total": 7, "name": "Kalai Departmental Store", "reference": "ChIJm4vBRsAUrjsRvryMNW98uSM", "geometry": {"location": {"lat": 12.8994194, "lng": 77.62884249999999}, "viewport": {"northeast": {"lat": 12.9008413302915, "lng": 77.6302082302915}, "southwest": {"lat": 12.8981433697085, "lng": 77.62751026970848}}}, "opening_hours": {"open_now": true}, "place_id": "ChIJm4vBRsAUrjsRvryMNW98uSM", "plus_code": {"global_code": "7J4VVJXH+QG", "compound_code": "VJXH+QG Bengaluru, Karnataka, India"}, "vicinity": "7th Main 6th Cross, Hongasandra, Bengaluru", "scope": "GOOGLE", "business_status": "OPERATIONAL", "types": ["supermarket", "grocery_or_supermarket", "food", "point_of_interest", "store", "establishment"], "icon": "https://maps.gstatic.com/mapfiles/place_api/icons/v1/png_71/shopping-71.png"}, {"rating": 4.8, "user_ratings_total": 4, "name": "Sri Nanjundeshwara Provision And Condiments", "reference": "ChIJPxLyucEUrjsRjqxpz0QuKek", "geometry": {"location": {"lat": 12.8992376, "lng": 77.6270511}, "viewport": {"northeast": {"lat": 12.9005728802915, "lng": 77.6283970802915}, "southwest": {"lat": 12.8978749197085, "lng": 77.62569911970849}}}, "opening_hours": {"open_now": true}, "place_id": "ChIJPxLyucEUrjsRjqxpz0QuKek", "plus_code": {"global_code": "7J4VVJXG+MR", "compound_code": "VJXG+MR Bengaluru, Karnataka, India"}, "vicinity": "Comfort Couch, Bommanahalli Underpass, Bommanahalli, Bengaluru", "photos": [{"photo_reference": "ATtYBwITzvIF8NXV-OC6f9Z-6s_zutcBpSmGrgy_bnI9sx5C3LNM3vobhWg8_fa5tBmLt_MQDtfhLtHrwvQxBxZWU26q3HWf4B9QxRGL1wGXVaUnyYyav3y5CqoCtAje0vQx3-0cyeLRKIcX9EocPLfVarJhfIy8YV2th37zswU-NQngGdgV", "width": 4160, "html_attributions": ["<a href=\"https://maps.google.com/maps/contrib/104986453039768332561\">prasad r</a>"], "height": 3120}], "scope": "GOOGLE", "business_status": "OPERATIONAL", "types": ["supermarket", "grocery_or_supermarket", "food", "point_of_interest", "store", "establishment"], "icon": "https://maps.gstatic.com/mapfiles/place_api/icons/v1/png_71/shopping-71.png"}, {"name": "Ram Gopal Interiors", "reference": "ChIJCahFsJEVrjsRpKue5sfXQs0", "geometry": {"location": {"lat": 12.8892684, "lng": 77.63991}, "viewport": {"northeast": {"lat": 12.8906176802915, "lng": 77.64125943029151}, "southwest": {"lat": 12.8879197197085, "lng": 77.6385614697085}}}, "place_id": "ChIJCahFsJEVrjsRpKue5sfXQs0", "plus_code": {"global_code": "7J4VVJQQ+PX", "compound_code": "VJQQ+PX Bengaluru, Karnataka, India"}, "vicinity": "Karnataka", "scope": "GOOGLE", "business_status": "OPERATIONAL", "types": ["supermarket", "grocery_or_supermarket", "food", "point_of_interest", "store", "establishment"], "icon": "https://maps.gstatic.com/mapfiles/place_api/icons/v1/png_71/shopping-71.png"}, {"rating": 5, "user_ratings_total": 1, "name": "Ramesh Mk", "reference": "ChIJUeP9OsUUrjsReFKj4GzMh0o", "geometry": {"location": {"lat": 12.8912949, "lng": 77.62013689999999}, "viewport": {"northeast": {"lat": 12.8926435802915, "lng": 77.62148198029152}, "southwest": {"lat": 12.8899456197085, "lng": 77.6187840197085}}}, "opening_hours": {"open_now": true}, "place_id": "ChIJUeP9OsUUrjsReFKj4GzMh0o", "plus_code": {"global_code": "7J4VVJRC+G3", "compound_code": "VJRC+G3 Bengaluru, Karnataka, India"}, "vicinity": "2# royal shellter.opp.VBR wine palace., Devarachikkana Halli, Bengaluru", "scope": "GOOGLE", "business_status": "OPERATIONAL", "types": ["supermarket", "grocery_or_supermarket", "food", "point_of_interest", "store", "establishment"], "icon": "https://maps.gstatic.com/mapfiles/place_api/icons/v1/png_71/shopping-71.png"}, {"name": "Grocery Provision store", "reference": "ChIJa5T7OsUUrjsRCh3Wa7sikxU", "geometry": {"location": {"lat": 12.891299, "lng": 77.620113}, "viewport": {"northeast": {"lat": 12.8926495802915, "lng": 77.62148148029151}, "southwest": {"lat": 12.8899516197085, "lng": 77.61878351970849}}}, "opening_hours": {"open_now": true}, "place_id": "ChIJa5T7OsUUrjsRCh3Wa7sikxU", "plus_code": {"global_code": "7J4VVJRC+G2", "compound_code": "VJRC+G2 Bengaluru, Karnataka, India"}, "vicinity": "4th, Devarachikkanahalli Main Road, Royal Shelters, Maruthi Layout, Hongasandra, Bengaluru", "scope": "GOOGLE", "business_status": "OPERATIONAL", "types": ["supermarket", "grocery_or_supermarket", "food", "point_of_interest", "store", "establishment"], "icon": "https://maps.gstatic.com/mapfiles/place_api/icons/v1/png_71/shopping-71.png"}, {"name": "Akshya Super Market", "reference": "ChIJpY9Ddc4UrjsRv7mC_qK7xVA", "geometry": {"location": {"lat": 12.8837705, "lng": 77.6207463}, "viewport": {"northeast": {"lat": 12.8851182302915, "lng": 77.6221289802915}, "southwest": {"lat": 12.8824202697085, "lng": 77.6194310197085}}}, "opening_hours": {"open_now": true}, "place_id": "ChIJpY9Ddc4UrjsRv7mC_qK7xVA", "vicinity": "India", "scope": "GOOGLE", "business_status": "OPERATIONAL", "types": ["supermarket", "grocery_or_supermarket", "food", "point_of_interest", "store", "establishment"], "icon": "https://maps.gstatic.com/mapfiles/place_api/icons/v1/png_71/shopping-71.png"}, {"rating": 5, "user_ratings_total": 1, "name": "Mor Aquatic products", "reference": "ChIJtSOe0mkVrjsRmGSZVzy70oA", "geometry": {"location": {"lat": 12.8975323, "lng": 77.62064649999999}, "viewport": {"northeast": {"lat": 12.8988764302915, "lng": 77.62201478029151}, "southwest": {"lat": 12.8961784697085, "lng": 77.61931681970849}}}, "opening_hours": {"open_now": true}, "place_id": "ChIJtSOe0mkVrjsRmGSZVzy70oA", "plus_code": {"global_code": "7J4VVJXC+27", "compound_code": "VJXC+27 Bengaluru, Karnataka, India"}, "vicinity": "Seenappa Layout, Bommanahalli, Bengaluru", "photos": [{"photo_reference": "ATtYBwJXSiBlfcXEJ6AFS7twnbYVuZPXIHrXjjoPguwBaPxhpxa1EALeZEnECgc3tlvUiVnZyEwVc_NEvddoBZw_16IAPi7mBASKTQZyO4Wv1rSLYYs1cWDMUDKWvON-1T0ei6nm3s7mxXoe9VEKkb85-gPB0qr8sRiZjAZxvTrR3OnsBGuF", "width": 3264, "html_attributions": ["<a href=\"https://maps.google.com/maps/contrib/106139531708895210774\">Hirosh Naufal</a>"], "height": 2448}], "scope": "GOOGLE", "business_status": "OPERATIONAL", "types": ["supermarket", "grocery_or_supermarket", "food", "point_of_interest", "store", "establishment"], "icon": "https://maps.gstatic.com/mapfiles/place_api/icons/v1/png_71/shopping-71.png"}, {"name": "Behtar Enabled New Shine Supermarket", "reference": "ChIJeeZIwNgVrjsRsd5-CKIykVI", "geometry": {"location": {"lat": 12.8883956, "lng": 77.61788279999999}, "viewport": {"northeast": {"lat": 12.8897117802915, "lng": 77.6192299802915}, "southwest": {"lat": 12.8870138197085, "lng": 77.61653201970849}}}, "place_id": "ChIJeeZIwNgVrjsRsd5-CKIykVI", "plus_code": {"global_code": "7J4VVJQ9+95", "compound_code": "VJQ9+95 Bengaluru, Karnataka, India"}, "vicinity": "Chamundeshwari Nagar, Stage 4, Bommanahalli, Bengaluru", "scope": "GOOGLE", "business_status": "OPERATIONAL", "types": ["supermarket", "grocery_or_supermarket", "food", "point_of_interest", "store", "establishment"], "icon": "https://maps.gstatic.com/mapfiles/place_api/icons/v1/png_71/shopping-71.png"}, {"name": "Chethana ladies pg", "reference": "ChIJnyluvIgVrjsRZtL8KEMJ4mY", "geometry": {"location": {"lat": 12.8856598, "lng": 77.6415509}, "viewport": {"northeast": {"lat": 12.8869837302915, "lng": 77.6429060302915}, "southwest": {"lat": 12.8842857697085, "lng": 77.64020806970848}}}, "place_id": "ChIJnyluvIgVrjsRZtL8KEMJ4mY", "plus_code": {"global_code": "7J4VVJPR+7J", "compound_code": "VJPR+7J Bengaluru, Karnataka, India"}, "vicinity": "88/3, National Highway 44, Wellington Paradise, Begur, Bengaluru", "scope": "GOOGLE", "business_status": "OPERATIONAL", "types": ["supermarket", "grocery_or_supermarket", "food", "point_of_interest", "store", "establishment"], "icon": "https://maps.gstatic.com/mapfiles/place_api/icons/v1/png_71/shopping-71.png"}, {"rating": 3.5, "user_ratings_total": 10, "name": "Star Market", "reference": "ChIJtxqrrswUrjsRccMcessQcK8", "geometry": {"location": {"lat": 12.8786157, "lng": 77.62460709999999}, "viewport": {"northeast": {"lat": 12.8799665302915, "lng": 77.6259973302915}, "southwest": {"lat": 12.8772685697085, "lng": 77.62329936970849}}}, "opening_hours": {"open_now": true}, "place_id": "ChIJtxqrrswUrjsRccMcessQcK8", "plus_code": {"global_code": "7J4VVJHF+CR", "compound_code": "VJHF+CR Bengaluru, Karnataka, India"}, "vicinity": "Begur Main Road, Classic Paradise Layout, Devarachikkana Halli, Bengaluru", "scope": "GOOGLE", "business_status": "OPERATIONAL", "types": ["supermarket", "grocery_or_supermarket", "food", "point_of_interest", "store", "establishment"], "icon": "https://maps.gstatic.com/mapfiles/place_api/icons/v1/png_71/shopping-71.png"}]}