{"status": "OK", "html_attributions": [], "results": [{"rating": 5, "user_ratings_total": 1, "name": "Blossom Flavours", "reference": "ChIJYewJ5JgarjsRQDAV2807arg", "geometry": {"location": {"lat": 13.071158, "lng": 77.71981699999999}, "viewport": {"northeast": {"lat": 13.0725142802915, "lng": 77.7212295802915}, "southwest": {"lat": 13.0698163197085, "lng": 77.71853161970849}}}, "opening_hours": {"open_now": true}, "place_id": "ChIJYewJ5JgarjsRQDAV2807arg", "vicinity": "29/2, Rc Pura, J C Industrial Estate, Nanjundappa Road, Byappanahalli, Byappanahalli, Bengaluru", "scope": "GOOGLE", "business_status": "OPERATIONAL", "types": ["supermarket", "grocery_or_supermarket", "food", "health", "point_of_interest", "store", "establishment"], "icon": "https://maps.gstatic.com/mapfiles/place_api/icons/v1/png_71/shopping-71.png"}, {"rating": 5, "user_ratings_total": 4, "name": "NANDISH CHICKEN CENTER", "reference": "ChIJ6UkiGLEarjsR4L8o_TnutoQ", "geometry": {"location": {"lat": 13.0799699, "lng": 77.7373114}, "viewport": {"northeast": {"lat": 13.0813032802915, "lng": 77.73869248029149}, "southwest": {"lat": 13.0786053197085, "lng": 77.73599451970848}}}, "opening_hours": {"open_now": true}, "place_id": "ChIJ6UkiGLEarjsR4L8o_TnutoQ", "plus_code": {"global_code": "7J5V3PHP+XW", "compound_code": "3PHP+XW Bengaluru, Karnataka, India"}, "vicinity": "Unnamed Road,, Mandur, Bengaluru", "scope": "GOOGLE", "business_status": "OPERATIONAL", "types": ["supermarket", "grocery_or_supermarket", "food", "point_of_interest", "store", "establishment"], "icon": "https://maps.gstatic.com/mapfiles/place_api/icons/v1/png_71/shopping-71.png"}, {"rating": 3.7, "user_ratings_total": 3064, "name": "Reliance Fresh", "reference": "ChIJl42LkaMarjsRiTqDZImJgKQ", "geometry": {"location": {"lat": 13.07147, "lng": 77.72721899999999}, "viewport": {"northeast": {"lat": 13.0728182802915, "lng": 77.72860013029151}, "southwest": {"lat": 13.0701203197085, "lng": 77.7259021697085}}}, "opening_hours": {"open_now": true}, "place_id": "ChIJl42LkaMarjsRiTqDZImJgKQ", "plus_code": {"global_code": "7J5V3PCG+HV", "compound_code": "3PCG+HV Bengaluru, Karnataka, India"}, "vicinity": "Ward No. 17, Cmc, Cmc No. 7, 5/5, Whitefield Main Road, Whitefield, Bengaluru", "photos": [{"photo_reference": "ATtYBwIdgHRiAdmvVD0t8x4ye_Q6oLlv6lrSHeem78If9BNqsRyQF3oc85xXM34vHQolLrQG8a9yotJklb-HWeqyUNlSleoaRkFNFjRsqgyTJcmo9dlC2iPF9HdSDM-zrfGfx9MmAjLxCFw8XwDF-X4oa2DvJgWYdoz_a3WqZfIkVNa8hlpv", "width": 4032, "html_attributions": ["<a href=\"https://maps.google.com/maps/contrib/101824667076153035665\">elvis fernandes</a>"], "height": 3024}], "scope": "GOOGLE", "business_status": "OPERATIONAL", "types": ["supermarket", "grocery_or_supermarket", "food", "point_of_interest", "store", "establishment"], "icon": "https://maps.gstatic.com/mapfiles/place_api/icons/v1/png_71/shopping-71.png"}, {"rating": 5, "user_ratings_total": 2, "name": "KWALITY WALL'S-GRAND PLUS HYPER MARKET", "reference": "ChIJ1XbaKkARrjsREhnmo0dC_Mg", "geometry": {"location": {"lat": 13.0630431, "lng": 77.7403336}, "viewport": {"northeast": {"lat": 13.0643110802915, "lng": 77.7415768802915}, "southwest": {"lat": 13.0616131197085, "lng": 77.7388789197085}}}, "place_id": "ChIJ1XbaKkARrjsREhnmo0dC_Mg", "plus_code": {"global_code": "7J5V3P7R+64", "compound_code": "3P7R+64 Bengaluru, Karnataka, India"}, "vicinity": "Bengaluru", "scope": "GOOGLE", "business_status": "OPERATIONAL", "types": ["supermarket", "grocery_or_supermarket", "food", "point_of_interest", "store", "establishment"], "icon": "https://maps.gstatic.com/mapfiles/place_api/icons/v1/png_71/shopping-71.png"}, {"rating": 4.2, "user_ratings_total": 524, "name": "GrandPlus Hypermarket", "reference": "ChIJCwMzw3MRrjsRA7ltLrOruUs", "geometry": {"location": {"lat": 13.0631216, "lng": 77.7404074}, "viewport": {"northeast": {"lat": 13.0643574302915, "lng": 77.7416080302915}, "southwest": {"lat": 13.0616594697085, "lng": 77.73891006970848}}}, "opening_hours": {"open_now": true}, "place_id": "ChIJCwMzw3MRrjsRA7ltLrOruUs", "plus_code": {"global_code": "7J5V3P7R+65", "compound_code": "3P7R+65 Bengaluru, Karnataka, India"}, "vicinity": "near Prestige Tranquility appartment, Saviraj tower, near Prestige Tranquility appartment, Budigere Road, Bengaluru", "photos": [{"photo_reference": "ATtYBwKcrq1CAsSrZiHmJB2ceBHG4aTyXdrcn0z8IFxO-btoYWtTOos_5ceGDgaW6PLpEPA4t2RvvSzRivA3yev-w64YhO6WYCtvxUEii8HrOmdGaSSx1o89pQU-_B0fm9MHEOkij6A7wdktW_oNNjYFu3ndEz59EBl_VwPXb73j_i9EROJ-", "width": 1280, "html_attributions": ["<a href=\"https://maps.google.com/maps/contrib/114333243008183823726\">Punith Gowda</a>"], "height": 958}], "scope": "GOOGLE", "business_status": "OPERATIONAL", "types": ["supermarket", "grocery_or_supermarket", "food", "point_of_interest", "store", "establishment"], "icon": "https://maps.gstatic.com/mapfiles/place_api/icons/v1/png_71/shopping-71.png"}]}