{"status": "OK", "html_attributions": [], "results": [{"rating": 4.1, "user_ratings_total": 1986, "name": "Loyal City Hyper Market", "reference": "ChIJ64DNExoOrjsRi97bBUyQKaY", "geometry": {"location": {"lat": 12.9688298, "lng": 77.7499974}, "viewport": {"northeast": {"lat": 12.9702428302915, "lng": 77.75135188029151}, "southwest": {"lat": 12.9675448697085, "lng": 77.74865391970849}}}, "opening_hours": {"open_now": true}, "place_id": "ChIJ64DNExoOrjsRi97bBUyQKaY", "plus_code": {"global_code": "7J4VXP9X+GX", "compound_code": "XP9X+GX Bengaluru, Karnataka, India"}, "vicinity": "60, opposite Pushpa Nursing Home, 1st A, Whitefield Main Road, Whitefield, Bengaluru", "photos": [{"photo_reference": "ATtYBwJwBVIHQPD57w51XgLFfmVhBbG9o2gh7QycH0dllBLrvPqFA85V_o9eFrpjbpTelLWZ9t-yO9PdBqs_peof--FAHAsJiLMnrXTPFJyV-FYIz7nxPQweMzbCpbPjfiAw9RUKkhWFL2kKAT3c_HfoN421arWei4-zDVdvyMAYx5r6lRSb", "width": 3264, "html_attributions": ["<a href=\"https://maps.google.com/maps/contrib/118291369970641667350\">Ansar Aboobacker</a>"], "height": 2448}], "scope": "GOOGLE", "business_status": "OPERATIONAL", "types": ["supermarket", "grocery_or_supermarket", "food", "point_of_interest", "store", "establishment"], "icon": "https://maps.gstatic.com/mapfiles/place_api/icons/v1/png_71/shopping-71.png"}, {"rating": 3.9, "user_ratings_total": 1140, "name": "Apnaday Market", "reference": "ChIJOaPiNAcOrjsRyxiXdeU4bmE", "geometry": {"location": {"lat": 12.9762287, "lng": 77.751175}, "viewport": {"northeast": {"lat": 12.9776043802915, "lng": 77.7523968302915}, "southwest": {"lat": 12.97490641970849, "lng": 77.7496988697085}}}, "opening_hours": {"open_now": true}, "place_id": "ChIJOaPiNAcOrjsRyxiXdeU4bmE", "plus_code": {"global_code": "7J4VXQG2+FF", "compound_code": "XQG2+FF Bengaluru, Karnataka, India"}, "vicinity": "#205/A, Whitefield Main Rd, Pattandur Agrahara, Prestige Ozone, Whitefield, Bengaluru", "photos": [{"photo_reference": "ATtYBwLTJJym6OatTuTkvfX6i5sKKtQBuJUGoFzQlK7QO_uS1byzGLDg5q2YN7yTdC6_pgcfMZu4DugFpKvOVzuvxnktfgm_EQBcxnEo944SbrewFY27bhwvELVHNYOkRHmTSSTdB67J04xvCS7cP5Ib56hL0gjSQFDCXEgnr1bqxj_i-qe2", "width": 4160, "html_attributions": ["<a href=\"https://maps.google.com/maps/contrib/102987257597598920141\">Shivam Nema</a>"], "height": 3120}], "scope": "GOOGLE", "business_status": "OPERATIONAL", "types": ["supermarket", "grocery_or_supermarket", "food", "point_of_interest", "store", "establishment"], "icon": "https://maps.gstatic.com/mapfiles/place_api/icons/v1/png_71/shopping-71.png"}, {"rating": 5, "user_ratings_total": 1, "name": "A2Z Online Deals", "reference": "ChIJI2VCqCYNrjsRq8d5vyKZyEY", "geometry": {"location": {"lat": 12.9698066, "lng": 77.7499632}, "viewport": {"northeast": {"lat": 12.9711575302915, "lng": 77.7512998802915}, "southwest": {"lat": 12.9684595697085, "lng": 77.74860191970849}}}, "opening_hours": {"open_now": true}, "place_id": "ChIJI2VCqCYNrjsRq8d5vyKZyEY", "plus_code": {"global_code": "7J4VXP9X+WX", "compound_code": "XP9X+WX Bengaluru, Karnataka, India"}, "vicinity": "A2Z Online Deals, Whitefield, Bengaluru", "photos": [{"photo_reference": "ATtYBwLJJ9yikA2VK54S_AnlwJYlytqWgyWfPwdGjtRVInTGKoKBXtWbgtSqWO6W4nkPHAYAt_LgirMJtfCAQD_eG5gTIRz7qRvqDV82XWuBvHla7FlKCTMDYq-Yci5AJgutY4gmLwpBwytZVQCTEwW971gRw062M-OdtNlikQUFdZWihxj9", "width": 836, "html_attributions": ["<a href=\"https://maps.google.com/maps/contrib/113364126067173823556\">A2Z Online Deals</a>"], "height": 592}], "scope": "GOOGLE", "business_status": "OPERATIONAL", "types": ["supermarket", "grocery_or_supermarket", "food", "point_of_interest", "store", "establishment"], "icon": "https://maps.gstatic.com/mapfiles/place_api/icons/v1/png_71/shopping-71.png"}, {"rating": 2.7, "user_ratings_total": 7, "name": "Easyday", "reference": "ChIJmUeWsP4NrjsRe68uoEmxhEg", "geometry": {"location": {"lat": 12.9695991, "lng": 77.750047}, "viewport": {"northeast": {"lat": 12.9709556802915, "lng": 77.7513480802915}, "southwest": {"lat": 12.9682577197085, "lng": 77.7486501197085}}}, "opening_hours": {"open_now": true}, "place_id": "ChIJmUeWsP4NrjsRe68uoEmxhEg", "plus_code": {"global_code": "7J4VXQ92+R2", "compound_code": "XQ92+R2 Bengaluru, Karnataka, India"}, "vicinity": "The Planet, Whitefield Main Road, Giddens Layout, Bengaluru", "scope": "GOOGLE", "business_status": "OPERATIONAL", "types": ["supermarket", "grocery_or_supermarket", "food", "point_of_interest", "store", "establishment"], "icon": "https://maps.gstatic.com/mapfiles/place_api/icons/v1/png_71/shopping-71.png"}, {"name": "Fashan Dresh", "reference": "ChIJ_5CwENgNrjsRPnMq09sTZZY", "geometry": {"location": {"lat": 12.9698299, "lng": 77.751431}, "viewport": {"northeast": {"lat": 12.9711413802915, "lng": 77.7527785802915}, "southwest": {"lat": 12.9684434197085, "lng": 77.7500806197085}}}, "place_id": "ChIJ_5CwENgNrjsRPnMq09sTZZY", "plus_code": {"global_code": "7J4VXQ92+WH", "compound_code": "XQ92+WH Bengaluru, Karnataka, India"}, "vicinity": "Immadihalli Main Road, Byrappa Layout, Immadihalli, Whitefield, Bengaluru", "scope": "GOOGLE", "business_status": "OPERATIONAL", "types": ["supermarket", "grocery_or_supermarket", "food", "point_of_interest", "store", "establishment"], "icon": "https://maps.gstatic.com/mapfiles/place_api/icons/v1/png_71/shopping-71.png"}, {"rating": 3.7, "user_ratings_total": 23, "name": "Yes Vegetables", "reference": "ChIJ_zqp0sANrjsRI96Wr7hlF3w", "geometry": {"location": {"lat": 12.9696022, "lng": 77.7526642}, "viewport": {"northeast": {"lat": 12.9709853302915, "lng": 77.7540207802915}, "southwest": {"lat": 12.9682873697085, "lng": 77.75132281970849}}}, "opening_hours": {"open_now": true}, "place_id": "ChIJ_zqp0sANrjsRI96Wr7hlF3w", "plus_code": {"global_code": "7J4VXQ93+R3", "compound_code": "XQ93+R3 Bengaluru, Karnataka, India"}, "vicinity": "Vinayaka Layout, Whitefield, Bengaluru", "scope": "GOOGLE", "business_status": "OPERATIONAL", "types": ["supermarket", "grocery_or_supermarket", "food", "point_of_interest", "store", "establishment"], "icon": "https://maps.gstatic.com/mapfiles/place_api/icons/v1/png_71/shopping-71.png"}, {"rating": 4.3, "user_ratings_total": 120, "name": "A1 Beef Shop", "reference": "ChIJ39GhR5QNrjsRpZFn8sAFoUg", "geometry": {"location": {"lat": 12.9702784, "lng": 77.7535061}, "viewport": {"northeast": {"lat": 12.9715290302915, "lng": 77.7548525802915}, "southwest": {"lat": 12.9688310697085, "lng": 77.75215461970849}}}, "opening_hours": {"open_now": true}, "place_id": "ChIJ39GhR5QNrjsRpZFn8sAFoUg", "plus_code": {"global_code": "7J4VXQC3+4C", "compound_code": "XQC3+4C Bengaluru, Karnataka, India"}, "vicinity": "Unnamed Road, Sathya Sai Layout, Whitefield, Bengaluru", "photos": [{"photo_reference": "ATtYBwLmD4-e-9nQfR52WnU0DjTQctQXhLNkQyv3A8iwDH9V7SRRkV9YE9IC8FAROOqiKMC-9RfoX5lM8zdcTSCx5NzuJ7nNFTxO7j6O3uw4lVNgyaMUYX3hNhsFJUDKq3F0kp3-mdson9sgbRQheFsxUN_aIrpgLk3ROPdi7-tdGvWDXjUb", "width": 1080, "html_attributions": ["<a href=\"https://maps.google.com/maps/contrib/112072149274077772174\">Nobin Philip</a>"], "height": 1920}], "scope": "GOOGLE", "business_status": "OPERATIONAL", "types": ["supermarket", "grocery_or_supermarket", "food", "point_of_interest", "store", "establishment"], "icon": "https://maps.gstatic.com/mapfiles/place_api/icons/v1/png_71/shopping-71.png"}, {"name": "Behtar Enabled Please Cart", "reference": "ChIJ-R46TJkNrjsRej_E3zIKtgM", "geometry": {"location": {"lat": 12.9672741, "lng": 77.75367539999999}, "viewport": {"northeast": {"lat": 12.9686157302915, "lng": 77.75508203029149}, "southwest": {"lat": 12.9659177697085, "lng": 77.75238406970848}}}, "place_id": "ChIJ-R46TJkNrjsRej_E3zIKtgM", "plus_code": {"global_code": "7J4VXQ83+WF", "compound_code": "XQ83+WF Bengaluru, Karnataka, India"}, "vicinity": "Vinayaka Layout, Whitefield, Bengaluru", "scope": "GOOGLE", "business_status": "OPERATIONAL", "types": ["supermarket", "grocery_or_supermarket", "food", "point_of_interest", "store", "establishment"], "icon": "https://maps.gstatic.com/mapfiles/place_api/icons/v1/png_71/shopping-71.png"}, {"rating": 3.7, "user_ratings_total": 7, "name": "Please cart", "reference": "ChIJ3dzxCfsNrjsRWnbzsq-IXYU", "geometry": {"location": {"lat": 12.9673422, "lng": 77.753852}, "viewport": {"northeast": {"lat": 12.9686938802915, "lng": 77.7551836802915}, "southwest": {"lat": 12.9659959197085, "lng": 77.75248571970849}}}, "place_id": "ChIJ3dzxCfsNrjsRWnbzsq-IXYU", "plus_code": {"global_code": "7J4VXQ83+WG", "compound_code": "XQ83+WG Bengaluru, Karnataka, India"}, "vicinity": "Vinayaka Layout, Whitefield, Bengaluru", "photos": [{"photo_reference": "ATtYBwKJqvH2_r4lENjcJdrUo-pTzqblW9K9lEQs9_zP4z4opewYY_QleyepsTFA3EJdKXbQbp3xQD3pFnnAGZ6FiPr6FpAcgiFUlULHwbhp6UFMY7a9BeuYS9RmhOWZo-9yap49QpL0w7IdlyTApJMRIylVYw6J12wN-kOCnJDeXGW3Cxet", "width": 3150, "html_attributions": ["<a href=\"https://maps.google.com/maps/contrib/107197735467783653093\">Mithun Sam</a>"], "height": 1793}], "scope": "GOOGLE", "business_status": "OPERATIONAL", "types": ["supermarket", "grocery_or_supermarket", "food", "point_of_interest", "store", "establishment"], "icon": "https://maps.gstatic.com/mapfiles/place_api/icons/v1/png_71/shopping-71.png"}, {"name": "Sri Shakti Stores", "reference": "ChIJo4ANY_sNrjsRPbfZAzvQLO0", "geometry": {"location": {"lat": 12.9689352, "lng": 77.75464079999999}, "viewport": {"northeast": {"lat": 12.9703259802915, "lng": 77.75600763029149}, "southwest": {"lat": 12.9676280197085, "lng": 77.75330966970849}}}, "opening_hours": {"open_now": true}, "place_id": "ChIJo4ANY_sNrjsRPbfZAzvQLO0", "plus_code": {"global_code": "7J4VXQ93+HV", "compound_code": "XQ93+HV Bengaluru, Karnataka, India"}, "vicinity": "Immadihalli Main Road, Vinayaka Layout, Whitefield, Bengaluru", "photos": [{"photo_reference": "ATtYBwL0K92Dmm9XBpL_cTjxLAZQn27pjD3jbL400GUzHclVhIK4SS6y2K6Kwn_Peadt7Fzqy39W7TG50CVoH5S-Jk4xQsKDREe6GG9_4A2jpNIHpWPmW6N_5jhFK4uDZCpLjGq2fwU5Fi21kUiPAa1WhFxChbPSfase_zwYPwsAQEcSN88X", "width": 2592, "html_attributions": ["<a href=\"https://maps.google.com/maps/contrib/100202152035449257305\">Raj</a>"], "height": 1456}], "scope": "GOOGLE", "business_status": "OPERATIONAL", "types": ["supermarket", "grocery_or_supermarket", "food", "point_of_interest", "store", "establishment"], "icon": "https://maps.gstatic.com/mapfiles/place_api/icons/v1/png_71/shopping-71.png"}, {"rating": 4.2, "user_ratings_total": 141, "name": "Food Market", "reference": "ChIJk1bPRPsNrjsRgT-BWV1ZnQA", "geometry": {"location": {"lat": 12.968488, "lng": 77.7556929}, "viewport": {"northeast": {"lat": 12.9698373302915, "lng": 77.7570368302915}, "southwest": {"lat": 12.9671393697085, "lng": 77.75433886970848}}}, "opening_hours": {"open_now": true}, "place_id": "ChIJk1bPRPsNrjsRgT-BWV1ZnQA", "plus_code": {"global_code": "7J4VXQ94+97", "compound_code": "XQ94+97 Bengaluru, Karnataka, India"}, "vicinity": "Bengaluru, Vinayaka Layout, Whitefield, Bengaluru", "photos": [{"photo_reference": "ATtYBwJi50W9Jx-qe2hptpWBzb8EXaRtuCKbm0rUW9Z8I6Na6psbtA_w62drnqMw1M-oSU6sGA4ULQL93v0liUf8ISRTFyolqzAPHNkAOj6uZgo4C4V6j2pZ1dD2d4wPoWUc3AF29Ze8_aT5P7BN4SjnoUbFPwcGOivBOg5btObRzVIdJmYM", "width": 3120, "html_attributions": ["<a href=\"https://maps.google.com/maps/contrib/106263024034208108954\">evachu</a>"], "height": 4160}], "scope": "GOOGLE", "business_status": "OPERATIONAL", "types": ["supermarket", "grocery_or_supermarket", "food", "point_of_interest", "store", "establishment"], "icon": "https://maps.gstatic.com/mapfiles/place_api/icons/v1/png_71/shopping-71.png"}, {"rating": 3.7, "user_ratings_total": 3, "name": "Sri Tirumala Vegetable Center", "reference": "ChIJjwRagPQNrjsR3JosRETY5j4", "geometry": {"location": {"lat": 12.9649819, "lng": 77.7535697}, "viewport": {"northeast": {"lat": 12.9663086302915, "lng": 77.7549202302915}, "southwest": {"lat": 12.9636106697085, "lng": 77.7522222697085}}}, "opening_hours": {"open_now": true}, "place_id": "ChIJjwRagPQNrjsR3JosRETY5j4", "plus_code": {"global_code": "7J4VXQ73+XC", "compound_code": "XQ73+XC Bengaluru, Karnataka, India"}, "vicinity": "Unnamed Road, Narayanappa Garden, Whitefield, Bengaluru", "photos": [{"photo_reference": "ATtYBwJrhRjZMw_ZGPKIybdBeQjKS5ORyLqfBfqmxnNA1bemXlQxT_7p975pcEpLgxGRN3A6_wXFViOdvdBOvzyzisrj0HRv9K_Zyw_bzJMmiLGMzA01YycAivPs7G8byOa9zzhrwWZBo1qXXjRd5alxwfNtsMW9YB0RKOJPzY0z0RJ_b0n9", "width": 1080, "html_attributions": ["<a href=\"https://maps.google.com/maps/contrib/110208789381826273354\">varun gowda</a>"], "height": 1920}], "scope": "GOOGLE", "business_status": "OPERATIONAL", "types": ["grocery_or_supermarket", "supermarket", "food", "point_of_interest", "store", "establishment"], "icon": "https://maps.gstatic.com/mapfiles/place_api/icons/v1/png_71/shopping-71.png"}, {"rating": 4.1, "user_ratings_total": 9, "name": "KR's Sea Fresh", "reference": "ChIJXZ6cSAESrjsRlmpiXa7l7Ys", "geometry": {"location": {"lat": 12.9692104, "lng": 77.74068609999999}, "viewport": {"northeast": {"lat": 12.9706067302915, "lng": 77.7420290302915}, "southwest": {"lat": 12.9679087697085, "lng": 77.7393310697085}}}, "opening_hours": {"open_now": true}, "place_id": "ChIJXZ6cSAESrjsRlmpiXa7l7Ys", "plus_code": {"global_code": "7J4VXP9R+M7", "compound_code": "XP9R+M7 Bengaluru, Karnataka, India"}, "vicinity": "45, Borewell Road, Palm Meadows, Dodsworth Layout, Whitefield, Bengaluru", "scope": "GOOGLE", "business_status": "OPERATIONAL", "types": ["supermarket", "grocery_or_supermarket", "food", "point_of_interest", "store", "establishment"], "icon": "https://maps.gstatic.com/mapfiles/place_api/icons/v1/png_71/shopping-71.png"}, {"name": "Loot Mart", "reference": "ChIJJySKV_YNrjsRNaSr9TxP51M", "geometry": {"location": {"lat": 12.9603763, "lng": 77.7485341}, "viewport": {"northeast": {"lat": 12.9615428302915, "lng": 77.74987138029151}, "southwest": {"lat": 12.9588448697085, "lng": 77.74717341970849}}}, "place_id": "ChIJJySKV_YNrjsRNaSr9TxP51M", "plus_code": {"global_code": "7J4VXP6X+5C", "compound_code": "XP6X+5C Bengaluru, Karnataka, India"}, "vicinity": "Prestige Ozone, Whitefield, Bengaluru", "scope": "GOOGLE", "business_status": "OPERATIONAL", "types": ["supermarket", "grocery_or_supermarket", "food", "point_of_interest", "store", "establishment"], "icon": "https://maps.gstatic.com/mapfiles/place_api/icons/v1/png_71/shopping-71.png"}, {"name": "Chicken shop", "reference": "ChIJsd4XlAwNrjsRIw-RWey6bSM", "geometry": {"location": {"lat": 12.964897, "lng": 77.758566}, "viewport": {"northeast": {"lat": 12.9662459802915, "lng": 77.75991498029151}, "southwest": {"lat": 12.9635480197085, "lng": 77.75721701970849}}}, "place_id": "ChIJsd4XlAwNrjsRIw-RWey6bSM", "plus_code": {"global_code": "7J4VXQ75+XC", "compound_code": "XQ75+XC Bengaluru, Karnataka, India"}, "vicinity": "Hagadur, Immadihalli, Whitefield, Bengaluru", "scope": "GOOGLE", "business_status": "OPERATIONAL", "types": ["supermarket", "grocery_or_supermarket", "food", "point_of_interest", "store", "establishment"], "icon": "https://maps.gstatic.com/mapfiles/place_api/icons/v1/png_71/shopping-71.png"}, {"name": "Anapurneshwari Stores", "reference": "ChIJj37IiAYOrjsRlb1xfgDNjYY", "geometry": {"location": {"lat": 12.979635, "lng": 77.75347719999999}, "viewport": {"northeast": {"lat": 12.9809843302915, "lng": 77.7547748802915}, "southwest": {"lat": 12.9782863697085, "lng": 77.75207691970849}}}, "place_id": "ChIJj37IiAYOrjsRlb1xfgDNjYY", "plus_code": {"global_code": "7J4VXQH3+V9", "compound_code": "XQH3+V9 Bengaluru, Karnataka, India"}, "vicinity": "Ambedkar Nagar, Whitefield, Bengaluru", "scope": "GOOGLE", "business_status": "OPERATIONAL", "types": ["supermarket", "grocery_or_supermarket", "food", "point_of_interest", "store", "establishment"], "icon": "https://maps.gstatic.com/mapfiles/place_api/icons/v1/png_71/shopping-71.png"}, {"rating": 5, "user_ratings_total": 1, "name": "B.P.K. General Store", "reference": "ChIJeY3NXp0NrjsReIJ9z6AG2QQ", "geometry": {"location": {"lat": 12.9750348, "lng": 77.7597878}, "viewport": {"northeast": {"lat": 12.9763801802915, "lng": 77.76108843029151}, "southwest": {"lat": 12.9736822197085, "lng": 77.75839046970849}}}, "place_id": "ChIJeY3NXp0NrjsReIJ9z6AG2QQ", "plus_code": {"global_code": "7J4VXQG5+2W", "compound_code": "XQG5+2W Bengaluru, Karnataka, India"}, "vicinity": "Unnamed Road, Vijayanagara, Whitefield, Bengaluru", "photos": [{"photo_reference": "ATtYBwKKhqs4agphYHCGj_aCEhU3J2pjpBR9yBf67Nlykd8IT1Hj8yWv6-I5lmKb198EArl8AsqMuqvlXdVmgICQKCzAvbFMujJmVt6joC3Z-OXAyzOu4wlrtoWSsmcgahCify9_z5aj4RU_d3_lJ0VyXn-CIRJHPvvWAeqBu8ZZykytfFoW", "width": 4032, "html_attributions": ["<a href=\"https://maps.google.com/maps/contrib/114827166369847297223\">Narayan singh</a>"], "height": 1872}], "scope": "GOOGLE", "business_status": "OPERATIONAL", "types": ["supermarket", "grocery_or_supermarket", "food", "point_of_interest", "store", "establishment"], "icon": "https://maps.gstatic.com/mapfiles/place_api/icons/v1/png_71/shopping-71.png"}, {"rating": 5, "user_ratings_total": 2, "name": "Ramchandrappa Complex", "reference": "ChIJ-0ywP1MPrjsRjeVzAEcrfW8", "geometry": {"location": {"lat": 12.9760615, "lng": 77.7597821}, "viewport": {"northeast": {"lat": 12.9774448802915, "lng": 77.7611469802915}, "southwest": {"lat": 12.9747469197085, "lng": 77.7584490197085}}}, "place_id": "ChIJ-0ywP1MPrjsRjeVzAEcrfW8", "plus_code": {"global_code": "7J4VXQG5+CW", "compound_code": "XQG5+CW Bengaluru, Karnataka, India"}, "vicinity": "near prestige Mayberry, Vijay Nagar, near prestige Mayberry, Whitefield, Bengaluru", "photos": [{"photo_reference": "ATtYBwIYGPZLfCTmbgUF1n1KPRALKs6TbO82mdOw4RggvsdD4Qo7ER1fqBnGn-mqFDV3pI0Oih4vZ7f1j1cguabdmuywq4t5XEaggmshE7T6_HzC15VhJzUVhMSM40Xbe7ReoTCRvwzXz2RnfHOBDmploS7Y5KLwfagUwFHzdsmiW76XSn4f", "width": 3120, "html_attributions": ["<a href=\"https://maps.google.com/maps/contrib/112719287581597635869\">Priyanka Pinky</a>"], "height": 3120}], "scope": "GOOGLE", "business_status": "OPERATIONAL", "types": ["supermarket", "grocery_or_supermarket", "food", "point_of_interest", "store", "establishment"], "icon": "https://maps.gstatic.com/mapfiles/place_api/icons/v1/png_71/shopping-71.png"}, {"rating": 4.2, "user_ratings_total": 104, "name": "MINT SUPER BAZAAR", "reference": "ChIJk1j0h0oPrjsRZkqnV8SnuPA", "geometry": {"location": {"lat": 12.9796107, "lng": 77.7575265}, "viewport": {"northeast": {"lat": 12.9809268302915, "lng": 77.7588719802915}, "southwest": {"lat": 12.9782288697085, "lng": 77.7561740197085}}}, "opening_hours": {"open_now": true}, "place_id": "ChIJk1j0h0oPrjsRZkqnV8SnuPA", "plus_code": {"global_code": "7J4VXQH5+R2", "compound_code": "XQH5+R2 Bengaluru, Karnataka, India"}, "vicinity": "Ambedkar Nagar, Whitefield, Bengaluru", "photos": [{"photo_reference": "ATtYBwJ2yNcuWsky_MvI5lVgPh3U1aJaZnV5VXLpi4iR00riQ3_64hZfXjO9yI3oYpnO3dKSs-6Tglav9QAkpivGfST_TZT1t928_tZuhx88xs8Vz-UcuGUyg4i_oBop5ABk79HUt-G_sLp-9CdKPGbh3zmcS-JT2jjrdpljTJE9_09t0_PI", "width": 4032, "html_attributions": ["<a href=\"https://maps.google.com/maps/contrib/104162028013439009111\">Navdeep Sethi</a>"], "height": 3024}], "scope": "GOOGLE", "business_status": "OPERATIONAL", "types": ["grocery_or_supermarket", "supermarket", "food", "point_of_interest", "store", "establishment"], "icon": "https://maps.gstatic.com/mapfiles/place_api/icons/v1/png_71/shopping-71.png"}, {"name": "Freshkart Fruits & Vegetables", "reference": "ChIJx-f0jrUTrjsRT14g2ZHv-bA", "geometry": {"location": {"lat": 12.9693113, "lng": 77.7374423}, "viewport": {"northeast": {"lat": 12.9706317802915, "lng": 77.73878653029149}, "southwest": {"lat": 12.9679338197085, "lng": 77.73608856970849}}}, "place_id": "ChIJx-f0jrUTrjsRT14g2ZHv-bA", "plus_code": {"global_code": "7J4VXP9P+PX", "compound_code": "XP9P+PX Bengaluru, Karnataka, India"}, "vicinity": "27, Borewell Road, Nallurhalli, Whitefield, Bengaluru", "scope": "GOOGLE", "business_status": "OPERATIONAL", "types": ["supermarket", "grocery_or_supermarket", "food", "point_of_interest", "store", "establishment"], "icon": "https://maps.gstatic.com/mapfiles/place_api/icons/v1/png_71/shopping-71.png"}]}