{"status": "OK", "html_attributions": [], "results": [{"name": "TVS", "reference": "ChIJFxVdMF5xrjsRHehLMD5HlO0", "geometry": {"location": {"lat": 12.7472935, "lng": 77.7811141}, "viewport": {"northeast": {"lat": 12.7486487302915, "lng": 77.7824614802915}, "southwest": {"lat": 12.7459507697085, "lng": 77.77976351970848}}}, "opening_hours": {"open_now": false}, "place_id": "ChIJFxVdMF5xrjsRHehLMD5HlO0", "plus_code": {"global_code": "7J4VPQWJ+WC", "compound_code": "PQWJ+WC Hosur, Tamil Nadu, India"}, "vicinity": "NRI Center City, Hosur", "scope": "GOOGLE", "business_status": "OPERATIONAL", "types": ["supermarket", "grocery_or_supermarket", "food", "point_of_interest", "store", "establishment"], "icon": "https://maps.gstatic.com/mapfiles/place_api/icons/v1/png_71/shopping-71.png"}, {"rating": 4.1, "user_ratings_total": 15, "name": "Mohan Store", "reference": "ChIJt4BZ5_xwrjsRiNNo7yOlqm8", "geometry": {"location": {"lat": 12.7478433, "lng": 77.8009562}, "viewport": {"northeast": {"lat": 12.7491861802915, "lng": 77.8023275302915}, "southwest": {"lat": 12.7464882197085, "lng": 77.79962956970849}}}, "opening_hours": {"open_now": true}, "place_id": "ChIJt4BZ5_xwrjsRiNNo7yOlqm8", "plus_code": {"global_code": "7J4VPRX2+49", "compound_code": "PRX2+49 Mookondapalli, Tamil Nadu, India"}, "vicinity": "635126, MGR Nagar, Bharathi Nagar, Mookondapalli", "photos": [{"photo_reference": "ATtYBwKKiaBMdqKqtnF1VEWUFTweFhg2CEx6Yp9-XvcA2AjI8Le-oyOcM74aRIiIwDzt5cRfDHAiVxwzmOJ7rpwcHBKf5_mKZbLMjWXqWZtTLTumASlJPxU2fV5SvYW3oJWg13MqHyN-O1g3yd8qn4HtCf4qEXNNFesSJzUbzmP3X5grVhwf", "width": 4160, "html_attributions": ["<a href=\"https://maps.google.com/maps/contrib/115059659409149896320\">qss hospitality Service Private Limited</a>"], "height": 3120}], "scope": "GOOGLE", "business_status": "OPERATIONAL", "types": ["supermarket", "grocery_or_supermarket", "food", "point_of_interest", "store", "establishment"], "icon": "https://maps.gstatic.com/mapfiles/place_api/icons/v1/png_71/shopping-71.png"}, {"rating": 4.6, "user_ratings_total": 16, "name": "Rathana Departmental Store", "reference": "ChIJB9hVqAJxrjsRCn3Ycw3O4SY", "geometry": {"location": {"lat": 12.7512784, "lng": 77.8018617}, "viewport": {"northeast": {"lat": 12.7526359302915, "lng": 77.80316988029152}, "southwest": {"lat": 12.7499379697085, "lng": 77.8004719197085}}}, "opening_hours": {"open_now": true}, "place_id": "ChIJB9hVqAJxrjsRCn3Ycw3O4SY", "plus_code": {"global_code": "7J4VQR22+GP", "compound_code": "QR22+GP Mookondapalli, Tamil Nadu, India"}, "vicinity": "Mookondapalli", "photos": [{"photo_reference": "ATtYBwLbqgL4brj0qRsIvB2GVVahuao50D7PUGNbABvp20oWUxpFfpylh95OCCK6FH4GU31HTyktvlpGhXzgeldWQd2GLNUcbrs3FvYMNCVhxgzz1EILVt9uRLaVQF4dRhAtUKrQaixb0mRQ3DZRxlpKKCeTvOHkRUo2S5Fyi_1jjBL_Rpc0", "width": 4128, "html_attributions": ["<a href=\"https://maps.google.com/maps/contrib/115183191473597856826\">Vijaya Kumar</a>"], "height": 2322}], "scope": "GOOGLE", "business_status": "OPERATIONAL", "types": ["supermarket", "grocery_or_supermarket", "food", "point_of_interest", "store", "establishment"], "icon": "https://maps.gstatic.com/mapfiles/place_api/icons/v1/png_71/shopping-71.png"}, {"rating": 4.8, "user_ratings_total": 12, "name": "TVS Motor Truck Parking, Hosur, Tamil Nadu", "reference": "ChIJK5-PFKZxrjsRY-vpGe5yk2M", "geometry": {"location": {"lat": 12.7403943, "lng": 77.78290179999999}, "viewport": {"northeast": {"lat": 12.7416519802915, "lng": 77.7842898302915}, "southwest": {"lat": 12.7389540197085, "lng": 77.78159186970848}}}, "place_id": "ChIJK5-PFKZxrjsRY-vpGe5yk2M", "plus_code": {"global_code": "7J4VPQRM+55", "compound_code": "PQRM+55 Hosur, Tamil Nadu, India"}, "vicinity": "TVS Motor Truck Parking, Hosur", "photos": [{"photo_reference": "ATtYBwJ_r2o1Gkbl9pZozOCSAds2Aqngevoa2nPYpYKTMQd1LUEXfDLD8JXUeqP5oBwH512c8l-Qhx-Ikamd6MM4h2zT-2mGB08I3yU2n84VPzWL5Q-jsc3GkS9RGLNd-b4qVp2vRUEsIAp7-f2hUsx9ak6PFvYFfrLjgBQwMzVkBt5TmMTP", "width": 1208, "html_attributions": ["<a href=\"https://maps.google.com/maps/contrib/103042352509419094436\">Bolagam Venkatiah</a>"], "height": 2615}], "scope": "GOOGLE", "business_status": "OPERATIONAL", "types": ["supermarket", "grocery_or_supermarket", "food", "point_of_interest", "store", "establishment"], "icon": "https://maps.gstatic.com/mapfiles/place_api/icons/v1/png_71/shopping-71.png"}, {"rating": 5, "user_ratings_total": 1, "name": "C MURUGAN STORE", "reference": "ChIJv-pO8vFxrjsRYiv7X959LEU", "geometry": {"location": {"lat": 12.747419, "lng": 77.8026087}, "viewport": {"northeast": {"lat": 12.7487933802915, "lng": 77.8039303802915}, "southwest": {"lat": 12.7460954197085, "lng": 77.8012324197085}}}, "opening_hours": {"open_now": true}, "place_id": "ChIJv-pO8vFxrjsRYiv7X959LEU", "plus_code": {"global_code": "7J4VPRW3+X2", "compound_code": "PRW3+X2 Mookondapalli, Tamil Nadu, India"}, "vicinity": "Sipcot Staff Housing Colony, Mookondapalli", "scope": "GOOGLE", "business_status": "OPERATIONAL", "types": ["supermarket", "grocery_or_supermarket", "food", "point_of_interest", "store", "establishment"], "icon": "https://maps.gstatic.com/mapfiles/place_api/icons/v1/png_71/shopping-71.png"}]}