{"status": "OK", "next_page_token": "CrQCKQEAABWapZCpwoPDZLzEU9XVfuTLOL3fn7v46qJLurdW349mU68Z7h-M15SLNGXHE2m0XDQYtpC0ogAg7dhu6yPylfRYpxK-kptMzO1KrZM70DIO_WHWjHZQWewrj0vtXJ-asRRS43r3E7DzmOtur8d0vU5DS_yYlJ86KGuCTAWYCekOGkfO8ritj1I8KxCicSYd4P4zxjMw0qSbytotB9uTHY4yi3yCIt1Pzol2LAWKZ46qu5yQebEeizPwwXDdCOJ0LHF6-L33C9PDzMbySx7uAnIYDcba7UWZMt4rGoNaQQ8dAwg4cp4-XbYrclJynTjNOjRzLCcQ-G3fJwCejgaeqwQFNXbf98qFxUm2ojQCqcx_eAyO8cMdHn6jyGqhIwQoyad8e0pV8SZe6dV-6zj6diwSEFAHSvhwI-BbNbKvUkFq8dUaFFGrWZ5CT7qZ9dAPRXDLeHzWRBOa", "html_attributions": [], "results": [{"rating": 5, "user_ratings_total": 4, "name": "Pawar's Matrimonial", "reference": "ChIJrRzRJl_H5zsRE-eWQjHxXLA", "geometry": {"location": {"lat": 19.08124949999999, "lng": 72.91659829999999}, "viewport": {"northeast": {"lat": 19.0826265302915, "lng": 72.9178916802915}, "southwest": {"lat": 19.0799285697085, "lng": 72.91519371970848}}}, "opening_hours": {"open_now": true}, "place_id": "ChIJrRzRJl_H5zsRE-eWQjHxXLA", "plus_code": {"global_code": "7JFJ3WJ8+FJ", "compound_code": "3WJ8+FJ Mumbai, Maharashtra, India"}, "vicinity": "Siddharameshvar, Mumbai", "photos": [{"photo_reference": "CmRaAAAAXdm0GaPv4w0X0GQqNhmotDGVVpubO-BnoDMlb_6d0FOarA8aTy9y7aqfOzk3z7-bJkdFJypGtnvcqV3XxVR1u9A1cBulVtmpkPu5feqZAjoUq_ORM--1ol90Y7Pt65onEhAM6-7tWWJq9IwrcSB_ncAdGhTxRd_C-GG9aNj18WiC7vXogdS3Tw", "width": 888, "html_attributions": ["<a href=\"https://maps.google.com/maps/contrib/105919627629416829331\">Pawar&#39;s Matrimonial</a>"], "height": 498}], "scope": "GOOGLE", "business_status": "OPERATIONAL", "types": ["local_government_office", "point_of_interest", "establishment"], "icon": "https://maps.gstatic.com/mapfiles/place_api/icons/v1/png_71/civic_building-71.png"}, {"rating": 3.8, "user_ratings_total": 6, "name": "Ghatkopar Pumping Station", "reference": "ChIJubdUyUnG5zsRoe9fvWruRhA", "geometry": {"location": {"lat": 19.0811928, "lng": 72.9235427}, "viewport": {"northeast": {"lat": 19.0825394302915, "lng": 72.92488983029149}, "southwest": {"lat": 19.0798414697085, "lng": 72.92219186970848}}}, "place_id": "ChIJubdUyUnG5zsRoe9fvWruRhA", "plus_code": {"global_code": "7JFJ3WJF+FC", "compound_code": "3WJF+FC Mumbai, Maharashtra, India"}, "vicinity": "Palm Garden- Godrej, Mangroves Area, 400075, Godrej Mangroves Area, Mankur, Mumbai", "scope": "GOOGLE", "business_status": "OPERATIONAL", "types": ["local_government_office", "point_of_interest", "establishment"], "icon": "https://maps.gstatic.com/mapfiles/place_api/icons/v1/png_71/civic_building-71.png"}, {"rating": 5, "user_ratings_total": 10, "name": "RAIS BHAI RTO CONSULTANT", "reference": "ChIJidH14gTH5zsRTe9I7dfdWYo", "geometry": {"location": {"lat": 19.0774744, "lng": 72.91573939999999}, "viewport": {"northeast": {"lat": 19.0788548302915, "lng": 72.9170470802915}, "southwest": {"lat": 19.0761568697085, "lng": 72.91434911970849}}}, "opening_hours": {"open_now": false}, "place_id": "ChIJidH14gTH5zsRTe9I7dfdWYo", "plus_code": {"global_code": "7JFJ3WG8+X7", "compound_code": "3WG8+X7 Mumbai, Maharashtra, India"}, "vicinity": "BUS STOP, SERVICE ROAD NEAR SAI BABA MANDIR BEHIND, Ramabai Ambedkar Nagar, Ghatkopar East, Mumbai", "photos": [{"photo_reference": "CmRaAAAAeU0URHqadxUYsuBGA_sLY02JEpZS54h8vnB-QXaSetaPsFufNBDV8Ol-v3DF_vl_R_PRoi2ma6b0H1Y8hTkSbQ647UaET8VWJeru0YwdmMbaOyF12OPL1URwnU-mELXrEhAVoQm2y8fR_GNTq8gaZe0HGhS4ylHLEmwi9_x0OtGybGDvRgRsEA", "width": 720, "html_attributions": ["<a href=\"https://maps.google.com/maps/contrib/113179052766686182725\">Ali</a>"], "height": 1280}], "scope": "GOOGLE", "business_status": "OPERATIONAL", "types": ["local_government_office", "point_of_interest", "establishment"], "icon": "https://maps.gstatic.com/mapfiles/place_api/icons/v1/png_71/civic_building-71.png"}, {"rating": 5, "user_ratings_total": 2, "name": "MCGM SWD, SWM - Motor Garage Bldg.", "reference": "ChIJB0LGaTTG5zsRYpVYmpUKTao", "geometry": {"location": {"lat": 19.0850819, "lng": 72.91792819999999}, "viewport": {"northeast": {"lat": 19.0862419802915, "lng": 72.91918313029149}, "southwest": {"lat": 19.0835440197085, "lng": 72.91648516970848}}}, "place_id": "ChIJB0LGaTTG5zsRYpVYmpUKTao", "plus_code": {"global_code": "7JFJ3WP9+25", "compound_code": "3WP9+25 Mumbai, Maharashtra, India"}, "vicinity": "Best Colony, Mankur, Mumbai", "photos": [{"photo_reference": "CmRaAAAATKv06esn8r42y5bNb8K6QSiO1Le64NUTQkhyETwvyjGrm-RCYtRBeuuyjVqZTOwHhdD1sbWXqgnJwzPk4C6alwRmPJ2E5Yxn6mHMT567jCivVT9_MQgtqeontEdtOUxaEhAv5Q8-gti-Wq5rcBvLl80gGhRQBvLkHhuQg1Q8jLBmWbfX2CISFw", "width": 4128, "html_attributions": ["<a href=\"https://maps.google.com/maps/contrib/110812525336761523413\">Suresh Suthar Panseri</a>"], "height": 3096}], "scope": "GOOGLE", "business_status": "OPERATIONAL", "types": ["local_government_office", "point_of_interest", "establishment"], "icon": "https://maps.gstatic.com/mapfiles/place_api/icons/v1/png_71/civic_building-71.png"}, {"rating": 5, "user_ratings_total": 1, "permanently_closed": true, "name": "Sanjay Gandhi Nagar SRA Gruhnirman sanstha niyojit", "reference": "ChIJ230BdXvH5zsRcv0E4upOj4g", "geometry": {"location": {"lat": 19.0850002, "lng": 72.9170446}, "viewport": {"northeast": {"lat": 19.0862818802915, "lng": 72.9184646802915}, "southwest": {"lat": 19.0835839197085, "lng": 72.91576671970849}}}, "place_id": "ChIJ230BdXvH5zsRcv0E4upOj4g", "plus_code": {"global_code": "7JFJ3WP8+2R", "compound_code": "3WP8+2R Mumbai, Maharashtra, India"}, "vicinity": "F-1, Bajaj Marg, Best Colony, Ghatkopar East, Mumbai", "scope": "GOOGLE", "business_status": "CLOSED_TEMPORARILY", "types": ["local_government_office", "point_of_interest", "establishment"], "icon": "https://maps.gstatic.com/mapfiles/place_api/icons/v1/png_71/civic_building-71.png"}, {"rating": 5, "user_ratings_total": 1, "permanently_closed": true, "name": "Sanjay Gandhi Nagar Gruhnirman Sanstha", "reference": "ChIJ5eI4ad_H5zsRE4QUif-At4Y", "geometry": {"location": {"lat": 19.084962, "lng": 72.91651560000001}, "viewport": {"northeast": {"lat": 19.0862672302915, "lng": 72.91778588029149}, "southwest": {"lat": 19.0835692697085, "lng": 72.91508791970848}}}, "place_id": "ChIJ5eI4ad_H5zsRE4QUif-At4Y", "plus_code": {"global_code": "7JFJ3WM8+XJ", "compound_code": "3WM8+XJ Mumbai, Maharashtra, India"}, "vicinity": "Naidu Colony, Kannamwa, Mankur, Mumbai", "scope": "GOOGLE", "business_status": "CLOSED_TEMPORARILY", "types": ["local_government_office", "point_of_interest", "establishment"], "icon": "https://maps.gstatic.com/mapfiles/place_api/icons/v1/png_71/civic_building-71.png"}, {"permanently_closed": true, "name": "SANJAY GANDHI NAGAR SRA SOC", "reference": "ChIJ17EwhrrH5zsRJZeSRUfR-KA", "geometry": {"location": {"lat": 19.0850581, "lng": 72.9166576}, "viewport": {"northeast": {"lat": 19.0863152802915, "lng": 72.9178568802915}, "southwest": {"lat": 19.08361731970849, "lng": 72.91515891970849}}}, "place_id": "ChIJ17EwhrrH5zsRJZeSRUfR-KA", "plus_code": {"global_code": "7JFJ3WP8+2M", "compound_code": "3WP8+2M Mumbai, Maharashtra, India"}, "vicinity": "near bhimsagar jetvan budhvihar, sanjay gandhi nagar, near bhimsagar jetvan budhvihar, Ghatkopar, Pant Nagar, Mumbai", "scope": "GOOGLE", "business_status": "CLOSED_TEMPORARILY", "types": ["local_government_office", "point_of_interest", "establishment"], "icon": "https://maps.gstatic.com/mapfiles/place_api/icons/v1/png_71/civic_building-71.png"}, {"rating": 4.4, "user_ratings_total": 7, "permanently_closed": true, "name": "\u0938\u0902\u091c\u092f \u0917\u093e\u0901\u0927\u0940 \u0928\u0917\u0930 \u090f\u0938.\u0906\u0930 \u090f \u0917\u0943\u0939\u0928\u093f\u0930\u094d\u092e\u093e\u0923 \u0938\u0902\u0938\u094d\u0925\u093e \u0928\u093f\u092f\u094b\u091c\u093f\u0924", "reference": "ChIJ3cSxax3H5zsRy3ubkrRxQBs", "geometry": {"location": {"lat": 19.0852458, "lng": 72.9167618}, "viewport": {"northeast": {"lat": 19.0867063802915, "lng": 72.9179687802915}, "southwest": {"lat": 19.08400841970849, "lng": 72.9152708197085}}}, "place_id": "ChIJ3cSxax3H5zsRy3ubkrRxQBs", "plus_code": {"global_code": "7JFJ3WP8+3P", "compound_code": "3WP8+3P Mumbai, Maharashtra, India"}, "vicinity": "\u0938\u0902\u091c\u092f \u0917\u093e\u0901\u0927\u0940 \u0928\u0917\u0930, Naidu Colony, Pant Nagar, Ghatkopar East, Mumbai", "scope": "GOOGLE", "business_status": "CLOSED_TEMPORARILY", "types": ["local_government_office", "point_of_interest", "establishment"], "icon": "https://maps.gstatic.com/mapfiles/place_api/icons/v1/png_71/civic_building-71.png"}, {"rating": 4.5, "user_ratings_total": 2, "name": "\u0938\u0902\u0918\u0930\u094d\u0937 \u0938\u0939\u0915\u093e\u0930\u0940 \u0917\u0943\u0939\u0928\u093f\u0930\u094d\u092e\u093e\u0923 \u0938\u0902\u0938\u094d\u0925\u093e (\u0928\u093f\u092f\u094b\u091c\u093f\u0924) \u0938\u0902\u091c\u092f \u0917\u093e\u0902\u0927\u0940 \u0928\u0917\u0930, \u0918\u093e\u091f\u0915\u094b\u092a\u0930 (\u092a\u0942\u0930\u094d\u0935)", "reference": "ChIJgZSTlKPH5zsRP_vyyzKHKEY", "geometry": {"location": {"lat": 19.085336, "lng": 72.9165958}, "viewport": {"northeast": {"lat": 19.0867395802915, "lng": 72.91787528029151}, "southwest": {"lat": 19.0840416197085, "lng": 72.9151773197085}}}, "place_id": "ChIJgZSTlKPH5zsRP_vyyzKHKEY", "plus_code": {"global_code": "7JFJ3WP8+4J", "compound_code": "3WP8+4J Mumbai, Maharashtra, India"}, "vicinity": "\u0928\u093e\u092f\u0921\u0942 \u0915\u0949\u0932\u0928\u0940, Sanjay Gandhi Nagar, Ghatkopar East, Mumbai", "scope": "GOOGLE", "business_status": "OPERATIONAL", "types": ["local_government_office", "point_of_interest", "establishment"], "icon": "https://maps.gstatic.com/mapfiles/place_api/icons/v1/png_71/civic_building-71.png"}, {"rating": 4.6, "user_ratings_total": 10, "name": "Ramai Vadhu Var Suchak Kendra", "reference": "ChIJARBims3H5zsR6tFKt_-b8Xo", "geometry": {"location": {"lat": 19.0877047, "lng": 72.91609199999999}, "viewport": {"northeast": {"lat": 19.0889708802915, "lng": 72.91745323029151}, "southwest": {"lat": 19.0862729197085, "lng": 72.9147552697085}}}, "place_id": "ChIJARBims3H5zsR6tFKt_-b8Xo", "plus_code": {"global_code": "7JFJ3WQ8+3C", "compound_code": "3WQ8+3C Mumbai, Maharashtra, India"}, "vicinity": "Flat No.203, 2nd Floor, Vikas Apartment, Opposite to Building No. 71, Behind Pantnagar Police Station, Pant Nagar, Ghatkopar East, Mumbai", "scope": "GOOGLE", "business_status": "OPERATIONAL", "types": ["local_government_office", "point_of_interest", "establishment"], "icon": "https://maps.gstatic.com/mapfiles/place_api/icons/v1/png_71/civic_building-71.png"}, {"rating": 4, "user_ratings_total": 1, "permanently_closed": true, "name": "Varun Tempo Serivces", "reference": "ChIJY_X-8TvG5zsR8QnTu9xU668", "geometry": {"location": {"lat": 19.072131, "lng": 72.915436}, "viewport": {"northeast": {"lat": 19.0734454302915, "lng": 72.9167747802915}, "southwest": {"lat": 19.07074746970849, "lng": 72.9140768197085}}}, "place_id": "ChIJY_X-8TvG5zsR8QnTu9xU668", "plus_code": {"global_code": "7JFJ3WC8+V5", "compound_code": "3WC8+V5 Mumbai, Maharashtra, India"}, "vicinity": "Kamraj Nagar Road, Ramabai Ambedkar Nagar, Kamraj Nagar, Ghatkopar East, Mumbai", "scope": "GOOGLE", "business_status": "CLOSED_TEMPORARILY", "types": ["local_government_office", "point_of_interest", "establishment"], "icon": "https://maps.gstatic.com/mapfiles/place_api/icons/v1/png_71/civic_building-71.png"}, {"permanently_closed": true, "name": "TULJAI TRADERS", "reference": "ChIJuQhIu87H5zsRatncXULEAt8", "geometry": {"location": {"lat": 19.088691, "lng": 72.91469359999999}, "viewport": {"northeast": {"lat": 19.0900689302915, "lng": 72.9160072802915}, "southwest": {"lat": 19.08737096970849, "lng": 72.91330931970849}}}, "place_id": "ChIJuQhIu87H5zsRatncXULEAt8", "plus_code": {"global_code": "7JFJ3WQ7+FV", "compound_code": "3WQ7+FV Mumbai, Maharashtra, India"}, "vicinity": "Gauri Shankar Wadi No. 2, Ghatkopar East, Mumbai", "scope": "GOOGLE", "business_status": "CLOSED_TEMPORARILY", "types": ["local_government_office", "point_of_interest", "establishment"], "icon": "https://maps.gstatic.com/mapfiles/place_api/icons/v1/png_71/civic_building-71.png"}, {"rating": 5, "user_ratings_total": 4, "name": "NATURAL HEALTH CARE", "reference": "ChIJPYVPlsXH5zsRl1Yk_xNm3ko", "geometry": {"location": {"lat": 19.0852243, "lng": 72.91005439999999}, "viewport": {"northeast": {"lat": 19.0864882302915, "lng": 72.9114560802915}, "southwest": {"lat": 19.08379026970849, "lng": 72.9087581197085}}}, "opening_hours": {"open_now": true}, "place_id": "ChIJPYVPlsXH5zsRl1Yk_xNm3ko", "plus_code": {"global_code": "7JFJ3WP6+32", "compound_code": "3WP6+32 Mumbai, Maharashtra, India"}, "vicinity": "LG-26, Suchita Business Park, Near Railway Station, BMC Building Pantnagar, Patel Chowk, Ghatkopar West, Mumbai", "photos": [{"photo_reference": "CmRaAAAA5GasKCftQIdp7pDnE36e_CDn4oLeiRp-7HFeQWw_jeK4yspAkRZf1ZCOidToRcVar-_1YaO7NAh02vhs6gUtEjF4RTfUQRvkMUZDcPGWIrXmMamu0puQareXfmTTspkOEhAXe1BaaWtXEjUCfO3bC3vJGhTRjQNnvPL7eVY2W9Gsqv3qYWyrjA", "width": 899, "html_attributions": ["<a href=\"https://maps.google.com/maps/contrib/101617916792526271820\">NATURAL HEALTH CARE</a>"], "height": 598}], "scope": "GOOGLE", "business_status": "OPERATIONAL", "types": ["local_government_office", "health", "point_of_interest", "establishment"], "icon": "https://maps.gstatic.com/mapfiles/place_api/icons/v1/png_71/civic_building-71.png"}, {"rating": 3.5, "user_ratings_total": 18, "name": "TR Manpower Consultants Pvt Ltd", "reference": "ChIJWZiRgi3G5zsRLBaQJsKCceA", "geometry": {"location": {"lat": 19.0851952, "lng": 72.9099815}, "viewport": {"northeast": {"lat": 19.0864549302915, "lng": 72.91138578029151}, "southwest": {"lat": 19.0837569697085, "lng": 72.9086878197085}}}, "opening_hours": {"open_now": false}, "place_id": "ChIJWZiRgi3G5zsRLBaQJsKCceA", "plus_code": {"global_code": "7JFJ3WP5+3X", "compound_code": "3WP5+3X Mumbai, Maharashtra, India"}, "vicinity": "412, 4th Floor, Suchita Business Park, Municipal market, Patel Chowk, Pant Nagar, Ghatkopar East, Mumbai", "photos": [{"photo_reference": "CmRaAAAA9PhxUakGtM7C2YPOzkuTkScfsFGAAYdn03Q7qWyGeFoT-x4W2qFtnFf2PgHAsbIG3fZZ718jurD8-SVASt-V0Ca1GCdUuNi-VDc72sprMK-_WaPpcKKeZm3xFUg46Kp3EhBgQYkNym7FAOVUv1ylpO9fGhTVocAtsf9YQcWQHE4thNAhAWxmTA", "width": 1800, "html_attributions": ["<a href=\"https://maps.google.com/maps/contrib/113902188122757643055\">Anand Ray</a>"], "height": 1200}], "scope": "GOOGLE", "business_status": "OPERATIONAL", "types": ["local_government_office", "point_of_interest", "establishment"], "icon": "https://maps.gstatic.com/mapfiles/place_api/icons/v1/png_71/civic_building-71.png"}, {"name": "Rajawadi Health Post", "reference": "ChIJ4-19IyDH5zsR1viE4DlHw94", "geometry": {"location": {"lat": 19.0828869, "lng": 72.9089357}, "viewport": {"northeast": {"lat": 19.0842193802915, "lng": 72.91036748029151}, "southwest": {"lat": 19.0815214197085, "lng": 72.9076695197085}}}, "opening_hours": {"open_now": false}, "place_id": "ChIJ4-19IyDH5zsR1viE4DlHw94", "plus_code": {"global_code": "7JFJ3WM5+5H", "compound_code": "3WM5+5H Mumbai, Maharashtra, India"}, "vicinity": "Saibaba Nagar, Pant Nagar, Ghatkopar East, Mumbai", "scope": "GOOGLE", "business_status": "OPERATIONAL", "types": ["local_government_office", "health", "point_of_interest", "establishment"], "icon": "https://maps.gstatic.com/mapfiles/place_api/icons/v1/png_71/civic_building-71.png"}, {"rating": 5, "user_ratings_total": 1, "permanently_closed": true, "name": "Dhamma vahini office", "reference": "ChIJL7nxXC7G5zsReM09ZpbcBPY", "geometry": {"location": {"lat": 19.0805471, "lng": 72.9082552}, "viewport": {"northeast": {"lat": 19.0818782302915, "lng": 72.90966598029149}, "southwest": {"lat": 19.0791802697085, "lng": 72.90696801970849}}}, "place_id": "ChIJL7nxXC7G5zsReM09ZpbcBPY", "plus_code": {"global_code": "7JFJ3WJ5+68", "compound_code": "3WJ5+68 Mumbai, Maharashtra, India"}, "vicinity": "Chandra Rashmi Building, G1, RB Mehta Marg, Ghatkopar East, Mumbai", "scope": "GOOGLE", "business_status": "CLOSED_TEMPORARILY", "types": ["local_government_office", "point_of_interest", "establishment"], "icon": "https://maps.gstatic.com/mapfiles/place_api/icons/v1/png_71/civic_building-71.png"}, {"permanently_closed": true, "name": "Companysregistration.com in Ghatkopar", "reference": "ChIJfeSPUi7G5zsR1m6Z1N1pyiQ", "geometry": {"location": {"lat": 19.0795055, "lng": 72.9082435}, "viewport": {"northeast": {"lat": 19.0807397302915, "lng": 72.9095511802915}, "southwest": {"lat": 19.07804176970849, "lng": 72.90685321970848}}}, "place_id": "ChIJfeSPUi7G5zsR1m6Z1N1pyiQ", "plus_code": {"global_code": "7JFJ3WH5+R7", "compound_code": "3WH5+R7 Mumbai, Maharashtra, India"}, "vicinity": "AB-35, Vallabh Baug Lane, Janak Kutir, MHADA Colony, Sindhu Wadi, Ghatkopar East, Mumbai", "scope": "GOOGLE", "business_status": "CLOSED_TEMPORARILY", "types": ["local_government_office", "point_of_interest", "establishment"], "icon": "https://maps.gstatic.com/mapfiles/place_api/icons/v1/png_71/civic_building-71.png"}, {"rating": 5, "user_ratings_total": 1, "permanently_closed": true, "name": "Yashodhan Cooperative Housing Society", "reference": "ChIJ1UgtUy7G5zsRtptw7FsMFsM", "geometry": {"location": {"lat": 19.0793661, "lng": 72.9082074}, "viewport": {"northeast": {"lat": 19.0806679802915, "lng": 72.9095394302915}, "southwest": {"lat": 19.07797001970849, "lng": 72.9068414697085}}}, "place_id": "ChIJ1UgtUy7G5zsRtptw7FsMFsM", "plus_code": {"global_code": "7JFJ3WH5+P7", "compound_code": "3WH5+P7 Mumbai, Maharashtra, India"}, "vicinity": "AB-35, Vallabh Baug Lane, MHADA Colony, Sindhu Wadi, Ghatkopar East, Mumbai", "photos": [{"photo_reference": "CmRaAAAAiUEiV6-e2dc0p3fmuV_twJgWCJrsoSwf4KpuBipCBlYhE2Sd9Ra6DqUw1FpdxHqY0OpdXgQkTeWMDiVSKWZJw3-kx-TMao-8Gr7fXS_Msr5aCu8bfnELpBBnf5iaZbcjEhA7j5I21zWKsQNsTg9upvsKGhTKO08jYCNmgj941o8_f6s1a3-Zog", "width": 2560, "html_attributions": ["<a href=\"https://maps.google.com/maps/contrib/115824244734485212962\">Chandrakant Rasputra</a>"], "height": 1536}], "scope": "GOOGLE", "business_status": "CLOSED_TEMPORARILY", "types": ["local_government_office", "point_of_interest", "establishment"], "icon": "https://maps.gstatic.com/mapfiles/place_api/icons/v1/png_71/civic_building-71.png"}, {"rating": 4.6, "user_ratings_total": 42, "name": "KaryaMitr.com (a Job Portal for India's Entry Level & frontline Workers)", "reference": "ChIJXzORiiHH5zsROAgBe-_w1w8", "geometry": {"location": {"lat": 19.0910494, "lng": 72.916381}, "viewport": {"northeast": {"lat": 19.0925047802915, "lng": 72.91770683029151}, "southwest": {"lat": 19.0898068197085, "lng": 72.91500886970849}}}, "opening_hours": {"open_now": false}, "place_id": "ChIJXzORiiHH5zsROAgBe-_w1w8", "plus_code": {"global_code": "7JFJ3WR8+CH", "compound_code": "3WR8+CH Mumbai, Maharashtra, India"}, "vicinity": "next to Kanara Business Center, B-210/211, Damji Shamji Corporate Square, next to Kanara Business Center, Laxmi Nagar, Ghatkopar East, Mumbai", "photos": [{"photo_reference": "CmRaAAAA0MABrEzzCIWF1OGq5PdUv8jH4XfcFMTnWnZjejDII2vkizmvHtUvEHCh4Bgc4tYXcu0sk50ZGf8RDHu7ALpBvxAfEIqs_ylGq0kcM6YO9g-ptoSSNsTAX3w-pSijfagOEhBnmltwLTMOzyMf4AAQLW8fGhQ-_cUqSdaO7rgVr_uE-1ULzcbWYw", "width": 1024, "html_attributions": ["<a href=\"https://maps.google.com/maps/contrib/116540819441724625584\">KaryaMitr.com (a Job Portal for India&#39;s Entry Level &amp; frontline Workers)</a>"], "height": 500}], "scope": "GOOGLE", "business_status": "OPERATIONAL", "types": ["local_government_office", "point_of_interest", "establishment"], "icon": "https://maps.gstatic.com/mapfiles/place_api/icons/v1/png_71/generic_business-71.png"}, {"rating": 5, "user_ratings_total": 1, "permanently_closed": true, "name": "Belveder Coop Housing Society", "reference": "ChIJsTKGgi_G5zsR5mKQgbs-xpU", "geometry": {"location": {"lat": 19.07702, "lng": 72.9081087}, "viewport": {"northeast": {"lat": 19.0785258302915, "lng": 72.90901633029151}, "southwest": {"lat": 19.07582786970849, "lng": 72.90631836970849}}}, "place_id": "ChIJsTKGgi_G5zsR5mKQgbs-xpU", "plus_code": {"global_code": "7JFJ3WG5+R6", "compound_code": "3WG5+R6 Mumbai, Maharashtra, India"}, "vicinity": "353, 8, RB Mehta Marg, Ghatkopar East, Mumbai", "scope": "GOOGLE", "business_status": "CLOSED_TEMPORARILY", "types": ["local_government_office", "point_of_interest", "establishment"], "icon": "https://maps.gstatic.com/mapfiles/place_api/icons/v1/png_71/civic_building-71.png"}]}