{"status": "OK", "next_page_token": "CrQCKQEAAFEnCHt-sbej1Nw8pxC5GDWb_UVMRZhl4lPOu_pM_TKQ7PQ7jR5K5umEQjdBpZVTBdaUpNYzqihEPqWTJGC3WQJowSrQX-Bk-QRb1UK79gwtxJjXeBs03OO3eiwNqQKzLunaBlr0Nb1UDfBkcDtePcKc4CUdbwjv_vKPcJEJsMJJW3Yb-1ks9nEEYmHDLmoIHiXL2Far_Gd7c1UqoZ5lbIfb5JC292OY5_aLiTbwd_4KVjRhinUiVFh2QYZ5n_4tVdFa0CKFk_dLHEyc4PivczFDN7PBmWBvhw369-0irKjC6mz7ZHPfHeFJEJNZAm047OEu1Jomht7qQhJMAaKlRGtruS1ljsPkjqYittYdnOHzqeNw8oVQBTSkwN8Ryqs0jQyvz9UlsgroossF7xxSesMSEFNoq-leL0mxI_plBBo0ihsaFMKo6wZ9vFRWbmQtlzJEj6qAvCb6", "html_attributions": [], "results": [{"rating": 2.5, "user_ratings_total": 13, "name": "Maharashtra Nursing Council", "reference": "ChIJu1nxmVW45zsRqbFUt3IcAh8", "geometry": {"location": {"lat": 19.1799455, "lng": 72.9449229}, "viewport": {"northeast": {"lat": 19.1812237302915, "lng": 72.9462796802915}, "southwest": {"lat": 19.1785257697085, "lng": 72.94358171970849}}}, "place_id": "ChIJu1nxmVW45zsRqbFUt3IcAh8", "plus_code": {"global_code": "7JFJ5WHV+XX", "compound_code": "5WHV+XX Mumbai, Maharashtra, India"}, "vicinity": "Veena Nagar, Mulund West, Mumbai", "scope": "GOOGLE", "business_status": "OPERATIONAL", "types": ["local_government_office", "point_of_interest", "establishment"], "icon": "https://maps.gstatic.com/mapfiles/place_api/icons/v1/png_71/civic_building-71.png"}, {"rating": 4, "user_ratings_total": 4, "name": "THE REAL TOURS & TRAVELS.LLP", "reference": "ChIJn8v1TlS45zsRAQu5MAlfr1U", "geometry": {"location": {"lat": 19.1825873, "lng": 72.9446167}, "viewport": {"northeast": {"lat": 19.1839835302915, "lng": 72.94598383029151}, "southwest": {"lat": 19.18128556970849, "lng": 72.9432858697085}}}, "opening_hours": {"open_now": true}, "place_id": "ChIJn8v1TlS45zsRAQu5MAlfr1U", "plus_code": {"global_code": "7JFJ5WMV+2R", "compound_code": "5WMV+2R Mumbai, Maharashtra, India"}, "vicinity": "LBS Marg, Veena Nagar, Mulund West, Mumbai", "photos": [{"photo_reference": "CmRaAAAAtabOllNspDzGHrpCJ_xdXxJOvx6Lnb7Ag05NLQAhv91GuW6C2Hl37a9jdq5S54Ms-zmUyuznsiNgezkSq75Q7yK0-EB3NbNMGcSWilsGrZWKgTyJiHzezePgpLDsbLDLEhC6dCi2SpBRPk3_1tO7VfYvGhQIpR4QZjsHGME3lC6ToGySzGZXJQ", "width": 2048, "html_attributions": ["<a href=\"https://maps.google.com/maps/contrib/105691103550461061855\">THE REAL TOURS &amp; TRAVELS.LLP</a>"], "height": 1536}], "scope": "GOOGLE", "business_status": "OPERATIONAL", "types": ["travel_agency", "finance", "local_government_office", "point_of_interest", "establishment"], "icon": "https://maps.gstatic.com/mapfiles/place_api/icons/v1/png_71/generic_business-71.png"}, {"rating": 1, "user_ratings_total": 2, "name": "Sagpansetu", "reference": "ChIJL_rkele45zsReSNae5xGD1s", "geometry": {"location": {"lat": 19.172311, "lng": 72.942494}, "viewport": {"northeast": {"lat": 19.1733751802915, "lng": 72.9437850302915}, "southwest": {"lat": 19.17067721970849, "lng": 72.94108706970849}}}, "place_id": "ChIJL_rkele45zsReSNae5xGD1s", "plus_code": {"global_code": "7JFJ5WCR+WX", "compound_code": "5WCR+WX Mumbai, Maharashtra, India"}, "vicinity": "218, Raja Ind Area, P K Road Mulund, Mumbai", "scope": "GOOGLE", "business_status": "OPERATIONAL", "types": ["local_government_office", "point_of_interest", "establishment"], "icon": "https://maps.gstatic.com/mapfiles/place_api/icons/v1/png_71/civic_building-71.png"}, {"permanently_closed": true, "name": "5LPJIVANSATHI.COM", "reference": "ChIJfYhbmlS45zsR7CW1C2QnhCk", "geometry": {"location": {"lat": 19.1811321, "lng": 72.9407731}, "viewport": {"northeast": {"lat": 19.1825673302915, "lng": 72.9420762302915}, "southwest": {"lat": 19.1798693697085, "lng": 72.9393782697085}}}, "place_id": "ChIJfYhbmlS45zsR7CW1C2QnhCk", "plus_code": {"global_code": "7JFJ5WJR+F8", "compound_code": "5WJR+F8 Mumbai, Maharashtra, India"}, "vicinity": "Cypress, Vasant Garden, Near Swapna Nagari, Mulund (west), Mumbai", "scope": "GOOGLE", "business_status": "CLOSED_TEMPORARILY", "types": ["local_government_office", "point_of_interest", "establishment"], "icon": "https://maps.gstatic.com/mapfiles/place_api/icons/v1/png_71/civic_building-71.png"}, {"rating": 4.8, "user_ratings_total": 6, "permanently_closed": true, "name": "Ideal Starke Services LLP", "reference": "ChIJn_lu3nm55zsR-SJZ0YLdkXM", "geometry": {"location": {"lat": 19.1757259, "lng": 72.9374836}, "viewport": {"northeast": {"lat": 19.1771046302915, "lng": 72.9388074302915}, "southwest": {"lat": 19.1744066697085, "lng": 72.93610946970848}}}, "place_id": "ChIJn_lu3nm55zsR-SJZ0YLdkXM", "plus_code": {"global_code": "7JFJ5WGP+7X", "compound_code": "5WGP+7X Mumbai, Maharashtra, India"}, "vicinity": "49/2, Shivaji Chowk, Mulund Colony, Mulund West, Mumbai", "photos": [{"photo_reference": "CmRaAAAAktyWkW2bAPfKKfeWm842dP05QoWxpd0G5kPwLLoDmuUaBrxiyMNi5kU5gMWGZtlFOwpC8x5C7W6s5hO7XslGfG7reHuTFsqL700uvgkjPcNfDrUPsj1otgVkPC-R-KjKEhBONbVawPfsjCKHIqWhu388GhSpOFEQsw9PnMZP_Clt_KRZVkHoGw", "width": 640, "html_attributions": ["<a href=\"https://maps.google.com/maps/contrib/108435499935990658590\">Ideal Starke Services LLP</a>"], "height": 640}], "scope": "GOOGLE", "business_status": "CLOSED_TEMPORARILY", "types": ["accounting", "finance", "local_government_office", "point_of_interest", "establishment"], "icon": "https://maps.gstatic.com/mapfiles/place_api/icons/v1/png_71/civic_building-71.png"}, {"rating": 5, "user_ratings_total": 2, "name": "Ashish Swar & Associates | Accountants | Income Tax Consultants | GST Consultants | Digital Signature Certificates | Mulund | Mumbai", "reference": "ChIJk6jpfI255zsR65KG59vJ68o", "geometry": {"location": {"lat": 19.1820475, "lng": 72.945623}, "viewport": {"northeast": {"lat": 19.1833839302915, "lng": 72.9470034802915}, "southwest": {"lat": 19.1806859697085, "lng": 72.9443055197085}}}, "opening_hours": {"open_now": false}, "place_id": "ChIJk6jpfI255zsR65KG59vJ68o", "plus_code": {"global_code": "7JFJ5WJW+R6", "compound_code": "5WJW+R6 Mumbai, Maharashtra, India"}, "vicinity": "B-8/002, Veena Nagar no. 2 C.H.S. Ltd, LBS Marg, Mulund West, Mumbai", "photos": [{"photo_reference": "CmRaAAAAhHX8sDDH36UqtgoF2G3yHr-6X3EAfJVwOiHEqD99DMv4AswyThY6leS_NXlganair1QmceDUWyo_X35Bni_wYIEdXgn2m4cERCkhns40UEpw55O8HTRSlobQhN0PCcLzEhAOz4NrqirF2Econ4CcToaUGhR4TXFd40-KXFgvLNZOgWMCM7D-hQ", "width": 1051, "html_attributions": ["<a href=\"https://maps.google.com/maps/contrib/114524848920801907406\">Ashish Swar &amp; Associates | Accountants | Income Tax Consultants | GST Consultants | Digital Signature Certificates | Mulund | Mumbai</a>"], "height": 292}], "scope": "GOOGLE", "business_status": "OPERATIONAL", "types": ["accounting", "finance", "local_government_office", "point_of_interest", "establishment"], "icon": "https://maps.gstatic.com/mapfiles/place_api/icons/v1/png_71/generic_business-71.png"}, {"rating": 4.5, "user_ratings_total": 12, "permanently_closed": true, "name": "PHARMACY COUNCIL MH", "reference": "ChIJ06U7f_-45zsRv3S20bvz8sM", "geometry": {"location": {"lat": 19.1800921, "lng": 72.94619220000001}, "viewport": {"northeast": {"lat": 19.1814934302915, "lng": 72.9474314302915}, "southwest": {"lat": 19.17879546970849, "lng": 72.9447334697085}}}, "place_id": "ChIJ06U7f_-45zsRv3S20bvz8sM", "plus_code": {"global_code": "7JFJ5WJW+2F", "compound_code": "5WJW+2F Mumbai, Maharashtra, India"}, "vicinity": "400080, Vardhman Nagar, Mulund West, Mumbai", "photos": [{"photo_reference": "CmRaAAAApE0_HkAdrPNtdG22mIK6tgZuurVzHPHQD1SAYjxrYfjAtT6ZxYZ1RrvNkSDh9lNyP5DR5hEU_mNYQUkDz8QQGapX8rEfNil5vU9pbRluW_HnCdezbFpdQRLbJlAg8VoREhCxMKKlwi8NmXv_PU6LQ5LiGhSpEFqGbaUzVZtLaNBhvyq9mj3aGA", "width": 4032, "html_attributions": ["<a href=\"https://maps.google.com/maps/contrib/116169188051481967697\">mohantyajay</a>"], "height": 3024}], "scope": "GOOGLE", "business_status": "CLOSED_TEMPORARILY", "types": ["pharmacy", "local_government_office", "health", "point_of_interest", "store", "establishment"], "icon": "https://maps.gstatic.com/mapfiles/place_api/icons/v1/png_71/civic_building-71.png"}, {"name": "Mudra Security Service Pvt. Ltd", "reference": "ChIJVVVVVVa45zsRvsAplj2M8lU", "geometry": {"location": {"lat": 19.1746739, "lng": 72.9431038}, "viewport": {"northeast": {"lat": 19.1760573302915, "lng": 72.94443513029151}, "southwest": {"lat": 19.1733593697085, "lng": 72.9417371697085}}}, "place_id": "ChIJVVVVVVa45zsRvsAplj2M8lU", "vicinity": "No. 5, Satyakam, Near Rationing Office, S. N Road, Mulund West, Mumbai - 400080", "scope": "GOOGLE", "business_status": "OPERATIONAL", "types": ["local_government_office", "point_of_interest", "establishment"], "icon": "https://maps.gstatic.com/mapfiles/place_api/icons/v1/png_71/civic_building-71.png"}, {"rating": 5, "user_ratings_total": 1, "name": "Auto Plus", "reference": "ChIJl1sbRVW45zsRawOEyz0pIew", "geometry": {"location": {"lat": 19.175621, "lng": 72.94601399999999}, "viewport": {"northeast": {"lat": 19.1770330802915, "lng": 72.9473603302915}, "southwest": {"lat": 19.1743351197085, "lng": 72.9446623697085}}}, "opening_hours": {"open_now": false}, "place_id": "ChIJl1sbRVW45zsRawOEyz0pIew", "plus_code": {"global_code": "7JFJ5WGW+6C", "compound_code": "5WGW+6C Mumbai, Maharashtra, India"}, "vicinity": "317, BPS Plaza,, Devidayal road, Near Bus Depot., Mulund (West), Mumbai", "scope": "GOOGLE", "business_status": "OPERATIONAL", "types": ["car_dealer", "finance", "insurance_agency", "local_government_office", "car_repair", "point_of_interest", "store", "establishment"], "icon": "https://maps.gstatic.com/mapfiles/place_api/icons/v1/png_71/shopping-71.png"}, {"permanently_closed": true, "name": "Sakharpuda", "reference": "ChIJYylecFe45zsRHM5-QfUW2ME", "geometry": {"location": {"lat": 19.1725656, "lng": 72.94251129999999}, "viewport": {"northeast": {"lat": 19.1741241802915, "lng": 72.9439997302915}, "southwest": {"lat": 19.1714262197085, "lng": 72.94130176970847}}}, "place_id": "ChIJYylecFe45zsRHM5-QfUW2ME", "plus_code": {"global_code": "7JFJ5WFV+22", "compound_code": "5WFV+22 Mumbai, Maharashtra, India"}, "vicinity": "218, Raja Ind Estate, P K Road, Mulund west, Mumbai", "scope": "GOOGLE", "business_status": "CLOSED_TEMPORARILY", "types": ["local_government_office", "point_of_interest", "establishment"], "icon": "https://maps.gstatic.com/mapfiles/place_api/icons/v1/png_71/civic_building-71.png"}, {"rating": 3, "user_ratings_total": 1, "permanently_closed": true, "name": "Kutchi Lohana Matrimonial", "reference": "ChIJOWP4jfi45zsRiz8h_zIgfvQ", "geometry": {"location": {"lat": 19.1757795, "lng": 72.94719959999999}, "viewport": {"northeast": {"lat": 19.1771015802915, "lng": 72.9485490302915}, "southwest": {"lat": 19.1744036197085, "lng": 72.9458510697085}}}, "place_id": "ChIJOWP4jfi45zsRiz8h_zIgfvQ", "plus_code": {"global_code": "7JFJ5WGW+8V", "compound_code": "5WGW+8V Mumbai, Maharashtra, India"}, "vicinity": "ALAG, Shop No. 3/9, BPS PLAZA, Devidayal Road, Mulund (West, Mumbai", "scope": "GOOGLE", "business_status": "CLOSED_TEMPORARILY", "types": ["local_government_office", "point_of_interest", "establishment"], "icon": "https://maps.gstatic.com/mapfiles/place_api/icons/v1/png_71/civic_building-71.png"}, {"name": "Nana Office", "reference": "ChIJOSFvRVe45zsR-gVP2wJ5DRs", "geometry": {"location": {"lat": 19.171281, "lng": 72.94010039999999}, "viewport": {"northeast": {"lat": 19.1725729302915, "lng": 72.9416031802915}, "southwest": {"lat": 19.1698749697085, "lng": 72.93890521970849}}}, "place_id": "ChIJOSFvRVe45zsR-gVP2wJ5DRs", "plus_code": {"global_code": "7JFJ5WCR+G2", "compound_code": "5WCR+G2 Mumbai, Maharashtra, India"}, "vicinity": "3, LBS Marg, Sambhaji Nagar, Mumbai", "scope": "GOOGLE", "business_status": "OPERATIONAL", "types": ["local_government_office", "point_of_interest", "establishment"], "icon": "https://maps.gstatic.com/mapfiles/place_api/icons/v1/png_71/civic_building-71.png"}, {"rating": 4.5, "user_ratings_total": 201, "name": "CYBER CAFE AND GAMING ZONE", "reference": "ChIJebRcjeO55zsR4aNtfSLfPk4", "geometry": {"location": {"lat": 19.1756951, "lng": 72.9481256}, "viewport": {"northeast": {"lat": 19.1770990302915, "lng": 72.94947293029149}, "southwest": {"lat": 19.1744010697085, "lng": 72.94677496970849}}}, "opening_hours": {"open_now": true}, "place_id": "ChIJebRcjeO55zsR4aNtfSLfPk4", "plus_code": {"global_code": "7JFJ5WGX+77", "compound_code": "5WGX+77 Mumbai, Maharashtra, India"}, "vicinity": "B.P.S BHAVAN NO. 2, JALARAM ASHISH COMPOUND, Devidayal Road, Mulund West, Mumbai", "photos": [{"photo_reference": "CmRaAAAAbXqwQuqlP7fsMRgYVvtAqRkQGaY2Qdoo17OJvM_PvuRMvmGe9KywX0exITbAVxo2TNYN-8NeuiNURauKQMG2c-AU_faMyNhpSFowzcnz5yNjU0PBoUuUyZmgO0sUI52IEhCTxgf5Um673u2tzgl__eTqGhRiEj0spPvowpcdH5XEmAAF-o3b1Q", "width": 4640, "html_attributions": ["<a href=\"https://maps.google.com/maps/contrib/103057938560658465016\">CYBER CAFE AND GAMING ZONE</a>"], "height": 2610}], "scope": "GOOGLE", "business_status": "OPERATIONAL", "types": ["electronics_store", "local_government_office", "point_of_interest", "store", "establishment"], "icon": "https://maps.gstatic.com/mapfiles/place_api/icons/v1/png_71/generic_business-71.png"}, {"permanently_closed": true, "name": "Agreementonline.in", "reference": "ChIJQYGJmP-55zsRtR5iomtGPRY", "geometry": {"location": {"lat": 19.1715615, "lng": 72.9441569}, "viewport": {"northeast": {"lat": 19.1728360802915, "lng": 72.9454216802915}, "southwest": {"lat": 19.1701381197085, "lng": 72.9427237197085}}}, "place_id": "ChIJQYGJmP-55zsRtR5iomtGPRY", "plus_code": {"global_code": "7JFJ5WCV+JM", "compound_code": "5WCV+JM Mumbai, Maharashtra, India"}, "vicinity": "near telephone exchange, d 6-4 p and t colony, near telephone exchange, Mulund West, Mumbai", "scope": "GOOGLE", "business_status": "CLOSED_TEMPORARILY", "types": ["local_government_office", "point_of_interest", "establishment"], "icon": "https://maps.gstatic.com/mapfiles/place_api/icons/v1/png_71/civic_building-71.png"}, {"permanently_closed": true, "name": "B.F.C Licence Office", "reference": "ChIJoazPdKm55zsRGc3MR1vZGT8", "geometry": {"location": {"lat": 19.1904345, "lng": 72.9428581}, "viewport": {"northeast": {"lat": 19.1917800802915, "lng": 72.94426178029151}, "southwest": {"lat": 19.1890821197085, "lng": 72.94156381970849}}}, "place_id": "ChIJoazPdKm55zsRGc3MR1vZGT8", "plus_code": {"global_code": "7JFJ5WRV+54", "compound_code": "5WRV+54 Thane, Maharashtra, India"}, "vicinity": "S.N Road, Shree Nagar, Shree Nagar, Thane West, Thane", "scope": "GOOGLE", "business_status": "CLOSED_TEMPORARILY", "types": ["local_government_office", "point_of_interest", "establishment"], "icon": "https://maps.gstatic.com/mapfiles/place_api/icons/v1/png_71/civic_building-71.png"}, {"permanently_closed": true, "name": "Kohler Power Truck", "reference": "ChIJTWduoKm55zsRjT2A1-3hW3k", "geometry": {"location": {"lat": 19.19061499999999, "lng": 72.943146}, "viewport": {"northeast": {"lat": 19.1920928302915, "lng": 72.94457783029151}, "southwest": {"lat": 19.1893948697085, "lng": 72.9418798697085}}}, "place_id": "ChIJTWduoKm55zsRjT2A1-3hW3k", "plus_code": {"global_code": "7JFJ5WRV+67", "compound_code": "5WRV+67 Thane, Maharashtra, India"}, "vicinity": "Ashram Road, Sector No 3, Shree Nagar, Thane West, Thane", "scope": "GOOGLE", "business_status": "CLOSED_TEMPORARILY", "types": ["local_government_office", "point_of_interest", "establishment"], "icon": "https://maps.gstatic.com/mapfiles/place_api/icons/v1/png_71/civic_building-71.png"}, {"rating": 3, "user_ratings_total": 1, "name": "Social Networking Welfare Asoociation", "reference": "ChIJR1VVxQC55zsR39JZ9XbNzeo", "geometry": {"location": {"lat": 19.188824, "lng": 72.94827099999999}, "viewport": {"northeast": {"lat": 19.1901712802915, "lng": 72.9496260302915}, "southwest": {"lat": 19.1874733197085, "lng": 72.94692806970849}}}, "opening_hours": {"open_now": false}, "place_id": "ChIJR1VVxQC55zsR39JZ9XbNzeo", "plus_code": {"global_code": "7JFJ5WQX+G8", "compound_code": "5WQX+G8 Thane, Maharashtra, India"}, "vicinity": "Shop No-02,Chandani Apt.,Shivratna Lane,Shivekadi, No-3,Wagle Estate Thane, Kisan Nagar, Thane West, Thane", "scope": "GOOGLE", "business_status": "OPERATIONAL", "types": ["local_government_office", "point_of_interest", "store", "establishment"], "icon": "https://maps.gstatic.com/mapfiles/place_api/icons/v1/png_71/civic_building-71.png"}, {"permanently_closed": true, "name": "Commercial offices Wagle Estate", "reference": "ChIJraBuPaG55zsRcxelXzogaRo", "geometry": {"location": {"lat": 19.1914403, "lng": 72.94365739999999}, "viewport": {"northeast": {"lat": 19.1928845802915, "lng": 72.94501783029149}, "southwest": {"lat": 19.1901866197085, "lng": 72.94231986970848}}}, "place_id": "ChIJraBuPaG55zsRcxelXzogaRo", "plus_code": {"global_code": "7JFJ5WRV+HF", "compound_code": "5WRV+HF Thane, Maharashtra, India"}, "vicinity": "ORACLE BUSINESS HUB Plot No-A 179, Road no-16Z, Opp Kalpataru Prime, Near Ashar IT Park, Wagle Estate, Thane", "scope": "GOOGLE", "business_status": "CLOSED_TEMPORARILY", "types": ["local_government_office", "point_of_interest", "establishment"], "icon": "https://maps.gstatic.com/mapfiles/place_api/icons/v1/png_71/civic_building-71.png"}, {"rating": 5, "user_ratings_total": 1, "name": "Sdp Enterprises LTD", "reference": "ChIJVVVVVVa45zsRXt_s_AggxM0", "geometry": {"location": {"lat": 19.175924, "lng": 72.95200799999999}, "viewport": {"northeast": {"lat": 19.1772831802915, "lng": 72.9533579302915}, "southwest": {"lat": 19.1745852197085, "lng": 72.9506599697085}}}, "opening_hours": {"open_now": false}, "place_id": "ChIJVVVVVVa45zsRXt_s_AggxM0", "plus_code": {"global_code": "7JFJ5XG2+9R", "compound_code": "5XG2+9R Mulund, Mumbai, Maharashtra, India"}, "vicinity": "Mulund West, Mulund", "scope": "GOOGLE", "business_status": "OPERATIONAL", "types": ["finance", "insurance_agency", "local_government_office", "health", "point_of_interest", "establishment"], "icon": "https://maps.gstatic.com/mapfiles/place_api/icons/v1/png_71/generic_business-71.png"}, {"rating": 5, "user_ratings_total": 2, "permanently_closed": true, "name": "Sabamangal Vivah Suchak Kendra", "reference": "ChIJN07Z3am55zsRv5Z34TFqbXg", "geometry": {"location": {"lat": 19.1908474, "lng": 72.9456676}, "viewport": {"northeast": {"lat": 19.1922947302915, "lng": 72.9470185302915}, "southwest": {"lat": 19.1895967697085, "lng": 72.94432056970848}}}, "place_id": "ChIJN07Z3am55zsRv5Z34TFqbXg", "plus_code": {"global_code": "7JFJ5WRW+87", "compound_code": "5WRW+87 Thane, Maharashtra, India"}, "vicinity": "11/A, Girisameep, Shreenagar, Wagle Estate, Thane (west)", "scope": "GOOGLE", "business_status": "CLOSED_TEMPORARILY", "types": ["local_government_office", "point_of_interest", "establishment"], "icon": "https://maps.gstatic.com/mapfiles/place_api/icons/v1/png_71/civic_building-71.png"}]}