{"status": "OK", "next_page_token": "CrQCKQEAAGkHEYGCVYEUtROonBIfYDSWAdiAESj5lXskPmLB452VqTxjrwr24ZRrqzqivA-XBkkZgZyOxk_52iIXHVh2VVAUdgTOjcie5_xiK-clTiHJ-p1bJus9bc9KgV5baQ8MJOp-lH6v98kmpJoKNpwRGT_22EXC4aqXshAnlGBPqLwXgGKNh2ESKDl3ZhzKzrzmdOd6K31lhVmL4A5irzZVz2muxN2gv9qU7P2XixS2BCQOD0TPELAwEtVETngFYHb72vSpKleN8ctbhg1b2Izi-C89WzzaW-6dBZCaLBcJpjaHUB0ht67SMMNGmqb_MReFKiPwLgKAJrG1p0k1QZBkA-RMUtxb1W1QaMTT3McV20a0v0pjIVk2RmaSpVrW9pAQ-t3W1OKhKgo1oGln5oSr1L8SEMSfBMVuyOUuPwvj_Sco6lMaFBUDJzknBtYhSt1YfjTqAN56lrj9", "html_attributions": [], "results": [{"permanently_closed": true, "name": "skp", "reference": "ChIJH_Mchhm25zsRL8x-EJgGShA", "geometry": {"location": {"lat": 19.1351006, "lng": 72.8223201}, "viewport": {"northeast": {"lat": 19.1364769802915, "lng": 72.82368528029151}, "southwest": {"lat": 19.1337790197085, "lng": 72.82098731970851}}}, "place_id": "ChIJH_Mchhm25zsRL8x-EJgGShA", "plus_code": {"global_code": "7JFJ4RPC+2W", "compound_code": "4RPC+2W Mumbai, Maharashtra, India"}, "vicinity": "Mhada Road, Versova, Andheri West, Mumbai", "scope": "GOOGLE", "business_status": "CLOSED_TEMPORARILY", "types": ["local_government_office", "point_of_interest", "establishment"], "icon": "https://maps.gstatic.com/mapfiles/place_api/icons/v1/png_71/civic_building-71.png"}, {"permanently_closed": true, "name": "Melap Lagna Kendra", "reference": "ChIJQf7LdBi25zsRXQRJuS__3M0", "geometry": {"location": {"lat": 19.1363246, "lng": 72.82766}, "viewport": {"northeast": {"lat": 19.1376129302915, "lng": 72.8290160302915}, "southwest": {"lat": 19.1349149697085, "lng": 72.82631806970849}}}, "place_id": "ChIJQf7LdBi25zsRXQRJuS__3M0", "vicinity": "B/405 Arihant, Opp. Greater Bank, Bon-Bon Lane, 7 Bungalows, Andheri (w), Mumbai", "scope": "GOOGLE", "business_status": "CLOSED_TEMPORARILY", "types": ["local_government_office", "point_of_interest", "establishment"], "icon": "https://maps.gstatic.com/mapfiles/place_api/icons/v1/png_71/civic_building-71.png"}, {"permanently_closed": true, "name": "Decent Match", "reference": "ChIJtUp9VAS25zsRBqEiN3rhVuo", "geometry": {"location": {"lat": 19.133334, "lng": 72.8128431}, "viewport": {"northeast": {"lat": 19.1346627302915, "lng": 72.81424023029149}, "southwest": {"lat": 19.1319647697085, "lng": 72.81154226970848}}}, "place_id": "ChIJtUp9VAS25zsRBqEiN3rhVuo", "plus_code": {"global_code": "7JFJ4RM7+84", "compound_code": "4RM7+84 Mumbai, Maharashtra, India"}, "vicinity": "behind Ganesh Temple, 103, Aram Nagar, 2nd Part, 7 Bungalows, J.P. Road Andheri West, behind Ganesh Temple, Mumbai", "scope": "GOOGLE", "business_status": "CLOSED_TEMPORARILY", "types": ["local_government_office", "point_of_interest", "establishment"], "icon": "https://maps.gstatic.com/mapfiles/place_api/icons/v1/png_71/civic_building-71.png"}, {"rating": 4, "user_ratings_total": 4, "name": "E-Registration of Leave & License Agreements", "reference": "ChIJB8rn0Dy25zsRGJJ1da0BpwI", "geometry": {"location": {"lat": 19.1387, "lng": 72.831299}, "viewport": {"northeast": {"lat": 19.1400542302915, "lng": 72.83275333029151}, "southwest": {"lat": 19.1373562697085, "lng": 72.8300553697085}}}, "opening_hours": {"open_now": false}, "place_id": "ChIJB8rn0Dy25zsRGJJ1da0BpwI", "plus_code": {"global_code": "7JFJ4RQJ+FG", "compound_code": "4RQJ+FG Mumbai, Maharashtra, India"}, "vicinity": "9 Citi Mall, Andheri Link Road, Andheri West, Mumbai", "photos": [{"photo_reference": "CmRaAAAAVxh8-f1hh9-1zslAdV8eO2qzq9mxWayZ3m0e-6zlQpQNatgVj2Hhm-a-aA8P9T8qg_jUe7i7tzW7NisE50QBv63VoiyOR-vRrOyaH68VK7BXgRtvj9akI_w_uGsZ61RREhBtm00obobkFZh4hV-HWnCiGhRrz0xCdGwDx3nlm0swLMm5YXCurQ", "width": 1440, "html_attributions": ["<a href=\"https://maps.google.com/maps/contrib/104004723587847847395\">E-Registration of Leave &amp; License Agreements</a>"], "height": 809}], "scope": "GOOGLE", "business_status": "OPERATIONAL", "types": ["local_government_office", "point_of_interest", "establishment"], "icon": "https://maps.gstatic.com/mapfiles/place_api/icons/v1/png_71/civic_building-71.png"}, {"rating": 5, "user_ratings_total": 2, "name": "Headstart Manpower Consultants", "reference": "ChIJ0-tYdSO25zsRNN1eSmYEv8s", "geometry": {"location": {"lat": 19.135371, "lng": 72.832409}, "viewport": {"northeast": {"lat": 19.1366113802915, "lng": 72.8337863802915}, "southwest": {"lat": 19.1339134197085, "lng": 72.8310884197085}}}, "opening_hours": {"open_now": false}, "place_id": "ChIJ0-tYdSO25zsRNN1eSmYEv8s", "plus_code": {"global_code": "7JFJ4RPJ+4X", "compound_code": "4RPJ+4X Mumbai, Maharashtra, India"}, "vicinity": "901, Sri Krishna, Opp Laxmi Industrial Estate, New Link Road, Andheri West, Mumbai", "photos": [{"photo_reference": "CmRaAAAAEinssQlFpcqhgg4oK7CN_CyRxP42Aiaeny4rIeToN8IqJrcTYgBoGabIN6SAZy9yekfGFDoiGXpZdoCepikunTyjGyNB5NfD6V9FRwzh2YlU26SShfcPpFu9qEHsQNaJEhC4NS-BIXuMpxo6uSEV3U3BGhR1gBCCWpW6XlFnW6YTeakqO5KBVw", "width": 2476, "html_attributions": ["<a href=\"https://maps.google.com/maps/contrib/116039499486033496105\">Headstart Manpower Consultants</a>"], "height": 3508}], "scope": "GOOGLE", "business_status": "OPERATIONAL", "types": ["local_government_office", "point_of_interest", "establishment"], "icon": "https://maps.gstatic.com/mapfiles/place_api/icons/v1/png_71/civic_building-71.png"}, {"rating": 4.2, "user_ratings_total": 10, "name": "Dr. Bharati Lavekar", "reference": "ChIJAzlSahe25zsRDGdV4aeDCys", "geometry": {"location": {"lat": 19.1386197, "lng": 72.8236501}, "viewport": {"northeast": {"lat": 19.1400409802915, "lng": 72.8250881802915}, "southwest": {"lat": 19.1373430197085, "lng": 72.8223902197085}}}, "place_id": "ChIJAzlSahe25zsRDGdV4aeDCys", "plus_code": {"global_code": "7JFJ4RQF+CF", "compound_code": "4RQF+CF Mumbai, Maharashtra, India"}, "vicinity": "Bldg. no.7A, New Mhada Complex, Near Lokhandwala Circle, Versova, Andheri (west), Mumbai", "scope": "GOOGLE", "business_status": "OPERATIONAL", "types": ["local_government_office", "point_of_interest", "establishment"], "icon": "https://maps.gstatic.com/mapfiles/place_api/icons/v1/png_71/civic_building-71.png"}, {"name": "Jk Line6 work 2", "reference": "ChIJ4w39lU-35zsRWNLSb-B6OiQ", "geometry": {"location": {"lat": 19.139256, "lng": 72.8238976}, "viewport": {"northeast": {"lat": 19.1406166302915, "lng": 72.82524328029149}, "southwest": {"lat": 19.1379186697085, "lng": 72.82254531970848}}}, "place_id": "ChIJ4w39lU-35zsRWNLSb-B6OiQ", "plus_code": {"global_code": "7JFJ4RQF+PH", "compound_code": "4RQF+PH Mumbai, Maharashtra, India"}, "vicinity": "BMC Road, SV Patel Nagar, Andheri West, Mumbai", "scope": "GOOGLE", "business_status": "OPERATIONAL", "types": ["local_government_office", "point_of_interest", "establishment"], "icon": "https://maps.gstatic.com/mapfiles/place_api/icons/v1/png_71/civic_building-71.png"}, {"rating": 5, "user_ratings_total": 42, "name": "Intellexsys Legal Solutions", "reference": "ChIJUd1AiA625zsRxCOwEL-2DHg", "geometry": {"location": {"lat": 19.1380242, "lng": 72.8155824}, "viewport": {"northeast": {"lat": 19.1395160302915, "lng": 72.81684418029151}, "southwest": {"lat": 19.1368180697085, "lng": 72.8141462197085}}}, "opening_hours": {"open_now": false}, "place_id": "ChIJUd1AiA625zsRxCOwEL-2DHg", "plus_code": {"global_code": "7JFJ4RQ8+66", "compound_code": "4RQ8+66 Mumbai, Maharashtra, India"}, "vicinity": "Sunderwadi, Versova, Andheri West, Mumbai", "photos": [{"photo_reference": "CmRaAAAAdPGZtCvrjmYbgLHjgQuuMbF5FQ6etLAeNGkJsZKp2hhh6AN1XA2czVyaoPCf4A-KYXWMtNomfwabPdxk6dZVqKfo_-0pnrqdk_oCuPgxXEFpcaf1iJc1aQ2Gr8UOlQNkEhAFkFlNPxxxB5Dbib0TwQ61GhRbSLeDpmcqJjx6j5ZsvPW60liNcg", "width": 2250, "html_attributions": ["<a href=\"https://maps.google.com/maps/contrib/115313675214881872415\">Intellexsys Legal Solutions</a>"], "height": 2250}], "scope": "GOOGLE", "business_status": "OPERATIONAL", "types": ["lawyer", "local_government_office", "point_of_interest", "establishment"], "icon": "https://maps.gstatic.com/mapfiles/place_api/icons/v1/png_71/generic_business-71.png"}, {"permanently_closed": true, "name": "Bhatt Brahman", "reference": "ChIJT4pIUBa25zsRwYss22cEBt8", "geometry": {"location": {"lat": 19.1410204, "lng": 72.8255437}, "viewport": {"northeast": {"lat": 19.1423959302915, "lng": 72.82694698029151}, "southwest": {"lat": 19.1396979697085, "lng": 72.82424901970849}}}, "place_id": "ChIJT4pIUBa25zsRwYss22cEBt8", "plus_code": {"global_code": "7JFJ4RRG+C6", "compound_code": "4RRG+C6 Mumbai, Maharashtra, India"}, "vicinity": "206, Sunbeam Apma Ghar, Unit Number 7, 1 st cross road, Behind Mcdonald / bank of maharashtra, Lokhandwala Complex, Andheri, Mumbai", "scope": "GOOGLE", "business_status": "CLOSED_TEMPORARILY", "types": ["local_government_office", "point_of_interest", "establishment"], "icon": "https://maps.gstatic.com/mapfiles/place_api/icons/v1/png_71/civic_building-71.png"}, {"permanently_closed": true, "name": "Renewal Shop Gumasta Licence Srvices", "reference": "ChIJY8VCJRi25zsRhrw1w2WOlCI", "geometry": {"location": {"lat": 19.136964, "lng": 72.8257483}, "viewport": {"northeast": {"lat": 19.1383130802915, "lng": 72.8271183302915}, "southwest": {"lat": 19.13561511970849, "lng": 72.82442036970849}}}, "place_id": "ChIJY8VCJRi25zsRhrw1w2WOlCI", "plus_code": {"global_code": "7JFJ4RPG+Q7", "compound_code": "4RPG+Q7 Mumbai, Maharashtra, India"}, "vicinity": "Lokhandwala Complex Road, Shastri Nagar, Andheri West, Mumbai", "photos": [{"photo_reference": "CmRaAAAAF3CtqUjis91Pp-QJIhwMA9toa65UHum7g0oFo53nFO8zICy9KTz1CS7DgIpR9rDyh0u2REjxlWl_Mj66TockymD5MrNNVR4xT8lv4mvBB2sRzUXj0zrp67FbPuo_IUedEhCv0NGuMnc0ayHI7uwjH3_eGhRFuyFuu1_N1njFUkpr3E5e9_RsPQ", "width": 2340, "html_attributions": ["<a href=\"https://maps.google.com/maps/contrib/113392069122726656669\">yashwant gurav</a>"], "height": 4160}], "scope": "GOOGLE", "business_status": "CLOSED_TEMPORARILY", "types": ["local_government_office", "point_of_interest", "establishment"], "icon": "https://maps.gstatic.com/mapfiles/place_api/icons/v1/png_71/civic_building-71.png"}, {"name": "Churiwala Integrated Securities", "reference": "ChIJbYtIXRS25zsRjGRkqdPtwg4", "geometry": {"location": {"lat": 19.1453341, "lng": 72.8235632}, "viewport": {"northeast": {"lat": 19.1467411302915, "lng": 72.8248794302915}, "southwest": {"lat": 19.1440431697085, "lng": 72.82218146970848}}}, "place_id": "ChIJbYtIXRS25zsRjGRkqdPtwg4", "plus_code": {"global_code": "7JFJ4RWF+4C", "compound_code": "4RWF+4C Mumbai, Maharashtra, India"}, "vicinity": "Shop No. 1, Lokhandwala Complex Market, Lokhandwala Complex, Andheri West, Mumbai", "scope": "GOOGLE", "business_status": "OPERATIONAL", "types": ["local_government_office", "point_of_interest", "establishment"], "icon": "https://maps.gstatic.com/mapfiles/place_api/icons/v1/png_71/civic_building-71.png"}, {"rating": 5, "user_ratings_total": 3, "permanently_closed": true, "name": "Woodrose Co Op Hsg Society Limited", "reference": "ChIJm5fdJTzI5zsRp0gm_tvHHL4", "geometry": {"location": {"lat": 19.146729, "lng": 72.8233159}, "viewport": {"northeast": {"lat": 19.1480842302915, "lng": 72.8246556802915}, "southwest": {"lat": 19.1453862697085, "lng": 72.82195771970848}}}, "place_id": "ChIJm5fdJTzI5zsRp0gm_tvHHL4", "plus_code": {"global_code": "7JFJ4RWF+M8", "compound_code": "4RWF+M8 Mumbai, Maharashtra, India"}, "vicinity": "Plot No. 320, Lokhandwala Complex, Off, Hdfc Bank, Survey No. 41, Andheri West, Mumbai", "photos": [{"photo_reference": "CmRaAAAA3FLDVl9cjZ6s1hBCIl3MUlijXbZc3Ch1eboTyGDW27uu5Gzu0mfATFSWVinIGVUX4i-fxVgbgJzbWUn3sGZchso1E9S5lcPLl4J9RdJnceLiW5owfLHfBCEDNDz5s96_EhC-W_SYaXswhwayDhdyIPm5GhQAr1aXg-Mvue2X4QPM8pGVtIDXcA", "width": 2048, "html_attributions": ["<a href=\"https://maps.google.com/maps/contrib/112313035712322423340\">Bhargav Mahadevia</a>"], "height": 2048}], "scope": "GOOGLE", "business_status": "CLOSED_TEMPORARILY", "types": ["local_government_office", "point_of_interest", "establishment"], "icon": "https://maps.gstatic.com/mapfiles/place_api/icons/v1/png_71/civic_building-71.png"}, {"permanently_closed": true, "name": "Companysregistration.com in Andheri", "reference": "ChIJz1vqChi25zsRDKdXVFsX_zI", "geometry": {"location": {"lat": 19.1364583, "lng": 72.82780939999999}, "viewport": {"northeast": {"lat": 19.1378562302915, "lng": 72.82915323029151}, "southwest": {"lat": 19.1351582697085, "lng": 72.82645526970849}}}, "place_id": "ChIJz1vqChi25zsRDKdXVFsX_zI", "plus_code": {"global_code": "7JFJ4RPH+H4", "compound_code": "4RPH+H4 Mumbai, Maharashtra, India"}, "vicinity": "4-301, Vastu Lane, Shastri Nagar, Andheri West, Mumbai", "scope": "GOOGLE", "business_status": "CLOSED_TEMPORARILY", "types": ["local_government_office", "point_of_interest", "establishment"], "icon": "https://maps.gstatic.com/mapfiles/place_api/icons/v1/png_71/civic_building-71.png"}, {"name": "SHIV SENA SHAKA", "reference": "ChIJTTJFBJe35zsRdFy9Sea-8Vo", "geometry": {"location": {"lat": 19.13879, "lng": 72.8098894}, "viewport": {"northeast": {"lat": 19.1401443302915, "lng": 72.81125018029151}, "southwest": {"lat": 19.1374463697085, "lng": 72.80855221970849}}}, "place_id": "ChIJTTJFBJe35zsRdFy9Sea-8Vo", "plus_code": {"global_code": "7JFJ4RQ5+GX", "compound_code": "4RQ5+GX Mumbai, Maharashtra, India"}, "vicinity": "Yari Road, Amit Nagar, Versova, Andheri West, Mumbai", "scope": "GOOGLE", "business_status": "OPERATIONAL", "types": ["local_government_office", "point_of_interest", "establishment"], "icon": "https://maps.gstatic.com/mapfiles/place_api/icons/v1/png_71/civic_building-71.png"}, {"rating": 4, "user_ratings_total": 2, "permanently_closed": true, "name": "Shivam Apartments", "reference": "ChIJp4tgIRy25zsRp-bssekEQi4", "geometry": {"location": {"lat": 19.1297593, "lng": 72.82164949999999}, "viewport": {"northeast": {"lat": 19.1310594302915, "lng": 72.82315518029151}, "southwest": {"lat": 19.12836146970849, "lng": 72.82045721970849}}}, "place_id": "ChIJp4tgIRy25zsRp-bssekEQi4", "plus_code": {"global_code": "7JFJ4RHC+WM", "compound_code": "4RHC+WM Mumbai, Maharashtra, India"}, "vicinity": "Gharkul Society, Seven Bunglow, Andheri West, Mumbai", "scope": "GOOGLE", "business_status": "CLOSED_TEMPORARILY", "types": ["local_government_office", "point_of_interest", "establishment"], "icon": "https://maps.gstatic.com/mapfiles/place_api/icons/v1/png_71/civic_building-71.png"}, {"rating": 5, "user_ratings_total": 6, "permanently_closed": true, "name": "E-MEDIA GROUP", "reference": "ChIJSbOopim35zsRQtRoov73yY4", "geometry": {"location": {"lat": 19.1395595, "lng": 72.8309598}, "viewport": {"northeast": {"lat": 19.1409047802915, "lng": 72.83230908029151}, "southwest": {"lat": 19.1382068197085, "lng": 72.8296111197085}}}, "place_id": "ChIJSbOopim35zsRQtRoov73yY4", "plus_code": {"global_code": "7JFJ4RQJ+R9", "compound_code": "4RQJ+R9 Mumbai, Maharashtra, India"}, "vicinity": "Shop No.147, Citi Mall, New Link Road, Andheri West, Mumbai", "scope": "GOOGLE", "business_status": "CLOSED_TEMPORARILY", "types": ["local_government_office", "point_of_interest", "establishment"], "icon": "https://maps.gstatic.com/mapfiles/place_api/icons/v1/png_71/generic_business-71.png"}, {"name": "Azhar Bhati Architects", "reference": "ChIJaW1zhNq35zsRmVO3sl7uJtY", "geometry": {"location": {"lat": 19.1458383, "lng": 72.82933969999999}, "viewport": {"northeast": {"lat": 19.1471739802915, "lng": 72.83066148029151}, "southwest": {"lat": 19.1444760197085, "lng": 72.8279635197085}}}, "opening_hours": {"open_now": false}, "place_id": "ChIJaW1zhNq35zsRmVO3sl7uJtY", "plus_code": {"global_code": "7JFJ4RWH+8P", "compound_code": "4RWH+8P Mumbai, Maharashtra, India"}, "vicinity": "PL Deshpande Marg, Andheri West, Mumbai", "scope": "GOOGLE", "business_status": "OPERATIONAL", "types": ["local_government_office", "general_contractor", "point_of_interest", "establishment"], "icon": "https://maps.gstatic.com/mapfiles/place_api/icons/v1/png_71/generic_business-71.png"}, {"rating": 5, "user_ratings_total": 1, "permanently_closed": true, "name": "Chetna Co-op Housing Society", "reference": "ChIJddvlJRy25zsRMVAV21PMsOw", "geometry": {"location": {"lat": 19.1294018, "lng": 72.8215563}, "viewport": {"northeast": {"lat": 19.1311015802915, "lng": 72.8229978302915}, "southwest": {"lat": 19.1284036197085, "lng": 72.82029986970849}}}, "place_id": "ChIJddvlJRy25zsRMVAV21PMsOw", "plus_code": {"global_code": "7JFJ4RHC+QJ", "compound_code": "4RHC+QJ Mumbai, Maharashtra, India"}, "vicinity": "Versova Marg, Gharkul Society, Seven Bunglow, Andheri West, Mumbai", "photos": [{"photo_reference": "CmRaAAAA01lgBi2QB9BTadfEgAQ6mmJoOJMaqH1GXTUgT2c9zJDTRtyzpLWCOfxVwHqZkQja9EjtZxVkKAoJV_wOYL6ZQWpkxD4dGiD7M2SqiJzQ7sjA_5-5p5G010j66c9x1gNTEhBGofoD18b9m5qOxMoZASjGGhQgV73fUiuP2R0XxeZOiE3NqOFOxQ", "width": 1200, "html_attributions": ["<a href=\"https://maps.google.com/maps/contrib/112490221553463694651\">Narendra Mehra</a>"], "height": 1600}], "scope": "GOOGLE", "business_status": "CLOSED_TEMPORARILY", "types": ["local_government_office", "point_of_interest", "establishment"], "icon": "https://maps.gstatic.com/mapfiles/place_api/icons/v1/png_71/civic_building-71.png"}, {"name": "Sustainancy Consultants Private Limited", "reference": "ChIJg4lbaDy35zsRDSPT8P9dng8", "geometry": {"location": {"lat": 19.1455427, "lng": 72.8302492}, "viewport": {"northeast": {"lat": 19.1470069802915, "lng": 72.83159363029151}, "southwest": {"lat": 19.1443090197085, "lng": 72.82889566970849}}}, "opening_hours": {"open_now": false}, "place_id": "ChIJg4lbaDy35zsRDSPT8P9dng8", "plus_code": {"global_code": "7JFJ4RWJ+63", "compound_code": "4RWJ+63 Mumbai, Maharashtra, India"}, "vicinity": "near Nikita tours, Shop number 582, Opposite HP Petrol Pump, near Nikita tours, Adarsh Nagar, Mumbai", "photos": [{"photo_reference": "CmRaAAAAxvTFBsMYPHWtjfLsuSInnua3hIXBP0zYLvncJUrtR3bE_cn8oarqVxjJ5WtZN0wcEhh-o0jNJcMq5N5ivEJt3p46VkjDMvI1GPz1-OX9LR4uIhCERoCuPWAnXNGR7gYxEhB8Z4-ThuSyyCiCDKQ3uXzlGhRslZeIPcWmRFcPGq363nHbunVhbw", "width": 4160, "html_attributions": ["<a href=\"https://maps.google.com/maps/contrib/116188700149907132308\">Vivek Pai</a>"], "height": 3120}], "scope": "GOOGLE", "business_status": "OPERATIONAL", "types": ["local_government_office", "point_of_interest", "establishment"], "icon": "https://maps.gstatic.com/mapfiles/place_api/icons/v1/png_71/generic_business-71.png"}, {"rating": 4, "user_ratings_total": 4, "permanently_closed": true, "name": "Arya Samaj Andher", "reference": "ChIJVVWBSAO25zsRzd0BH4iFrNM", "geometry": {"location": {"lat": 19.1296259, "lng": 72.8153821}, "viewport": {"northeast": {"lat": 19.1309188802915, "lng": 72.8166786302915}, "southwest": {"lat": 19.1282209197085, "lng": 72.8139806697085}}}, "place_id": "ChIJVVWBSAO25zsRzd0BH4iFrNM", "plus_code": {"global_code": "7JFJ4RH8+V5", "compound_code": "4RH8+V5 Mumbai, Maharashtra, India"}, "vicinity": "120, Aram Nagar - 1, Saat Bungla, Andheri West, Mumbai", "scope": "GOOGLE", "business_status": "CLOSED_TEMPORARILY", "types": ["local_government_office", "point_of_interest", "establishment"], "icon": "https://maps.gstatic.com/mapfiles/place_api/icons/v1/png_71/civic_building-71.png"}]}